time_s,x,y,z,roll_rad,pitch_rad,yaw_rad,vx_world,vy_world,vz_world,target_x,target_y,target_z,target_yaw,dist_m,yaw_err_rad,speed_ms,wind_enabled,rl_profile
0.02,0.0,0.0,0.9759,0.0,-0.0,0.0,2.5,2.5,1.5,2.0,2.0,2.0,0.0,3.0081,0.0,3.8406,0,0
0.04,0.0,0.0,0.9445,-0.0074,0.0073,-0.0001,0.8957,0.9024,1.0,2.0,2.0,2.0,0.0,3.0189,0.0001,1.6176,0,2
0.06,0.0007,0.0007,0.9404,-0.0135,0.0135,-0.0012,0.9358,1.0348,0.7016,2.0,2.0,2.0,0.0,3.0195,0.0012,1.5617,0,1
0.08,0.0025,0.0025,0.9572,-0.0198,0.0198,-0.0006,0.485,0.4341,0.1822,2.0,2.0,2.0,0.0,3.0113,0.0006,0.6759,0,7
0.1,0.0056,0.0056,0.9815,-0.0212,0.0241,0.0006,0.5761,0.4631,0.0944,2.0,2.0,2.0,0.0,2.9988,-0.0006,0.7451,0,6
0.12,0.0103,0.0099,1.0013,-0.0227,0.0329,0.0006,0.8899,0.8976,0.2817,2.0,2.0,2.0,0.0,2.9861,-0.0006,1.295,0,1
0.14,0.0169,0.0156,1.0196,-0.0301,0.0383,0.0002,0.9077,0.9648,0.3172,2.0,2.0,2.0,0.0,2.9718,-0.0002,1.3621,0,0
0.16,0.026,0.0233,1.0402,-0.0373,0.043,0.0,0.434,0.4891,0.1494,2.0,2.0,2.0,0.0,2.9538,-0.0,0.6707,0,5
0.18,0.0375,0.0332,1.0602,-0.042,0.0425,0.0015,0.5245,0.4049,0.1684,2.0,2.0,2.0,0.0,2.9331,-0.0015,0.6836,0,4
0.2,0.0514,0.0454,1.0772,-0.0434,0.0453,0.0002,0.2899,0.4884,0.2088,2.0,2.0,2.0,0.0,2.9101,-0.0002,0.6051,0,4
0.22,0.0677,0.06,1.0927,-0.0439,0.0449,0.0006,0.4995,0.5085,0.2372,2.0,2.0,2.0,0.0,2.8845,-0.0006,0.7512,0,3
0.24,0.0866,0.0769,1.1079,-0.0429,0.0478,-0.0,0.4142,0.4937,0.2327,2.0,2.0,2.0,0.0,2.8557,0.0,0.6851,0,3
0.26,0.108,0.0962,1.1235,-0.0449,0.0483,0.0002,0.0831,0.1261,0.1894,2.0,2.0,2.0,0.0,2.8235,-0.0002,0.2422,0,5
0.28,0.1318,0.1178,1.1386,-0.0421,0.0419,0.0008,0.3544,0.352,0.2194,2.0,2.0,2.0,0.0,2.7883,-0.0008,0.5456,0,3
0.3,0.1576,0.1415,1.1536,-0.0402,0.041,-0.0002,0.2757,0.4002,0.2401,2.0,2.0,2.0,0.0,2.7505,0.0002,0.5421,0,2
0.32,0.1852,0.1671,1.1694,-0.0391,0.0388,0.0009,-0.0992,-0.136,0.1371,2.0,2.0,2.0,0.0,2.7098,-0.0009,0.2171,0,6
0.34,0.2143,0.1942,1.1845,-0.0295,0.0302,0.0012,0.27,0.2983,0.2659,2.0,2.0,2.0,0.0,2.6673,-0.0012,0.4823,0,0
0.36,0.2445,0.2225,1.1996,-0.0296,0.0276,-0.0006,0.1268,0.3237,0.2376,2.0,2.0,2.0,0.0,2.6233,0.0006,0.4211,0,1
0.38,0.2755,0.2518,1.2157,-0.028,0.023,0.0002,-0.2098,-0.2314,0.1347,2.0,2.0,2.0,0.0,2.5778,-0.0002,0.3402,0,5
0.4,0.3068,0.2818,1.2312,-0.0156,0.0145,0.0006,-0.2438,-0.2293,0.1528,2.0,2.0,2.0,0.0,2.5319,-0.0006,0.3679,0,4
0.42,0.3379,0.3117,1.2448,-0.0078,0.0079,0.0004,-0.2922,-0.245,0.1112,2.0,2.0,2.0,0.0,2.4866,-0.0004,0.3972,0,7
0.44,0.3685,0.3412,1.2559,-0.0047,0.002,0.0004,-0.2796,-0.2494,0.1418,2.0,2.0,2.0,0.0,2.4428,-0.0004,0.4006,0,7
0.46,0.3981,0.3699,1.2656,0.0018,-0.0053,0.0003,-0.252,-0.2044,0.2352,2.0,2.0,2.0,0.0,2.4006,-0.0003,0.4007,0,4
0.48,0.4264,0.3974,1.276,0.0096,-0.009,-0.0004,-0.2685,-0.1927,0.143,2.0,2.0,2.0,0.0,2.3598,0.0004,0.3601,0,7
0.5,0.453,0.4234,1.2858,0.011,-0.0149,-0.0001,-0.1657,-0.1641,0.2224,2.0,2.0,2.0,0.0,2.3214,0.0001,0.3222,0,4
0.52,0.4777,0.4477,1.2951,0.0145,-0.0206,-0.0003,-0.1436,-0.0972,0.224,2.0,2.0,2.0,0.0,2.2856,0.0003,0.2833,0,4
0.54,0.5001,0.4702,1.3061,0.0188,-0.0227,-0.0002,-0.0685,-0.0656,0.1901,2.0,2.0,2.0,0.0,2.252,0.0002,0.2125,0,4
0.56,0.5203,0.4905,1.3179,0.0214,-0.0229,0.0003,0.0108,-0.0312,0.168,2.0,2.0,2.0,0.0,2.2211,-0.0003,0.1712,0,4
0.58,0.5383,0.5088,1.3299,0.0228,-0.0222,0.0001,0.0394,0.0556,0.1593,2.0,2.0,2.0,0.0,2.193,-0.0001,0.1733,0,4
0.6,0.5541,0.5249,1.3417,0.0205,-0.0235,0.0001,0.1018,0.1081,0.1541,2.0,2.0,2.0,0.0,2.1679,-0.0001,0.2141,0,4
0.62,0.5678,0.5392,1.3535,0.0183,-0.0228,-0.0001,0.1551,0.1643,0.1496,2.0,2.0,2.0,0.0,2.1455,0.0001,0.271,0,4
0.64,0.5795,0.5517,1.3651,0.0163,-0.02,-0.0001,0.214,0.2058,0.1456,2.0,2.0,2.0,0.0,2.1257,0.0001,0.3307,0,4
0.66,0.5895,0.5627,1.3766,0.0139,-0.0165,-0.0002,0.2605,0.2475,0.1424,2.0,2.0,2.0,0.0,2.1081,0.0002,0.3866,0,4
0.68,0.5981,0.5724,1.3878,0.0104,-0.0129,-0.0002,0.3012,0.2807,0.14,2.0,2.0,2.0,0.0,2.0924,0.0002,0.4349,0,4
0.7,0.6056,0.5812,1.3989,0.0066,-0.0091,-0.0003,0.3325,0.3071,0.1379,2.0,2.0,2.0,0.0,2.0782,0.0003,0.4731,0,4
0.72,0.6122,0.5892,1.4096,0.0028,-0.0048,-0.0003,0.5442,0.5256,0.1816,2.0,2.0,2.0,0.0,2.0652,0.0003,0.7781,0,1
0.74,0.6183,0.5968,1.4207,-0.0044,0.0026,-0.0013,0.3262,0.3745,0.1243,2.0,2.0,2.0,0.0,2.0527,0.0013,0.512,0,4
0.76,0.6243,0.6045,1.4314,-0.0103,0.0046,0.0004,0.6082,0.471,0.1715,2.0,2.0,2.0,0.0,2.0404,-0.0004,0.7881,0,1
0.78,0.6305,0.6125,1.4415,-0.0119,0.0141,-0.0011,0.2963,0.3795,0.13,2.0,2.0,2.0,0.0,2.028,0.0011,0.4987,0,4
0.8,0.6373,0.6211,1.4512,-0.0183,0.0136,0.0006,0.4109,0.2248,0.1313,2.0,2.0,2.0,0.0,2.0148,-0.0006,0.4865,0,4
0.82,0.6447,0.6306,1.4604,-0.0205,0.0159,-0.0003,0.2848,0.297,0.1362,2.0,2.0,2.0,0.0,2.0008,0.0003,0.4335,0,4
0.84,0.653,0.641,1.4694,-0.0198,0.0191,0.0002,0.2122,0.1332,0.1038,2.0,2.0,2.0,0.0,1.9857,-0.0002,0.2712,0,6
0.86,0.6622,0.6522,1.4777,-0.0159,0.022,0.0007,0.2795,0.18,0.1428,2.0,2.0,2.0,0.0,1.9695,-0.0007,0.3618,0,4
0.88,0.6726,0.6642,1.4857,-0.0144,0.0233,-0.0001,0.0749,0.0879,0.0932,2.0,2.0,2.0,0.0,1.9521,0.0001,0.1484,0,7
0.9,0.684,0.6769,1.4935,-0.0169,0.0186,0.0009,0.1026,0.0155,0.0933,2.0,2.0,2.0,0.0,1.9337,-0.0009,0.1395,0,7
0.92,0.6963,0.6902,1.5004,-0.0141,0.0156,0.0001,0.1205,0.1578,0.1541,2.0,2.0,2.0,0.0,1.9144,-0.0001,0.2514,0,4
0.94,0.7093,0.7039,1.5071,-0.0118,0.0162,0.0005,0.1424,0.0899,0.1534,2.0,2.0,2.0,0.0,1.8944,-0.0005,0.2278,0,4
0.96,0.7229,0.718,1.5147,-0.0106,0.0134,0.0,0.083,0.1091,0.1344,2.0,2.0,2.0,0.0,1.8735,-0.0,0.192,0,4
0.98,0.737,0.7323,1.5226,-0.0087,0.0113,-0.0004,0.0408,0.0645,0.1124,2.0,2.0,2.0,0.0,1.8521,0.0004,0.1359,0,5
1.0,0.7513,0.7468,1.5304,-0.0082,0.0103,0.0001,0.0873,0.0506,0.121,2.0,2.0,2.0,0.0,1.8304,-0.0001,0.1576,0,4
1.02,0.7658,0.7612,1.5382,-0.0064,0.008,-0.0002,0.0231,0.0457,0.1059,2.0,2.0,2.0,0.0,1.8086,0.0002,0.1176,0,5
1.04,0.7804,0.7755,1.5457,-0.005,0.0069,0.0005,0.0781,0.0325,0.1197,2.0,2.0,2.0,0.0,1.7869,-0.0005,0.1466,0,4
1.06,0.7949,0.7897,1.5529,-0.0035,0.0044,0.0,0.2627,0.2998,0.1525,2.0,2.0,2.0,0.0,1.7655,-0.0,0.4268,0,1
1.08,0.8092,0.8037,1.561,-0.0069,0.0049,-0.0004,0.2838,0.3211,0.1433,2.0,2.0,2.0,0.0,1.7441,0.0004,0.4519,0,0
1.1,0.8234,0.8177,1.5701,-0.0092,0.0064,-0.0002,-0.0187,-0.0254,0.0456,2.0,2.0,2.0,0.0,1.7225,0.0002,0.0555,0,7
1.12,0.8375,0.8317,1.5779,-0.0063,0.0051,0.001,0.0558,-0.0144,0.0848,2.0,2.0,2.0,0.0,1.7013,-0.001,0.1026,0,5
1.14,0.8515,0.8457,1.5842,-0.0041,0.0031,0.0002,0.2178,0.2594,0.1345,2.0,2.0,2.0,0.0,1.6806,-0.0002,0.3644,0,2
1.16,0.8652,0.8595,1.591,-0.0071,0.0027,-0.0003,0.2046,0.2234,0.1103,2.0,2.0,2.0,0.0,1.66,0.0003,0.3224,0,3
1.18,0.8787,0.8733,1.5983,-0.0081,0.0044,0.0002,0.015,-0.0208,0.071,2.0,2.0,2.0,0.0,1.6396,-0.0002,0.0755,0,6
1.2,0.8919,0.887,1.6048,-0.0028,0.005,0.0007,0.221,0.1958,0.1062,2.0,2.0,2.0,0.0,1.6195,-0.0007,0.3138,0,3
1.22,0.9051,0.9004,1.6111,-0.0029,0.006,-0.0003,-0.0098,0.0469,0.093,2.0,2.0,2.0,0.0,1.5997,0.0003,0.1047,0,5
1.24,0.918,0.9137,1.6176,-0.0049,0.0015,0.0004,0.0205,-0.0249,0.0745,2.0,2.0,2.0,0.0,1.5802,-0.0004,0.0811,0,6
1.26,0.9307,0.9267,1.6239,-0.0023,-0.0005,-0.0,-0.0065,0.0064,0.076,2.0,2.0,2.0,0.0,1.561,0.0,0.0766,0,6
1.28,0.9429,0.9395,1.6296,0.001,-0.0004,0.0002,0.2574,0.2388,0.1303,2.0,2.0,2.0,0.0,1.5425,-0.0002,0.3745,0,1
1.3,0.9548,0.9518,1.636,-0.0009,0.0021,-0.0009,0.2105,0.2482,0.1041,2.0,2.0,2.0,0.0,1.5244,0.0009,0.3417,0,2
1.32,0.9663,0.9638,1.6431,-0.0032,0.0036,-0.0005,0.01,-0.0205,0.044,2.0,2.0,2.0,0.0,1.5066,0.0005,0.0495,0,7
1.34,0.9776,0.9755,1.6489,-0.0002,0.0024,0.0005,0.0875,0.0217,0.0029,2.0,2.0,2.0,0.0,1.4894,-0.0005,0.0902,0,12
1.36,0.9886,0.9868,1.6525,0.0018,0.0021,0.0008,0.0473,0.0251,0.0409,2.0,2.0,2.0,0.0,1.4732,-0.0008,0.0674,0,13
1.38,0.9994,0.9976,1.6547,0.0017,0.0018,0.0005,0.078,0.0947,0.0948,2.0,2.0,2.0,0.0,1.4578,-0.0005,0.155,0,10
1.4,1.0098,1.008,1.6573,0.0023,0.0005,-0.0,0.0131,0.0376,0.0454,2.0,2.0,2.0,0.0,1.4429,0.0,0.0604,0,14
1.42,1.02,1.0178,1.66,0.0024,-0.0002,0.0011,0.1756,0.1199,0.1115,2.0,2.0,2.0,0.0,1.4285,-0.0011,0.2401,0,8
1.44,1.0298,1.0271,1.6635,0.0035,0.0017,-0.0008,-0.0195,0.0747,0.0852,2.0,2.0,2.0,0.0,1.4146,0.0008,0.1149,0,7
1.46,1.0393,1.0359,1.6677,-0.0006,-0.0032,0.0009,0.1164,0.0613,0.0464,2.0,2.0,2.0,0.0,1.401,-0.0009,0.1395,0,11
1.48,1.0483,1.0445,1.6716,-0.0028,-0.0012,-0.0004,-0.0024,0.04,0.0046,2.0,2.0,2.0,0.0,1.388,0.0004,0.0403,0,15
1.5,1.057,1.0529,1.6741,-0.0028,-0.0027,0.0009,0.1806,0.1199,0.0969,2.0,2.0,2.0,0.0,1.3757,-0.0009,0.2374,0,9
1.52,1.0651,1.0611,1.6767,-0.0003,-0.0015,-0.0012,0.0987,0.2,0.0933,2.0,2.0,2.0,0.0,1.3639,0.0012,0.2418,0,9
1.54,1.0729,1.0691,1.68,-0.0018,0.0002,-0.0005,0.04,0.0245,0.0121,2.0,2.0,2.0,0.0,1.3522,0.0005,0.0484,0,15
1.56,1.0804,1.0768,1.6829,-0.0006,0.0004,0.0001,0.12,0.0954,0.0613,2.0,2.0,2.0,0.0,1.3411,-0.0001,0.1651,0,11
1.58,1.0876,1.0844,1.6856,0.0005,0.0005,-0.0011,0.1162,0.15,0.0749,2.0,2.0,2.0,0.0,1.3303,0.0011,0.204,0,10
1.6,1.0946,1.0917,1.6889,-0.0005,0.0011,-0.0003,0.2247,0.173,0.0895,2.0,2.0,2.0,0.0,1.3197,0.0003,0.2974,0,8
1.62,1.1015,1.0989,1.6929,-0.0013,0.0042,-0.001,0.0805,0.1075,0.0781,2.0,2.0,2.0,0.0,1.309,0.001,0.1553,0,6
1.64,1.1084,1.1059,1.6975,-0.0035,0.0032,-0.0004,0.12,0.1048,0.0324,2.0,2.0,2.0,0.0,1.2984,0.0004,0.1626,0,11
1.66,1.1153,1.1128,1.7012,-0.0043,0.0029,-0.0015,0.1192,0.15,0.0538,2.0,2.0,2.0,0.0,1.288,0.0015,0.199,0,10
1.68,1.1222,1.1198,1.7042,-0.0031,0.0041,-0.0006,0.06,0.0566,0.0273,2.0,2.0,2.0,0.0,1.2778,0.0006,0.0869,0,14
1.7,1.1291,1.1268,1.7066,-0.0027,0.0052,-0.0005,0.1,0.1,0.0608,2.0,2.0,2.0,0.0,1.2678,0.0005,0.1539,0,12
1.72,1.136,1.1336,1.7092,-0.0024,0.0044,-0.0012,0.1684,0.2057,0.0912,2.0,2.0,2.0,0.0,1.2576,0.0012,0.281,0,8
1.74,1.1431,1.1405,1.7129,-0.0051,0.0041,-0.0011,0.08,0.08,0.02,2.0,2.0,2.0,0.0,1.2471,0.0011,0.1149,0,13
1.76,1.1502,1.1475,1.7161,-0.0056,0.0046,0.0004,0.3233,0.2612,0.1281,2.0,2.0,2.0,0.0,1.2367,-0.0004,0.4349,0,0
1.78,1.1574,1.1546,1.7199,-0.0056,0.0081,-0.0018,0.0641,0.1826,0.0889,2.0,2.0,2.0,0.0,1.226,0.0018,0.213,0,4
1.8,1.1647,1.1619,1.724,-0.0123,0.0022,0.0011,0.06,0.002,-0.0022,2.0,2.0,2.0,0.0,1.215,-0.0011,0.0601,0,14
1.82,1.172,1.1697,1.7265,-0.0097,0.0032,0.0011,0.1,0.0875,0.0518,2.0,2.0,2.0,0.0,1.2041,-0.0011,0.1426,0,12
1.84,1.1793,1.1777,1.7284,-0.0067,0.0042,0.0002,0.0557,0.0772,0.0545,2.0,2.0,2.0,0.0,1.1931,-0.0002,0.1097,0,13
1.86,1.1865,1.1861,1.7306,-0.0072,0.0039,0.0008,0.0395,-0.0015,0.0242,2.0,2.0,2.0,0.0,1.1819,-0.0008,0.0463,0,15
1.88,1.1937,1.1946,1.7325,-0.0054,0.0034,0.0008,0.0746,0.0408,0.0516,2.0,2.0,2.0,0.0,1.1706,-0.0008,0.0994,0,13
1.9,1.2009,1.2031,1.7346,-0.0029,0.0029,0.0002,0.1141,0.1045,0.0791,2.0,2.0,2.0,0.0,1.1593,-0.0002,0.1738,0,9
1.92,1.2081,1.2116,1.7376,-0.0035,0.0033,-0.0001,0.0439,0.0226,0.0169,2.0,2.0,2.0,0.0,1.1479,0.0001,0.0522,0,14
1.94,1.2152,1.22,1.7401,-0.0028,0.0038,0.0012,0.1293,0.0406,0.0589,2.0,2.0,2.0,0.0,1.1366,-0.0012,0.1478,0,10
1.96,1.2224,1.2283,1.7418,-0.0009,0.0037,0.0004,0.0313,0.0328,0.0428,2.0,2.0,2.0,0.0,1.1256,-0.0004,0.0624,0,14
1.98,1.2295,1.2364,1.7433,-0.0005,0.0037,0.0012,0.194,0.1535,0.107,2.0,2.0,2.0,0.0,1.1147,-0.0012,0.2695,0,3
2.0,1.2366,1.2443,1.746,-0.0007,0.005,-0.0004,0.0642,0.1052,0.0547,2.0,2.0,2.0,0.0,1.1038,0.0004,0.1348,0,10
2.02,1.2438,1.2519,1.7493,-0.0034,0.0029,0.0013,0.1486,0.0573,0.0542,2.0,2.0,2.0,0.0,1.0929,-0.0013,0.1683,0,9
2.04,1.2509,1.2595,1.7525,-0.0039,0.0041,0.0004,0.1799,0.196,0.0882,2.0,2.0,2.0,0.0,1.082,-0.0004,0.2803,0,2
2.06,1.2581,1.2671,1.7564,-0.0051,0.0045,0.0001,0.0626,0.0594,0.0248,2.0,2.0,2.0,0.0,1.0709,-0.0001,0.0898,0,11
2.08,1.2653,1.2748,1.7597,-0.0049,0.0045,0.0014,0.0854,0.0163,0.0673,2.0,2.0,2.0,0.0,1.06,-0.0014,0.11,0,5
2.1,1.2726,1.2824,1.7626,-0.0043,0.0049,0.0009,0.2079,0.213,0.1035,2.0,2.0,2.0,0.0,1.049,-0.0009,0.3151,0,0
2.12,1.28,1.2901,1.7666,-0.0056,0.0053,0.0002,0.0038,0.0147,0.0371,2.0,2.0,2.0,0.0,1.0377,-0.0002,0.0401,0,7
2.14,1.2874,1.2979,1.7704,-0.0047,0.004,0.0017,0.096,0.0301,0.0299,2.0,2.0,2.0,0.0,1.0264,-0.0017,0.1049,0,10
2.16,1.2949,1.3057,1.7731,-0.0016,0.0057,0.0006,0.0163,0.0449,0.0214,2.0,2.0,2.0,0.0,1.0152,-0.0006,0.0524,0,13
2.18,1.3025,1.3134,1.7753,0.0007,0.004,0.0009,0.1495,0.1377,0.0824,2.0,2.0,2.0,0.0,1.0042,-0.0009,0.2193,0,3
2.2,1.3101,1.3208,1.778,-0.0006,0.0041,-0.0005,0.1269,0.1585,0.0731,2.0,2.0,2.0,0.0,0.9933,0.0005,0.2158,0,3
2.22,1.3177,1.328,1.7812,-0.0025,0.0062,-0.0004,-0.0033,0.001,-0.0048,2.0,2.0,2.0,0.0,0.9823,0.0004,0.0059,0,15
2.24,1.3254,1.3351,1.7832,-0.0017,0.0039,0.0008,0.0638,0.0283,0.0835,2.0,2.0,2.0,0.0,0.9717,-0.0008,0.1089,0,4
2.26,1.3331,1.3421,1.7847,-0.0013,0.0016,-0.0005,-0.0122,0.0443,0.0749,2.0,2.0,2.0,0.0,0.9613,0.0005,0.0878,0,6
2.28,1.3406,1.3488,1.7868,0.0011,0.0002,-0.0002,0.0395,0.0492,0.0392,2.0,2.0,2.0,0.0,0.9509,0.0002,0.0743,0,12
2.3,1.3479,1.3554,1.789,0.0012,0.0001,0.0001,0.0417,0.0472,0.0387,2.0,2.0,2.0,0.0,0.9409,-0.0001,0.0739,0,11
2.32,1.3551,1.3616,1.7908,0.0001,0.0005,0.0005,0.0893,0.0979,0.0681,2.0,2.0,2.0,0.0,0.9312,-0.0005,0.149,0,8
2.34,1.3621,1.3676,1.7932,0.0001,0.0006,-0.0005,-0.0,0.0499,0.0158,2.0,2.0,2.0,0.0,0.9218,0.0005,0.0523,0,14
2.36,1.3688,1.3734,1.7952,-0.0009,-0.0005,0.001,0.1863,0.1606,0.0906,2.0,2.0,2.0,0.0,0.9127,-0.001,0.2621,0,1
2.38,1.3753,1.379,1.7977,-0.0009,0.0016,-0.0011,0.135,0.215,0.0821,2.0,2.0,2.0,0.0,0.9038,0.0011,0.2668,0,1
2.4,1.3817,1.3845,1.8012,-0.003,0.0037,-0.0,0.0385,0.0267,-0.0078,2.0,2.0,2.0,0.0,0.8948,0.0,0.0475,0,14
2.42,1.388,1.39,1.8038,-0.003,0.0026,0.0005,0.0345,0.037,0.0488,2.0,2.0,2.0,0.0,0.8861,-0.0005,0.0703,0,6
2.44,1.3942,1.3955,1.8058,-0.0003,0.0011,0.0003,0.0064,0.026,0.013,2.0,2.0,2.0,0.0,0.8776,-0.0003,0.0298,0,15
2.46,1.4003,1.4008,1.8074,-0.0009,0.0008,0.0008,0.0557,0.0594,0.0417,2.0,2.0,2.0,0.0,0.8694,-0.0008,0.0914,0,11
2.48,1.4062,1.406,1.809,-0.0008,0.0006,-0.0003,-0.0006,0.0465,0.0535,2.0,2.0,2.0,0.0,0.8613,0.0003,0.0709,0,7
2.5,1.412,1.4111,1.8109,-0.0012,0.0004,0.0004,0.0395,0.0348,0.0222,2.0,2.0,2.0,0.0,0.8534,-0.0004,0.0571,0,14
2.52,1.4176,1.4161,1.8124,-0.0023,0.0002,-0.0006,0.0816,0.1373,0.0633,2.0,2.0,2.0,0.0,0.8458,0.0006,0.1718,0,8
2.54,1.423,1.4212,1.8144,-0.004,-0.0004,-0.0007,0.0364,0.0493,0.0542,2.0,2.0,2.0,0.0,0.8381,0.0007,0.0818,0,6
2.56,1.4282,1.4262,1.817,-0.0032,0.0008,-0.0006,0.1698,0.1715,0.0674,2.0,2.0,2.0,0.0,0.8304,0.0006,0.2506,0,1
2.58,1.4334,1.4313,1.8203,-0.0032,0.0026,-0.001,0.0323,0.0457,-0.0089,2.0,2.0,2.0,0.0,0.8227,0.001,0.0567,0,14
2.6,1.4385,1.4364,1.8226,-0.004,0.0019,0.0006,0.0758,0.0304,0.016,2.0,2.0,2.0,0.0,0.8151,-0.0006,0.0832,0,13
2.62,1.4435,1.4416,1.8236,-0.0037,0.0015,-0.0005,0.0509,0.0805,0.0519,2.0,2.0,2.0,0.0,0.8078,0.0005,0.1085,0,12
2.64,1.4486,1.4469,1.8247,-0.0026,0.0024,0.0004,0.0643,0.0333,0.0426,2.0,2.0,2.0,0.0,0.8005,-0.0004,0.084,0,13
2.66,1.4536,1.4522,1.8263,-0.0025,0.0012,-0.0002,0.0585,0.0711,0.0673,2.0,2.0,2.0,0.0,0.793,0.0002,0.114,0,4
2.68,1.4585,1.4574,1.8283,-0.0017,0.0015,0.0001,0.1331,0.1221,0.0571,2.0,2.0,2.0,0.0,0.7855,-0.0001,0.1894,0,3
2.7,1.4634,1.4627,1.831,-0.0026,0.0033,-0.0002,0.0602,0.0597,0.0117,2.0,2.0,2.0,0.0,0.7779,0.0002,0.0856,0,12
2.72,1.4683,1.468,1.833,-0.0041,0.003,0.0008,0.0819,0.0374,0.057,2.0,2.0,2.0,0.0,0.7705,-0.0008,0.1066,0,4
2.74,1.4733,1.4733,1.835,-0.0037,0.0024,0.0008,0.1245,0.1174,0.0542,2.0,2.0,2.0,0.0,0.7629,-0.0008,0.1795,0,3
2.76,1.4782,1.4787,1.8377,-0.0038,0.0031,0.0004,0.059,0.0594,0.0224,2.0,2.0,2.0,0.0,0.7552,-0.0004,0.0867,0,10
2.78,1.4832,1.4842,1.8402,-0.0049,0.0035,0.0008,0.0215,0.0011,0.0293,2.0,2.0,2.0,0.0,0.7475,-0.0008,0.0363,0,7
2.8,1.4882,1.4897,1.8424,-0.0034,0.0032,0.0,0.0419,0.05,0.0483,2.0,2.0,2.0,0.0,0.7397,-0.0,0.0812,0,4
2.82,1.4933,1.4953,1.8444,-0.0015,0.0028,0.0005,0.1586,0.1323,0.0661,2.0,2.0,2.0,0.0,0.7319,-0.0005,0.2169,0,0
2.84,1.4984,1.5008,1.8469,-0.0025,0.0048,-0.0004,0.103,0.1106,0.0409,2.0,2.0,2.0,0.0,0.724,0.0004,0.1566,0,3
2.86,1.5036,1.5064,1.8497,-0.0049,0.0049,0.0002,0.1511,0.1234,0.0486,2.0,2.0,2.0,0.0,0.716,-0.0002,0.2011,0,0
2.88,1.509,1.5121,1.852,-0.0048,0.0049,0.0002,0.0237,0.0157,0.0367,2.0,2.0,2.0,0.0,0.7079,-0.0002,0.0464,0,5
2.9,1.5145,1.5178,1.8542,-0.004,0.0052,0.0001,-0.003,-0.0053,-0.0004,2.0,2.0,2.0,0.0,0.6996,-0.0001,0.0061,0,15
2.92,1.5201,1.5237,1.8557,-0.0036,0.0041,0.0006,0.06,0.0384,0.0449,2.0,2.0,2.0,0.0,0.6914,-0.0006,0.0842,0,8
2.94,1.5259,1.5295,1.8572,-0.0019,0.0031,-0.0008,0.0038,0.0337,0.0283,2.0,2.0,2.0,0.0,0.6831,0.0008,0.0441,0,12
2.96,1.5316,1.5353,1.859,-0.0018,0.0034,-0.0001,0.103,0.0869,0.05,2.0,2.0,2.0,0.0,0.6747,0.0001,0.1437,0,2
2.98,1.5373,1.541,1.8613,-0.0014,0.0035,-0.001,0.0922,0.111,0.0474,2.0,2.0,2.0,0.0,0.6663,0.001,0.1519,0,1
3.0,1.5431,1.5467,1.8635,-0.0016,0.004,-0.0009,0.1079,0.1068,0.0493,2.0,2.0,2.0,0.0,0.658,0.0009,0.1596,0,0
3.02,1.549,1.5523,1.8658,-0.0033,0.0038,-0.0009,0.0093,0.0133,0.0146,2.0,2.0,2.0,0.0,0.6495,0.0009,0.0218,0,11
3.04,1.5549,1.5579,1.8677,-0.003,0.0038,-0.0003,-0.0047,-0.01,0.0075,2.0,2.0,2.0,0.0,0.6411,0.0003,0.0133,0,14
3.06,1.5609,1.5635,1.869,-0.0013,0.003,-0.0007,-0.0217,-0.0035,0.0389,2.0,2.0,2.0,0.0,0.6329,0.0007,0.0447,0,6
3.08,1.5668,1.5689,1.8701,-0.0006,0.0022,-0.0004,0.0134,0.0172,0.0347,2.0,2.0,2.0,0.0,0.6248,0.0004,0.041,0,10
3.1,1.5726,1.5743,1.8715,-0.0,0.0006,-0.0007,-0.0072,0.0135,0.046,2.0,2.0,2.0,0.0,0.6168,0.0007,0.0485,0,4
3.12,1.5783,1.5794,1.8732,0.0002,0.0009,-0.0005,0.0215,0.0295,0.0297,2.0,2.0,2.0,0.0,0.6089,0.0005,0.0471,0,9
3.14,1.5838,1.5844,1.875,0.0011,-0.0004,-0.0004,-0.0194,-0.0085,0.0245,2.0,2.0,2.0,0.0,0.6013,0.0004,0.0324,0,7
3.16,1.5891,1.5891,1.8769,0.001,-0.0008,-0.0005,0.0018,0.0181,0.0109,2.0,2.0,2.0,0.0,0.594,0.0005,0.0212,0,13
3.18,1.5941,1.5936,1.8784,0.0017,-0.002,-0.0004,0.0043,0.0172,0.0358,2.0,2.0,2.0,0.0,0.5871,0.0004,0.04,0,5
3.2,1.5989,1.5979,1.8803,0.0016,-0.003,-0.0004,0.0772,0.0865,0.0332,2.0,2.0,2.0,0.0,0.5805,0.0004,0.1206,0,3
3.22,1.6033,1.6019,1.8826,0.001,-0.0022,-0.0005,0.0796,0.0904,0.0268,2.0,2.0,2.0,0.0,0.5741,0.0005,0.1234,0,3
3.24,1.6075,1.6057,1.8847,0.0005,-0.0013,-0.0005,0.0044,0.012,0.0164,2.0,2.0,2.0,0.0,0.5682,0.0005,0.0207,0,7
3.26,1.6115,1.6094,1.8865,-0.0001,-0.0011,-0.0005,0.0527,0.0615,0.0223,2.0,2.0,2.0,0.0,0.5625,0.0005,0.084,0,9
3.28,1.6152,1.6129,1.8882,0.0001,-0.0017,-0.0007,0.0873,0.0943,0.0319,2.0,2.0,2.0,0.0,0.5571,0.0007,0.1324,0,3
3.3,1.6187,1.6164,1.8901,-0.0006,-0.0008,-0.0008,0.0146,0.0196,0.0174,2.0,2.0,2.0,0.0,0.5519,0.0008,0.03,0,7
3.32,1.6221,1.6197,1.892,-0.0012,0.0,-0.0006,0.0668,0.0629,0.0199,2.0,2.0,2.0,0.0,0.5469,0.0006,0.0939,0,9
3.34,1.6253,1.6231,1.8937,-0.0006,-0.0001,-0.0009,0.0538,0.0572,0.0179,2.0,2.0,2.0,0.0,0.542,0.0009,0.0805,0,10
3.36,1.6284,1.6263,1.8951,-0.0012,0.001,-0.0004,0.0387,0.0283,0.0099,2.0,2.0,2.0,0.0,0.5373,0.0004,0.049,0,14
3.38,1.6314,1.6296,1.8962,-0.0014,0.0009,-0.0006,0.1043,0.1039,0.04,2.0,2.0,2.0,0.0,0.5328,0.0006,0.1525,0,2
3.4,1.6344,1.6327,1.8977,-0.0016,0.0008,-0.0011,0.0919,0.0938,0.0306,2.0,2.0,2.0,0.0,0.5282,0.0011,0.1348,0,3
3.42,1.6373,1.636,1.8991,-0.0036,0.002,-0.0002,0.0331,0.0108,0.0201,2.0,2.0,2.0,0.0,0.5237,0.0002,0.0402,0,7
3.44,1.6401,1.6393,1.9004,-0.003,0.002,-0.0006,0.0337,0.0311,0.0114,2.0,2.0,2.0,0.0,0.5192,0.0006,0.0473,0,14
3.46,1.643,1.6427,1.9015,-0.0014,0.0015,-0.0003,0.1053,0.0905,0.0378,2.0,2.0,2.0,0.0,0.5146,0.0003,0.1439,0,2
3.48,1.6459,1.6462,1.9029,-0.0026,0.0026,-0.001,0.1056,0.1045,0.0364,2.0,2.0,2.0,0.0,0.5099,0.001,0.153,0,1
3.5,1.649,1.6498,1.9046,-0.0033,0.0038,-0.0004,0.0477,0.0261,0.0105,2.0,2.0,2.0,0.0,0.505,0.0004,0.0554,0,11
3.52,1.6521,1.6535,1.9061,-0.0036,0.0043,-0.0003,0.0174,0.0026,0.017,2.0,2.0,2.0,0.0,0.5,0.0003,0.0245,0,7
3.54,1.6554,1.6572,1.9073,-0.0029,0.0035,-0.0006,0.0316,0.0233,0.0134,2.0,2.0,2.0,0.0,0.4948,0.0006,0.0415,0,13
3.56,1.6587,1.661,1.908,-0.0021,0.0021,0.0002,0.039,0.0156,0.0234,2.0,2.0,2.0,0.0,0.4897,-0.0002,0.0481,0,11
3.58,1.6621,1.6649,1.9087,-0.0028,0.0019,0.0001,0.0363,0.0229,0.0282,2.0,2.0,2.0,0.0,0.4845,-0.0001,0.0513,0,12
3.6,1.6656,1.6688,1.9093,-0.0014,0.0028,-0.0003,0.0251,0.0196,0.0403,2.0,2.0,2.0,0.0,0.4793,0.0003,0.0513,0,4
3.62,1.669,1.6728,1.9098,-0.0018,0.0027,0.0002,0.0249,0.002,0.0367,2.0,2.0,2.0,0.0,0.4741,-0.0002,0.0444,0,5
3.64,1.6725,1.6766,1.9107,-0.002,0.0013,-0.0001,0.032,0.0243,0.024,2.0,2.0,2.0,0.0,0.4688,0.0001,0.0468,0,10
3.66,1.676,1.6805,1.9119,0.0002,0.0015,0.0001,0.093,0.0786,0.0372,2.0,2.0,2.0,0.0,0.4635,-0.0001,0.1273,0,0
3.68,1.6794,1.6843,1.9134,-0.0007,0.0026,-0.0004,0.0411,0.0395,0.0182,2.0,2.0,2.0,0.0,0.4582,0.0004,0.0599,0,8
3.7,1.683,1.688,1.915,-0.0022,0.0026,0.0001,0.0036,-0.0092,0.0116,2.0,2.0,2.0,0.0,0.4529,-0.0001,0.0152,0,7
3.72,1.6865,1.6917,1.9163,-0.0011,0.0018,-0.0002,0.0256,0.0246,0.0149,2.0,2.0,2.0,0.0,0.4476,0.0002,0.0385,0,10
3.74,1.69,1.6953,1.9176,0.0,0.0008,-0.0003,0.0186,0.0141,0.0236,2.0,2.0,2.0,0.0,0.4425,0.0003,0.0332,0,4
3.76,1.6934,1.6988,1.9187,-0.0012,0.0011,-0.0001,0.083,0.077,0.0335,2.0,2.0,2.0,0.0,0.4374,0.0001,0.1181,0,0
3.78,1.6969,1.7022,1.9201,-0.0009,0.0013,-0.0005,0.0365,0.0399,0.0178,2.0,2.0,2.0,0.0,0.4324,0.0005,0.0569,0,8
3.8,1.7002,1.7056,1.9216,-0.0013,0.0017,-0.0001,0.022,0.0129,0.0169,2.0,2.0,2.0,0.0,0.4274,0.0001,0.0306,0,4
3.82,1.7036,1.7089,1.9228,-0.0011,0.0016,-0.0002,0.0787,0.0781,0.0281,2.0,2.0,2.0,0.0,0.4226,0.0002,0.1144,0,0
3.84,1.7069,1.7121,1.9242,-0.0007,0.0014,-0.0005,0.0575,0.0597,0.0186,2.0,2.0,2.0,0.0,0.4177,0.0005,0.0849,0,3
3.86,1.7102,1.7153,1.9257,-0.0019,0.0024,-0.0003,0.0257,0.0243,0.0097,2.0,2.0,2.0,0.0,0.4129,0.0003,0.0366,0,10
3.88,1.7136,1.7185,1.927,-0.0017,0.0022,-0.0003,0.0142,0.0182,0.0173,2.0,2.0,2.0,0.0,0.4082,0.0003,0.0288,0,4
3.9,1.7169,1.7216,1.9277,-0.0008,0.0018,0.0003,0.0195,0.0125,0.0278,2.0,2.0,2.0,0.0,0.4036,-0.0003,0.0362,0,4
3.92,1.7201,1.7247,1.9285,-0.0008,0.0003,0.0004,0.0229,0.0252,0.0196,2.0,2.0,2.0,0.0,0.399,-0.0004,0.0393,0,10
3.94,1.7234,1.7277,1.9295,0.0004,0.0008,0.0003,0.0138,0.0189,0.0122,2.0,2.0,2.0,0.0,0.3945,-0.0003,0.0263,0,13
3.96,1.7265,1.7307,1.9298,-0.0003,0.0015,0.001,0.0083,0.0022,0.0258,2.0,2.0,2.0,0.0,0.3902,-0.001,0.0272,0,6
3.98,1.7296,1.7335,1.9299,-0.0005,0.0,0.0005,0.0629,0.0732,0.0407,2.0,2.0,2.0,0.0,0.3861,-0.0005,0.1047,0,1
4.0,1.7326,1.7362,1.9306,-0.0,-0.0002,0.0002,0.0707,0.079,0.0325,2.0,2.0,2.0,0.0,0.382,-0.0002,0.1109,0,0
4.02,1.7355,1.7388,1.9318,-0.0007,0.001,0.0004,0.0072,0.0097,0.0036,2.0,2.0,2.0,0.0,0.3779,-0.0004,0.0126,0,15
4.04,1.7385,1.7414,1.9327,-0.0008,0.002,0.0006,0.0237,0.0298,0.0161,2.0,2.0,2.0,0.0,0.3739,-0.0006,0.0413,0,12
4.06,1.7414,1.744,1.9333,0.0005,0.0013,0.0003,0.0504,0.0593,0.025,2.0,2.0,2.0,0.0,0.3699,-0.0003,0.0817,0,3
4.08,1.7444,1.7465,1.9341,-0.0004,0.001,0.0001,0.0068,0.0216,0.019,2.0,2.0,2.0,0.0,0.366,-0.0001,0.0295,0,5
4.1,1.7473,1.749,1.9352,-0.0017,0.0014,0.0001,0.055,0.0638,0.019,2.0,2.0,2.0,0.0,0.362,-0.0001,0.0864,0,2
4.12,1.7502,1.7514,1.9365,-0.001,0.001,-0.0001,0.0141,0.0266,0.0081,2.0,2.0,2.0,0.0,0.3581,0.0001,0.0312,0,11
4.14,1.7531,1.7538,1.9376,-0.0014,0.0014,-0.0,0.0262,0.0369,0.0133,2.0,2.0,2.0,0.0,0.3542,0.0,0.0472,0,9
4.16,1.756,1.7563,1.9385,-0.0012,0.0006,-0.0002,0.0094,0.0261,0.0168,2.0,2.0,2.0,0.0,0.3503,0.0002,0.0324,0,4
4.18,1.7588,1.7587,1.9391,-0.0014,0.0013,0.0003,0.0341,0.0371,0.0232,2.0,2.0,2.0,0.0,0.3466,-0.0003,0.0555,0,8
4.2,1.7616,1.7612,1.9395,-0.0015,-0.0,0.0,-0.0048,0.0061,0.0183,2.0,2.0,2.0,0.0,0.3428,-0.0,0.0199,0,7
4.22,1.7643,1.7636,1.9402,-0.0016,0.0004,0.0,0.0097,0.016,0.0146,2.0,2.0,2.0,0.0,0.3391,-0.0,0.0237,0,14
4.24,1.767,1.7661,1.9405,-0.001,-0.0006,0.0005,0.0126,0.013,0.0198,2.0,2.0,2.0,0.0,0.3355,-0.0005,0.0268,0,14
4.26,1.7696,1.7685,1.9407,-0.001,-0.0004,0.0008,0.0342,0.0355,0.0293,2.0,2.0,2.0,0.0,0.332,-0.0008,0.0573,0,8
4.28,1.7721,1.7709,1.9413,-0.0004,-0.0,0.0001,0.0105,0.0248,0.021,2.0,2.0,2.0,0.0,0.3284,-0.0001,0.0341,0,4
4.3,1.7745,1.7732,1.9419,-0.0008,0.0007,0.0009,0.0349,0.0266,0.02,2.0,2.0,2.0,0.0,0.325,-0.0009,0.0482,0,9
4.32,1.7769,1.7756,1.9424,-0.0009,-0.0008,0.0003,0.0504,0.0572,0.0248,2.0,2.0,2.0,0.0,0.3217,-0.0003,0.0802,0,2
4.34,1.7792,1.7779,1.9429,-0.001,0.0001,0.0005,0.0493,0.047,0.0213,2.0,2.0,2.0,0.0,0.3184,-0.0005,0.0713,0,3
4.36,1.7814,1.7802,1.9435,-0.0027,0.001,0.0003,0.0254,0.0263,0.0172,2.0,2.0,2.0,0.0,0.3151,-0.0003,0.0404,0,12
4.38,1.7836,1.7826,1.9444,-0.002,0.001,0.0002,0.0318,0.0291,0.0153,2.0,2.0,2.0,0.0,0.3118,-0.0002,0.0457,0,9
4.4,1.7858,1.7849,1.9447,-0.0013,-0.0,0.0007,0.0553,0.0469,0.0251,2.0,2.0,2.0,0.0,0.3085,-0.0007,0.0768,0,2
4.42,1.788,1.7874,1.945,-0.0019,0.001,0.0001,0.0218,0.0239,0.0241,2.0,2.0,2.0,0.0,0.3053,-0.0001,0.0404,0,12
4.44,1.7902,1.7898,1.9458,-0.0026,0.0019,0.0001,0.0609,0.0535,0.0225,2.0,2.0,2.0,0.0,0.3019,-0.0001,0.0842,0,0
4.46,1.7924,1.7924,1.9468,-0.0017,0.0014,-0.0002,0.0526,0.0483,0.0149,2.0,2.0,2.0,0.0,0.2984,0.0002,0.073,0,1
4.48,1.7946,1.7949,1.9475,-0.0021,0.0028,0.0006,0.0271,0.0086,0.016,2.0,2.0,2.0,0.0,0.295,-0.0006,0.0326,0,12
4.5,1.7969,1.7975,1.948,-0.002,0.0027,-0.0001,-0.004,-0.0045,0.0139,2.0,2.0,2.0,0.0,0.2915,0.0001,0.0152,0,7
4.52,1.7992,1.8002,1.9482,-0.0018,0.0013,0.0007,0.0572,0.0401,0.03,2.0,2.0,2.0,0.0,0.288,-0.0007,0.076,0,0
4.54,1.8015,1.8028,1.9486,-0.0013,0.001,-0.0003,-0.0066,-0.0063,0.0138,2.0,2.0,2.0,0.0,0.2845,0.0003,0.0166,0,7
4.56,1.8038,1.8055,1.9494,-0.0017,0.0012,0.0002,0.0162,0.0004,0.0112,2.0,2.0,2.0,0.0,0.2809,-0.0002,0.0197,0,13
4.58,1.8061,1.8082,1.9501,-0.001,0.0001,-0.0001,0.047,0.0404,0.0207,2.0,2.0,2.0,0.0,0.2773,0.0001,0.0653,0,0
4.6,1.8084,1.8109,1.9509,-0.0006,0.0008,-0.0003,0.0147,0.0064,0.0106,2.0,2.0,2.0,0.0,0.2737,0.0003,0.0192,0,10
4.62,1.8107,1.8135,1.9518,-0.0011,0.0017,-0.0002,0.0037,-0.0074,0.0093,2.0,2.0,2.0,0.0,0.2701,0.0002,0.0124,0,5
4.64,1.813,1.816,1.9525,-0.0006,0.0009,-0.0001,0.0045,-0.0027,0.0096,2.0,2.0,2.0,0.0,0.2666,0.0001,0.0109,0,15
4.66,1.8152,1.8185,1.9522,0.0013,0.0002,0.0001,0.0158,0.0066,0.0272,2.0,2.0,2.0,0.0,0.2634,-0.0001,0.0321,0,10
4.68,1.8174,1.8209,1.952,0.0007,0.0,-0.0005,0.0004,-0.0004,0.0273,2.0,2.0,2.0,0.0,0.2602,0.0005,0.0273,0,5
4.7,1.8195,1.8232,1.9523,0.0003,0.001,-0.0001,0.0069,-0.0,0.0157,2.0,2.0,2.0,0.0,0.2571,0.0001,0.0171,0,15
4.72,1.8216,1.8254,1.9528,0.001,-0.0011,-0.0003,0.0158,0.0134,0.0151,2.0,2.0,2.0,0.0,0.2541,0.0003,0.0256,0,10
4.74,1.8236,1.8275,1.9529,0.0017,-0.0003,0.0003,0.0455,0.0375,0.0262,2.0,2.0,2.0,0.0,0.2512,-0.0003,0.0645,0,1
4.76,1.8256,1.8294,1.9532,0.0009,0.0006,-0.0004,0.0035,0.0097,0.018,2.0,2.0,2.0,0.0,0.2484,0.0004,0.0207,0,5
4.78,1.8275,1.8312,1.954,-0.0001,0.0005,-0.0001,0.0448,0.0417,0.0159,2.0,2.0,2.0,0.0,0.2457,0.0001,0.0632,0,1
4.8,1.8293,1.833,1.9549,0.0006,-0.0,-0.0004,0.0141,0.0181,0.0068,2.0,2.0,2.0,0.0,0.243,0.0004,0.0239,0,11
4.82,1.8311,1.8346,1.9558,-0.0001,0.0008,-0.0002,0.0183,0.0194,0.0068,2.0,2.0,2.0,0.0,0.2404,0.0002,0.0275,0,13
4.84,1.8329,1.8362,1.956,0.0001,0.0,-0.0004,0.0264,0.0327,0.0219,2.0,2.0,2.0,0.0,0.238,0.0004,0.0474,0,8
4.86,1.8347,1.8378,1.9558,0.0011,0.0012,-0.0,0.0061,0.0086,0.0227,2.0,2.0,2.0,0.0,0.2358,0.0,0.025,0,6
4.88,1.8365,1.8392,1.956,0.0002,0.0019,-0.0004,0.0128,0.0231,0.017,2.0,2.0,2.0,0.0,0.2335,0.0004,0.0315,0,11
4.9,1.8384,1.8406,1.9564,0.001,0.0009,-0.0001,0.0254,0.0344,0.0174,2.0,2.0,2.0,0.0,0.2311,0.0001,0.0462,0,8
4.92,1.8402,1.842,1.9571,0.0001,0.0004,-0.0004,0.0009,0.0148,0.0093,2.0,2.0,2.0,0.0,0.2288,0.0004,0.0175,0,6
4.94,1.842,1.8433,1.9578,-0.001,0.001,-0.0002,0.0127,0.0231,0.0085,2.0,2.0,2.0,0.0,0.2265,0.0002,0.0277,0,11
4.96,1.8439,1.8446,1.9579,-0.0003,-0.0001,0.0004,0.0242,0.0346,0.0233,2.0,2.0,2.0,0.0,0.2243,-0.0004,0.0482,0,8
4.98,1.8457,1.8458,1.9581,-0.0002,0.0003,-0.0005,-0.0027,0.0175,0.0162,2.0,2.0,2.0,0.0,0.2221,0.0005,0.024,0,6
5.0,1.8475,1.8471,1.9586,-0.0014,0.0008,-0.0001,0.0224,0.0348,0.015,2.0,2.0,2.0,0.0,0.2199,0.0001,0.044,0,8
5.02,1.8493,1.8484,1.9594,-0.0007,-0.0001,-0.0004,0.0101,0.0235,0.0078,2.0,2.0,2.0,0.0,0.2176,0.0004,0.0267,0,11
5.04,1.851,1.8497,1.9601,-0.0012,0.0006,-0.0002,0.0082,0.0154,0.0059,2.0,2.0,2.0,0.0,0.2154,0.0002,0.0184,0,15
5.06,1.8527,1.851,1.9605,-0.0018,0.0001,-0.0,0.0302,0.0366,0.0144,2.0,2.0,2.0,0.0,0.2132,0.0,0.0495,0,3
5.08,1.8543,1.8523,1.9609,-0.0007,-0.0003,-0.0004,0.0015,0.0127,0.0116,2.0,2.0,2.0,0.0,0.2111,0.0004,0.0173,0,6
5.1,1.8559,1.8537,1.9615,-0.0014,0.0005,-0.0003,0.0097,0.014,0.0082,2.0,2.0,2.0,0.0,0.209,0.0003,0.0189,0,15
5.12,1.8574,1.855,1.962,-0.0012,-0.0006,-0.0002,0.03,0.0336,0.0122,2.0,2.0,2.0,0.0,0.2068,0.0002,0.0467,0,3
5.14,1.859,1.8565,1.9625,-0.0009,-0.0,-0.0005,0.006,0.0123,0.0105,2.0,2.0,2.0,0.0,0.2047,0.0005,0.0172,0,5
5.16,1.8605,1.8579,1.9632,-0.0016,0.0009,-0.0004,0.0102,0.0113,0.007,2.0,2.0,2.0,0.0,0.2025,0.0004,0.0167,0,15
5.18,1.8619,1.8594,1.963,-0.0014,-0.0003,-0.0006,0.0288,0.0308,0.0201,2.0,2.0,2.0,0.0,0.2005,0.0006,0.0467,0,3
5.2,1.8634,1.8609,1.9629,-0.0009,0.0002,-0.0007,0.0035,0.0041,0.0186,2.0,2.0,2.0,0.0,0.1984,0.0007,0.0194,0,6
5.22,1.8649,1.8625,1.9633,-0.0015,0.0011,-0.0007,0.0383,0.0365,0.0172,2.0,2.0,2.0,0.0,0.1963,0.0007,0.0556,0,0
5.24,1.8663,1.8641,1.964,-0.0009,0.0004,-0.0007,0.0341,0.0324,0.0099,2.0,2.0,2.0,0.0,0.194,0.0007,0.048,0,1
5.26,1.8677,1.8657,1.9649,-0.0018,0.0012,-0.0006,0.0074,0.0025,0.004,2.0,2.0,2.0,0.0,0.1918,0.0006,0.0088,0,5
5.28,1.8692,1.8673,1.9656,-0.0015,0.0012,-0.0006,0.0186,0.0138,0.0071,2.0,2.0,2.0,0.0,0.1895,0.0006,0.0242,0,12
5.3,1.8706,1.8689,1.9663,-0.0004,0.0003,-0.0007,0.0263,0.0237,0.0071,2.0,2.0,2.0,0.0,0.1872,0.0007,0.0361,0,3
5.32,1.8721,1.8706,1.9669,-0.0007,0.0008,-0.0005,0.008,0.0002,0.0086,2.0,2.0,2.0,0.0,0.1849,0.0005,0.0117,0,4
5.34,1.8736,1.8723,1.9674,-0.0015,0.0015,-0.0006,0.0126,0.0082,0.0108,2.0,2.0,2.0,0.0,0.1826,0.0006,0.0185,0,13
5.36,1.875,1.8741,1.9676,-0.0,0.0007,-0.0001,0.0088,0.0013,0.014,2.0,2.0,2.0,0.0,0.1803,0.0001,0.0166,0,15
5.38,1.8765,1.8758,1.9676,-0.001,0.0007,-0.0002,0.0095,0.0057,0.0154,2.0,2.0,2.0,0.0,0.1781,0.0002,0.0189,0,11
5.4,1.878,1.8774,1.967,0.0001,0.0006,0.0002,0.013,0.0054,0.0275,2.0,2.0,2.0,0.0,0.1761,-0.0002,0.0309,0,10
5.42,1.8795,1.8791,1.9665,-0.0002,-0.0003,0.0001,0.0089,0.0051,0.0308,2.0,2.0,2.0,0.0,0.174,-0.0001,0.0325,0,14
5.44,1.8808,1.8807,1.9657,-0.0003,0.0006,0.0003,-0.0011,-0.0072,0.024,2.0,2.0,2.0,0.0,0.172,-0.0003,0.0251,0,7
5.46,1.8822,1.8823,1.9651,-0.0,0.0002,0.0004,0.0192,0.0125,0.033,2.0,2.0,2.0,0.0,0.1702,-0.0004,0.0402,0,8
5.48,1.8835,1.8837,1.9652,0.001,-0.0005,-0.0001,0.0153,0.0136,0.0178,2.0,2.0,2.0,0.0,0.1682,0.0001,0.0272,0,9
5.5,1.8847,1.8851,1.9653,0.0003,0.0012,-0.0003,0.0264,0.0242,0.0181,2.0,2.0,2.0,0.0,0.1664,0.0003,0.0401,0,2
5.52,1.886,1.8865,1.9654,0.0002,0.0003,-0.0003,0.0262,0.024,0.0169,2.0,2.0,2.0,0.0,0.1646,0.0003,0.0393,0,2
5.54,1.8872,1.8878,1.9661,-0.0003,0.0004,-0.0001,0.0199,0.0168,0.0095,2.0,2.0,2.0,0.0,0.1627,0.0001,0.0278,0,8
5.56,1.8885,1.8891,1.9669,-0.0007,0.0011,-0.0001,0.0123,0.0115,0.0032,2.0,2.0,2.0,0.0,0.1608,0.0001,0.0171,0,14
5.58,1.8897,1.8903,1.9674,-0.0003,0.001,0.0002,0.0157,0.0131,0.0106,2.0,2.0,2.0,0.0,0.159,-0.0002,0.023,0,10
5.6,1.8909,1.8915,1.9674,-0.0,-0.0002,-0.0007,0.0096,0.0138,0.0162,2.0,2.0,2.0,0.0,0.1573,0.0007,0.0233,0,11
5.62,1.892,1.8927,1.9668,-0.0005,0.0009,-0.0002,0.0239,0.0212,0.0246,2.0,2.0,2.0,0.0,0.1558,0.0002,0.0403,0,3
5.64,1.8932,1.8938,1.9661,-0.0005,-0.0001,0.0,0.0033,0.0019,0.0259,2.0,2.0,2.0,0.0,0.1544,-0.0,0.0262,0,6
5.66,1.8943,1.895,1.966,-0.0006,0.0008,-0.0002,-0.0002,0.0011,0.0151,2.0,2.0,2.0,0.0,0.1528,0.0002,0.0152,0,7
5.68,1.8955,1.8961,1.9655,-0.0001,0.0013,0.0004,0.0142,0.0113,0.0291,2.0,2.0,2.0,0.0,0.1514,-0.0004,0.0343,0,14
5.7,1.8966,1.8972,1.9651,-0.0003,-0.0006,0.0,0.0109,0.0126,0.0227,2.0,2.0,2.0,0.0,0.1499,-0.0,0.0281,0,11
5.72,1.8977,1.8983,1.9648,-0.0001,0.0004,0.0005,0.0102,0.0059,0.0251,2.0,2.0,2.0,0.0,0.1485,-0.0005,0.0277,0,4
5.74,1.8987,1.8994,1.9644,-0.0007,0.0003,0.0004,0.0039,0.0043,0.0217,2.0,2.0,2.0,0.0,0.1471,-0.0004,0.0224,0,6
5.76,1.8997,1.9004,1.964,0.0002,0.0006,0.0009,0.0186,0.0157,0.0316,2.0,2.0,2.0,0.0,0.1459,-0.0009,0.0399,0,13
5.78,1.9007,1.9013,1.964,0.0003,-0.0006,0.0004,0.002,0.0039,0.0148,2.0,2.0,2.0,0.0,0.1446,-0.0004,0.0154,0,7
5.8,1.9016,1.9023,1.9643,-0.0008,0.0002,0.0007,0.0181,0.016,0.0128,2.0,2.0,2.0,0.0,0.1432,-0.0007,0.0273,0,10
5.82,1.9025,1.9032,1.9644,-0.0003,-0.0005,0.001,0.0126,0.0099,0.0193,2.0,2.0,2.0,0.0,0.1419,-0.001,0.0251,0,4
5.84,1.9034,1.9041,1.9645,-0.0005,0.0006,0.0003,0.0175,0.0201,0.0196,2.0,2.0,2.0,0.0,0.1407,-0.0003,0.0331,0,13
5.86,1.9042,1.905,1.9647,0.0002,0.0004,0.001,0.0327,0.0278,0.0198,2.0,2.0,2.0,0.0,0.1394,-0.001,0.0473,0,0
5.88,1.9051,1.9059,1.9648,-0.0009,-0.0,0.0006,0.015,0.0155,0.0177,2.0,2.0,2.0,0.0,0.1382,-0.0006,0.0279,0,14
5.9,1.906,1.9069,1.9648,-0.001,0.0018,0.0011,0.0152,0.0116,0.0168,2.0,2.0,2.0,0.0,0.1369,-0.0011,0.0255,0,11
5.92,1.9069,1.9078,1.964,-0.0012,0.001,0.0006,0.0113,0.0127,0.0344,2.0,2.0,2.0,0.0,0.1359,-0.0006,0.0384,0,15
5.94,1.9079,1.9088,1.9634,0.0003,0.0017,0.0012,0.0211,0.0173,0.0327,2.0,2.0,2.0,0.0,0.1347,-0.0012,0.0426,0,8
5.96,1.9089,1.9097,1.9633,-0.0001,0.001,0.001,0.0236,0.0274,0.0256,2.0,2.0,2.0,0.0,0.1334,-0.001,0.0444,0,0
5.98,1.91,1.9106,1.9637,-0.0002,0.0018,0.0008,0.0075,0.0118,0.0122,2.0,2.0,2.0,0.0,0.1319,-0.0008,0.0186,0,11
6.0,1.9112,1.9116,1.9642,-0.0013,0.002,0.0007,0.0088,0.0155,0.0109,2.0,2.0,2.0,0.0,0.1303,-0.0007,0.0209,0,9
6.02,1.9124,1.9126,1.9645,-0.0004,0.0008,0.0002,0.0162,0.0244,0.0193,2.0,2.0,2.0,0.0,0.1288,-0.0002,0.0351,0,0
6.04,1.9137,1.9136,1.9648,-0.0006,0.0008,0.0,0.0044,0.0105,0.0148,2.0,2.0,2.0,0.0,0.1271,-0.0,0.0187,0,14
6.06,1.915,1.9147,1.9652,-0.0018,0.0016,0.0001,0.0055,0.0125,0.0133,2.0,2.0,2.0,0.0,0.1253,-0.0001,0.0191,0,12
6.08,1.9164,1.9158,1.9655,-0.001,0.0012,-0.0007,-0.0102,0.0006,0.0132,2.0,2.0,2.0,0.0,0.1236,0.0007,0.0167,0,5
6.1,1.9178,1.9169,1.9652,-0.0011,0.0014,0.0004,0.0036,0.0048,0.0244,2.0,2.0,2.0,0.0,0.1219,-0.0004,0.0252,0,9
6.12,1.9192,1.9181,1.9649,-0.0009,-0.0002,-0.0002,-0.0007,0.0069,0.0274,2.0,2.0,2.0,0.0,0.1203,0.0002,0.0283,0,14
6.14,1.9206,1.9193,1.9649,-0.0004,0.0008,0.0005,0.0032,0.0056,0.0248,2.0,2.0,2.0,0.0,0.1185,-0.0005,0.0256,0,12
6.16,1.922,1.9205,1.9649,-0.001,0.0001,0.0002,-0.0016,0.005,0.0202,2.0,2.0,2.0,0.0,0.1168,-0.0002,0.0208,0,9
6.18,1.9233,1.9218,1.9645,-0.0007,0.0009,0.0004,-0.0097,-0.0067,0.024,2.0,2.0,2.0,0.0,0.1152,-0.0004,0.0267,0,5
6.2,1.9246,1.9229,1.964,-0.0008,-0.0001,0.0004,0.0026,0.0064,0.0352,2.0,2.0,2.0,0.0,0.1137,-0.0004,0.0359,0,12
6.22,1.9259,1.9241,1.9642,0.0003,-0.001,-0.0001,-0.0095,-0.0049,0.0139,2.0,2.0,2.0,0.0,0.1119,0.0001,0.0175,0,5
6.24,1.927,1.9253,1.9649,-0.0003,-0.0002,0.0003,0.0038,0.0038,0.0089,2.0,2.0,2.0,0.0,0.1102,-0.0003,0.0104,0,9
6.26,1.9281,1.9264,1.9653,0.0001,-0.0013,0.0004,0.0067,0.0072,0.0168,2.0,2.0,2.0,0.0,0.1086,-0.0004,0.0194,0,12
6.28,1.9292,1.9274,1.9654,0.0005,-0.001,-0.0004,0.0038,0.0072,0.0172,2.0,2.0,2.0,0.0,0.1071,0.0004,0.019,0,9
6.3,1.9302,1.9285,1.9655,-0.0002,0.0004,-0.0,-0.0014,-0.0045,0.0165,2.0,2.0,2.0,0.0,0.1058,0.0,0.0171,0,5
6.32,1.9311,1.9295,1.9654,-0.0006,-0.0006,-0.0,0.0112,0.0098,0.0257,2.0,2.0,2.0,0.0,0.1045,0.0,0.0297,0,12
6.34,1.9319,1.9304,1.9657,0.0009,-0.0011,-0.0004,0.012,0.0112,0.017,2.0,2.0,2.0,0.0,0.1032,0.0004,0.0237,0,12
6.36,1.9327,1.9313,1.966,0.0001,0.0,-0.0008,0.0113,0.0103,0.0161,2.0,2.0,2.0,0.0,0.102,0.0008,0.0222,0,8
6.38,1.9335,1.9322,1.9665,-0.0011,0.0007,-0.0006,0.0021,-0.002,0.0091,2.0,2.0,2.0,0.0,0.1007,0.0006,0.0096,0,5
6.4,1.9343,1.9331,1.9666,-0.001,-0.0001,0.0001,0.0003,-0.0043,0.0118,2.0,2.0,2.0,0.0,0.0995,-0.0001,0.0126,0,7
6.42,1.935,1.934,1.9662,0.0001,-0.0004,-0.0011,0.0011,0.0019,0.0226,2.0,2.0,2.0,0.0,0.0986,0.0011,0.0227,0,5
6.44,1.9356,1.9348,1.9655,0.0008,-0.0005,-0.0001,0.0027,-0.0041,0.0247,2.0,2.0,2.0,0.0,0.0979,0.0001,0.0252,0,7
6.46,1.9362,1.9356,1.9645,-0.0009,-0.0004,-0.001,0.004,0.0021,0.0338,2.0,2.0,2.0,0.0,0.0973,0.001,0.0341,0,5
6.48,1.9368,1.9364,1.9634,0.0006,-0.0003,-0.0,0.0044,-0.0033,0.0295,2.0,2.0,2.0,0.0,0.0968,0.0,0.03,0,7
6.5,1.9373,1.9371,1.9625,-0.0004,-0.0003,-0.0006,0.003,-0.0001,0.0282,2.0,2.0,2.0,0.0,0.0964,0.0006,0.0284,0,7
6.52,1.9378,1.9379,1.9618,0.0006,-0.0,0.0003,0.0159,0.0089,0.0331,2.0,2.0,2.0,0.0,0.0959,-0.0003,0.0378,0,15
6.54,1.9383,1.9386,1.9614,0.0002,-0.0009,0.0002,0.0166,0.0121,0.0293,2.0,2.0,2.0,0.0,0.0953,-0.0002,0.0358,0,14
6.56,1.9387,1.9393,1.961,-0.0001,-0.0005,-0.0001,0.0051,-0.0002,0.0211,2.0,2.0,2.0,0.0,0.0947,0.0001,0.0217,0,7
6.58,1.9391,1.9399,1.9609,-0.0007,0.0001,-0.0,0.0165,0.0103,0.0209,2.0,2.0,2.0,0.0,0.094,0.0,0.0285,0,15
6.6,1.9395,1.9406,1.9614,0.0004,-0.0006,-0.0003,0.0165,0.0107,0.0108,2.0,2.0,2.0,0.0,0.0932,0.0003,0.0224,0,15
6.62,1.9398,1.9413,1.9621,0.0002,-0.0001,-0.0001,0.0075,-0.0002,0.0048,2.0,2.0,2.0,0.0,0.0922,0.0001,0.0089,0,7
6.64,1.9401,1.9419,1.9627,-0.0004,0.0005,-0.0001,0.0175,0.0115,0.0082,2.0,2.0,2.0,0.0,0.0914,0.0001,0.0225,0,15
6.66,1.9405,1.9425,1.9632,0.0008,-0.0,-0.0003,0.0114,0.0045,0.0101,2.0,2.0,2.0,0.0,0.0906,0.0003,0.0159,0,5
6.68,1.9408,1.943,1.9639,-0.0001,0.0007,-0.0003,0.0117,0.0056,0.0078,2.0,2.0,2.0,0.0,0.0898,0.0003,0.0152,0,5
6.7,1.9411,1.9435,1.9647,0.0001,0.0006,-0.0003,0.0112,0.0059,0.005,2.0,2.0,2.0,0.0,0.0889,0.0003,0.0136,0,5
6.72,1.9415,1.944,1.9656,0.0002,0.0005,-0.0002,0.0107,0.0064,0.0025,2.0,2.0,2.0,0.0,0.088,0.0002,0.0127,0,5
6.74,1.9419,1.9444,1.9666,0.0002,0.0006,-0.0001,0.019,0.0156,0.0039,2.0,2.0,2.0,0.0,0.0871,0.0001,0.0249,0,9
6.76,1.9423,1.9449,1.9675,0.0003,0.0004,-0.0003,0.0085,0.0071,0.0019,2.0,2.0,2.0,0.0,0.0862,0.0003,0.0112,0,5
6.78,1.9427,1.9453,1.9681,-0.0005,0.0012,-0.0002,0.0206,0.0188,0.0082,2.0,2.0,2.0,0.0,0.0854,0.0002,0.029,0,12
6.8,1.9432,1.9458,1.9688,-0.0,0.0003,-0.0005,0.0065,0.0071,0.0054,2.0,2.0,2.0,0.0,0.0845,0.0005,0.011,0,5
6.82,1.9437,1.9462,1.9693,-0.0006,0.0011,-0.0001,0.0072,0.0058,0.0071,2.0,2.0,2.0,0.0,0.0837,0.0001,0.0117,0,5
6.84,1.9442,1.9467,1.9699,-0.0007,0.0006,-0.0001,0.0176,0.018,0.0094,2.0,2.0,2.0,0.0,0.0829,0.0001,0.0269,0,12
6.86,1.9447,1.9472,1.9706,-0.0001,0.0005,-0.0002,0.0162,0.017,0.0066,2.0,2.0,2.0,0.0,0.0819,0.0002,0.0244,0,12
6.88,1.9453,1.9477,1.9712,-0.0008,0.0012,-0.0004,0.003,0.0043,0.0042,2.0,2.0,2.0,0.0,0.081,0.0004,0.0067,0,5
6.9,1.9459,1.9482,1.9718,-0.001,0.0012,-0.0004,0.0001,0.001,0.003,2.0,2.0,2.0,0.0,0.08,0.0004,0.0031,0,7
6.92,1.9465,1.9487,1.9722,-0.0006,0.0006,-0.0007,0.0029,0.0052,0.0081,2.0,2.0,2.0,0.0,0.0791,0.0007,0.0101,0,4
6.94,1.9471,1.9493,1.9725,0.0003,0.0001,-0.0008,0.007,0.0085,0.0099,2.0,2.0,2.0,0.0,0.0783,0.0008,0.0148,0,14
6.96,1.9478,1.9499,1.9727,-0.0002,0.0003,-0.0009,0.0068,0.0088,0.0101,2.0,2.0,2.0,0.0,0.0773,0.0009,0.0151,0,13
6.98,1.9485,1.9505,1.9734,-0.0009,0.0011,-0.0006,0.0071,0.0084,0.0033,2.0,2.0,2.0,0.0,0.0763,0.0006,0.0115,0,12
7.0,1.9492,1.9511,1.9742,-0.0008,0.0009,-0.0006,-0.003,-0.001,-0.0003,2.0,2.0,2.0,0.0,0.0751,0.0006,0.0032,0,6
7.02,1.95,1.9517,1.9749,-0.0007,0.0009,-0.0005,0.0023,0.0044,0.0019,2.0,2.0,2.0,0.0,0.0739,0.0005,0.0053,0,11
7.04,1.9507,1.9524,1.9754,0.0001,0.0,-0.0006,-0.005,-0.0026,0.0015,2.0,2.0,2.0,0.0,0.0728,0.0006,0.0059,0,7
7.06,1.9515,1.953,1.976,-0.0006,0.0007,-0.0006,0.0025,0.0051,0.0047,2.0,2.0,2.0,0.0,0.0717,0.0006,0.0074,0,9
7.08,1.9523,1.9537,1.9766,0.0001,-0.0001,-0.0006,0.0023,0.0053,0.0045,2.0,2.0,2.0,0.0,0.0705,0.0006,0.0073,0,8
7.1,1.953,1.9543,1.9773,0.0,-0.0,-0.0003,0.0026,0.004,-0.0019,2.0,2.0,2.0,0.0,0.0693,0.0003,0.0052,0,15
7.12,1.9538,1.9549,1.978,-0.0003,0.0002,-0.0002,0.0019,0.0042,0.0024,2.0,2.0,2.0,0.0,0.0682,0.0002,0.0052,0,10
7.14,1.9545,1.9555,1.9786,0.0001,0.0002,-0.0001,-0.0037,-0.0008,-0.0003,2.0,2.0,2.0,0.0,0.0671,0.0001,0.0038,0,5
7.16,1.9552,1.9561,1.9793,-0.0001,0.0003,-0.0002,-0.0025,0.0011,-0.0007,2.0,2.0,2.0,0.0,0.0661,0.0002,0.0029,0,4
7.18,1.9558,1.9566,1.9795,0.0006,-0.0007,-0.0006,0.0039,0.0074,0.009,2.0,2.0,2.0,0.0,0.0652,0.0006,0.0123,0,14
7.2,1.9564,1.9571,1.9797,0.0005,-0.0007,-0.0006,0.006,0.0088,0.0112,2.0,2.0,2.0,0.0,0.0644,0.0006,0.0154,0,12
7.22,1.9571,1.9576,1.9798,-0.0003,0.0,-0.0012,-0.0033,0.0005,0.0086,2.0,2.0,2.0,0.0,0.0636,0.0012,0.0092,0,6
7.24,1.9576,1.9581,1.9798,-0.0006,0.0005,-0.0007,0.0066,0.0075,0.0127,2.0,2.0,2.0,0.0,0.0629,0.0007,0.0162,0,13
7.26,1.9582,1.9586,1.9799,0.0002,-0.0009,-0.0007,0.0044,0.0061,0.009,2.0,2.0,2.0,0.0,0.0621,0.0007,0.0118,0,10
7.28,1.9587,1.9591,1.9798,-0.0005,0.0001,-0.0011,0.0003,0.0025,0.0138,2.0,2.0,2.0,0.0,0.0615,0.0011,0.014,0,4
7.3,1.9592,1.9596,1.9797,-0.0005,0.0003,-0.0009,0.8,0.8,0.3662,2.0,2.0,2.0,0.0,0.0609,0.0009,1.1892,0,4
7.32,1.9598,1.9602,1.9832,-0.0115,0.0111,-0.0022,-0.0037,-0.0011,-0.0514,2.0,2.0,2.0,0.0,0.059,0.0022,0.0516,0,4
7.34,1.9611,1.9615,1.9901,-0.0102,0.0097,0.0003,-0.0185,-0.0259,-0.1163,2.0,2.0,2.0,0.0,0.0557,-0.0003,0.1206,0,4
7.36,1.9628,1.9633,1.9931,-0.0081,0.0082,0.0005,-0.0378,-0.0402,-0.0485,2.0,2.0,2.0,0.0,0.0527,-0.0005,0.0735,0,4
7.38,1.965,1.9655,1.9931,-0.006,0.0073,-0.0004,-0.0532,-0.0526,0.0046,2.0,2.0,2.0,0.0,0.0496,0.0004,0.0749,0,4
7.4,1.9676,1.9681,1.9927,-0.0043,0.0058,-0.0005,-0.0642,-0.0634,0.0112,2.0,2.0,2.0,0.0,0.0461,0.0005,0.091,0,4
7.42,1.9704,1.9708,1.9927,-0.0027,0.0036,-0.0005,-0.0724,-0.0699,0.0027,2.0,2.0,2.0,0.0,0.0422,0.0005,0.1006,0,4
7.44,1.9733,1.9736,1.9929,-0.0012,0.0016,-0.0001,-0.0761,-0.0732,0.0012,2.0,2.0,2.0,0.0,0.0382,0.0001,0.1056,0,4
7.46,1.9762,1.9763,1.993,0.0002,-0.0003,-0.0003,-0.0766,-0.0724,0.0024,2.0,2.0,2.0,0.0,0.0343,0.0003,0.1055,0,4
7.48,1.9789,1.9789,1.9933,0.0022,-0.0021,0.0001,-0.0731,-0.07,-0.0011,2.0,2.0,2.0,0.0,0.0306,-0.0001,0.1012,0,4
7.5,1.9814,1.9813,1.9934,0.0036,-0.0038,-0.0003,-0.0683,-0.064,0.0018,2.0,2.0,2.0,0.0,0.0272,0.0003,0.0936,0,4
7.52,1.9836,1.9834,1.9934,0.0045,-0.0045,-0.0001,-0.0602,-0.057,0.0033,2.0,2.0,2.0,0.0,0.0242,0.0001,0.0829,0,4
7.54,1.9855,1.9852,1.9935,0.0051,-0.0055,-0.0002,-0.0508,-0.0474,0.0014,2.0,2.0,2.0,0.0,0.0217,0.0002,0.0695,0,4
7.56,1.987,1.9866,1.9937,0.0058,-0.0061,-0.0001,-0.0395,-0.0368,-0.0005,2.0,2.0,2.0,0.0,0.0197,0.0001,0.054,0,4
7.58,1.9881,1.9876,1.994,0.0061,-0.0064,-0.0001,-0.0274,-0.0252,-0.001,2.0,2.0,2.0,0.0,0.0182,0.0001,0.0372,0,4
7.6,1.9887,1.9882,1.9942,0.0061,-0.0065,-0.0001,-0.015,-0.0133,-0.001,2.0,2.0,2.0,0.0,0.0173,0.0001,0.02,0,4
7.62,1.989,1.9884,1.9945,0.0059,-0.0063,-0.0001,-0.0027,-0.0015,-0.0011,2.0,2.0,2.0,0.0,0.0169,0.0001,0.0032,0,4
7.64,1.9888,1.9882,1.9947,0.0056,-0.006,-0.0001,0.0091,0.0097,-0.0011,2.0,2.0,2.0,0.0,0.0171,0.0001,0.0133,0,4
7.66,1.9883,1.9877,1.9949,0.005,-0.0054,-0.0,0.0198,0.0199,-0.0012,2.0,2.0,2.0,0.0,0.0177,0.0,0.0281,0,4
7.68,1.9875,1.987,1.9951,0.0044,-0.0047,-0.0,0.0292,0.0288,-0.0012,2.0,2.0,2.0,0.0,0.0187,0.0,0.041,0,4
7.7,1.9865,1.9859,1.9954,0.0036,-0.0039,-0.0,0.4116,0.4275,0.0838,2.0,2.0,2.0,0.0,0.0201,0.0,0.5993,0,4
7.72,1.9853,1.9848,1.9967,-0.0033,0.0023,-0.0012,0.0416,0.0408,-0.0215,2.0,2.0,2.0,0.0,0.0214,0.0012,0.0621,0,4
7.74,1.9842,1.9838,1.998,-0.0035,0.0027,0.0011,0.0398,0.034,-0.0213,2.0,2.0,2.0,0.0,0.0227,-0.0011,0.0565,0,4
7.76,1.9833,1.9831,1.9977,-0.0043,0.0032,0.0003,0.0321,0.0289,0.0055,2.0,2.0,2.0,0.0,0.0238,-0.0003,0.0435,0,4
7.78,1.9827,1.9826,1.9972,-0.0036,0.004,0.0003,0.026,0.0215,0.0108,2.0,2.0,2.0,0.0,0.0247,-0.0003,0.0354,0,4
7.8,1.9823,1.9824,1.9971,-0.0035,0.0038,0.0002,0.0189,0.015,0.0034,2.0,2.0,2.0,0.0,0.0252,-0.0002,0.0243,0,4
7.82,1.9821,1.9823,1.9973,-0.0036,0.0036,0.0003,0.0122,0.0082,-0.0011,2.0,2.0,2.0,0.0,0.0253,-0.0003,0.0148,0,4
7.84,1.9822,1.9825,1.9974,-0.0035,0.0034,0.0002,0.0057,0.002,-0.0019,2.0,2.0,2.0,0.0,0.0251,-0.0002,0.0064,0,4
7.86,1.9824,1.9828,1.9976,-0.003,0.0032,0.0002,-0.0,-0.0036,-0.0018,2.0,2.0,2.0,0.0,0.0247,-0.0002,0.0041,0,4
7.88,1.9828,1.9834,1.9978,-0.0026,0.0028,0.0001,-0.0052,-0.0085,-0.0019,2.0,2.0,2.0,0.0,0.024,-0.0001,0.0101,0,4
7.9,1.9833,1.984,1.998,-0.0022,0.0024,0.0001,-0.0094,-0.0125,-0.0021,2.0,2.0,2.0,0.0,0.0232,-0.0001,0.0158,0,4
7.92,1.984,1.9847,1.9982,-0.0018,0.0019,0.0,-0.0127,-0.0155,-0.0022,2.0,2.0,2.0,0.0,0.0222,-0.0,0.0202,0,4
7.94,1.9847,1.9855,1.9982,-0.0012,0.0014,-0.0002,-0.0151,-0.0175,0.0007,2.0,2.0,2.0,0.0,0.0212,0.0002,0.0231,0,4
7.96,1.9854,1.9863,1.9978,-0.0007,0.0009,-0.0006,-0.0165,-0.0184,0.0076,2.0,2.0,2.0,0.0,0.0201,0.0006,0.0259,0,4
7.98,1.9862,1.9871,1.9977,-0.0001,0.0003,-0.0002,-0.0168,-0.0191,0.003,2.0,2.0,2.0,0.0,0.0191,0.0002,0.0257,0,4
8.0,1.9869,1.9879,1.998,0.0003,-0.0002,-0.0002,-0.0169,-0.0184,-0.0034,2.0,2.0,2.0,0.0,0.018,0.0002,0.0252,0,4
8.02,1.9876,1.9886,1.9983,0.0007,-0.0005,0.0001,-0.016,-0.0175,-0.0046,2.0,2.0,2.0,0.0,0.0169,-0.0001,0.0241,0,4
8.04,1.9883,1.9893,1.9986,0.0009,-0.0009,-0.0,-0.0149,-0.0159,-0.0039,2.0,2.0,2.0,0.0,0.016,0.0,0.0221,0,4
8.06,1.9889,1.9899,1.9987,0.0012,-0.0011,-0.0001,-0.0132,-0.0141,-0.001,2.0,2.0,2.0,0.0,0.0151,0.0001,0.0194,0,4
8.08,1.9894,1.9904,1.9985,0.0015,-0.0014,-0.0005,-0.0114,-0.0119,0.0045,2.0,2.0,2.0,0.0,0.0144,0.0005,0.0171,0,4
8.1,1.9898,1.9909,1.9979,0.0015,-0.0014,-0.0009,0.3096,0.2783,0.0375,2.0,2.0,2.0,0.0,0.0139,0.0009,0.418,0,4
8.12,1.9902,1.9912,1.998,-0.0018,0.0035,-0.0009,-0.0082,-0.0077,-0.0009,2.0,2.0,2.0,0.0,0.0133,0.0009,0.0112,0,4
8.14,1.9907,1.9917,1.9982,-0.0029,0.0018,0.0004,-0.0117,-0.0114,-0.0013,2.0,2.0,2.0,0.0,0.0126,-0.0004,0.0164,0,4
8.16,1.9913,1.9924,1.998,-0.0034,0.0012,-0.0004,-0.0147,-0.0163,0.0045,2.0,2.0,2.0,0.0,0.0117,0.0004,0.0224,0,4
8.18,1.992,1.9931,1.9977,-0.0023,0.0009,-0.0,-0.0161,-0.0205,0.0052,2.0,2.0,2.0,0.0,0.0108,0.0,0.0266,0,4
