time_s,x,y,z,roll_rad,pitch_rad,yaw_rad,vx_world,vy_world,vz_world,target_x,target_y,target_z,target_yaw,dist_m,yaw_err_rad,speed_ms,wind_enabled,rl_profile
0.02,0.0,0.0,0.9759,0.0,-0.0,0.0,2.5,2.5,1.5,2.0,2.0,2.0,0.0,3.0081,0.0,3.8406,0,0
0.04,0.0,0.0,0.9445,-0.0074,0.0073,-0.0001,0.8957,0.9024,1.0,2.0,2.0,2.0,0.0,3.0189,0.0001,1.6176,0,2
0.06,0.0007,0.0007,0.9404,-0.0135,0.0135,-0.0012,0.9358,1.0348,0.7016,2.0,2.0,2.0,0.0,3.0195,0.0012,1.5617,0,1
0.08,0.0025,0.0025,0.9572,-0.0198,0.0198,-0.0006,0.485,0.4341,0.1822,2.0,2.0,2.0,0.0,3.0113,0.0006,0.6759,0,7
0.1,0.0056,0.0056,0.9815,-0.0212,0.0241,0.0006,0.5761,0.4631,0.0944,2.0,2.0,2.0,0.0,2.9988,-0.0006,0.7451,0,6
0.12,0.0103,0.0099,1.0013,-0.0227,0.0329,0.0006,0.8899,0.8976,0.2817,2.0,2.0,2.0,0.0,2.9861,-0.0006,1.295,0,1
0.14,0.0169,0.0156,1.0196,-0.0301,0.0383,0.0002,0.9077,0.9648,0.3172,2.0,2.0,2.0,0.0,2.9718,-0.0002,1.3621,0,0
0.16,0.026,0.0233,1.0402,-0.0373,0.043,0.0,0.434,0.4891,0.1494,2.0,2.0,2.0,0.0,2.9538,-0.0,0.6707,0,5
0.18,0.0375,0.0332,1.0602,-0.042,0.0425,0.0015,0.5245,0.4049,0.1684,2.0,2.0,2.0,0.0,2.9331,-0.0015,0.6836,0,4
0.2,0.0514,0.0454,1.0772,-0.0434,0.0453,0.0002,0.2899,0.4884,0.2088,2.0,2.0,2.0,0.0,2.9101,-0.0002,0.6051,0,4
0.22,0.0677,0.06,1.0927,-0.0439,0.0449,0.0006,0.4995,0.5085,0.2372,2.0,2.0,2.0,0.0,2.8845,-0.0006,0.7512,0,3
0.24,0.0866,0.0769,1.1079,-0.0429,0.0478,-0.0,0.4142,0.4937,0.2327,2.0,2.0,2.0,0.0,2.8557,0.0,0.6851,0,3
0.26,0.108,0.0962,1.1235,-0.0449,0.0483,0.0002,0.0831,0.1261,0.1894,2.0,2.0,2.0,0.0,2.8235,-0.0002,0.2422,0,5
0.28,0.1318,0.1178,1.1386,-0.0421,0.0419,0.0008,0.3544,0.352,0.2194,2.0,2.0,2.0,0.0,2.7883,-0.0008,0.5456,0,3
0.3,0.1576,0.1415,1.1536,-0.0402,0.041,-0.0002,0.2757,0.4002,0.2401,2.0,2.0,2.0,0.0,2.7505,0.0002,0.5421,0,2
0.32,0.1852,0.1671,1.1694,-0.0391,0.0388,0.0009,-0.0992,-0.136,0.1371,2.0,2.0,2.0,0.0,2.7098,-0.0009,0.2171,0,6
0.34,0.2143,0.1942,1.1845,-0.0295,0.0302,0.0012,0.27,0.2983,0.2659,2.0,2.0,2.0,0.0,2.6673,-0.0012,0.4823,0,0
0.36,0.2445,0.2225,1.1996,-0.0296,0.0276,-0.0006,0.1268,0.3237,0.2376,2.0,2.0,2.0,0.0,2.6233,0.0006,0.4211,0,1
0.38,0.2755,0.2518,1.2157,-0.028,0.023,0.0002,-0.2098,-0.2314,0.1347,2.0,2.0,2.0,0.0,2.5778,-0.0002,0.3402,0,5
0.4,0.3068,0.2818,1.2312,-0.0156,0.0145,0.0006,-0.2438,-0.2293,0.1528,2.0,2.0,2.0,0.0,2.5319,-0.0006,0.3679,0,4
0.42,0.3379,0.3117,1.2448,-0.0078,0.0079,0.0004,-0.2922,-0.245,0.1112,2.0,2.0,2.0,0.0,2.4866,-0.0004,0.3972,0,7
0.44,0.3685,0.3412,1.2559,-0.0047,0.002,0.0004,-0.2796,-0.2494,0.1418,2.0,2.0,2.0,0.0,2.4428,-0.0004,0.4006,0,7
0.46,0.3981,0.3699,1.2656,0.0018,-0.0053,0.0003,-0.252,-0.2044,0.2352,2.0,2.0,2.0,0.0,2.4006,-0.0003,0.4007,0,4
0.48,0.4264,0.3974,1.276,0.0096,-0.009,-0.0004,-0.2685,-0.1927,0.143,2.0,2.0,2.0,0.0,2.3598,0.0004,0.3601,0,7
0.5,0.453,0.4234,1.2858,0.011,-0.0149,-0.0001,-0.1657,-0.1641,0.2224,2.0,2.0,2.0,0.0,2.3214,0.0001,0.3222,0,4
0.52,0.4777,0.4477,1.2951,0.0145,-0.0206,-0.0003,-0.1436,-0.0972,0.224,2.0,2.0,2.0,0.0,2.2856,0.0003,0.2833,0,4
0.54,0.5001,0.4702,1.3061,0.0188,-0.0227,-0.0002,-0.0685,-0.0656,0.1901,2.0,2.0,2.0,0.0,2.252,0.0002,0.2125,0,4
0.56,0.5203,0.4905,1.3179,0.0214,-0.0229,0.0003,0.0108,-0.0312,0.168,2.0,2.0,2.0,0.0,2.2211,-0.0003,0.1712,0,4
0.58,0.5383,0.5088,1.3299,0.0228,-0.0222,0.0001,0.0394,0.0556,0.1593,2.0,2.0,2.0,0.0,2.193,-0.0001,0.1733,0,4
0.6,0.5541,0.5249,1.3417,0.0205,-0.0235,0.0001,0.1018,0.1081,0.1541,2.0,2.0,2.0,0.0,2.1679,-0.0001,0.2141,0,4
0.62,0.5678,0.5392,1.3535,0.0183,-0.0228,-0.0001,0.1551,0.1643,0.1496,2.0,2.0,2.0,0.0,2.1455,0.0001,0.271,0,4
0.64,0.5795,0.5517,1.3651,0.0163,-0.02,-0.0001,0.214,0.2058,0.1456,2.0,2.0,2.0,0.0,2.1257,0.0001,0.3307,0,4
0.66,0.5895,0.5627,1.3766,0.0139,-0.0165,-0.0002,0.2605,0.2475,0.1424,2.0,2.0,2.0,0.0,2.1081,0.0002,0.3866,0,4
0.68,0.5981,0.5724,1.3878,0.0104,-0.0129,-0.0002,0.3012,0.2807,0.14,2.0,2.0,2.0,0.0,2.0924,0.0002,0.4349,0,4
0.7,0.6056,0.5812,1.3989,0.0066,-0.0091,-0.0003,0.3325,0.3071,0.1379,2.0,2.0,2.0,0.0,2.0782,0.0003,0.4731,0,4
0.72,0.6122,0.5892,1.4096,0.0028,-0.0048,-0.0003,0.5442,0.5256,0.1816,2.0,2.0,2.0,0.0,2.0652,0.0003,0.7781,0,1
0.74,0.6183,0.5968,1.4207,-0.0044,0.0026,-0.0013,0.3262,0.3745,0.1243,2.0,2.0,2.0,0.0,2.0527,0.0013,0.512,0,4
0.76,0.6243,0.6045,1.4314,-0.0103,0.0046,0.0004,0.6082,0.471,0.1715,2.0,2.0,2.0,0.0,2.0404,-0.0004,0.7881,0,1
0.78,0.6305,0.6125,1.4415,-0.0119,0.0141,-0.0011,0.2963,0.3795,0.13,2.0,2.0,2.0,0.0,2.028,0.0011,0.4987,0,4
0.8,0.6373,0.6211,1.4512,-0.0183,0.0136,0.0006,0.4109,0.2248,0.1313,2.0,2.0,2.0,0.0,2.0148,-0.0006,0.4865,0,4
0.82,0.6447,0.6306,1.4604,-0.0205,0.0159,-0.0003,0.2848,0.297,0.1362,2.0,2.0,2.0,0.0,2.0008,0.0003,0.4335,0,4
0.84,0.653,0.641,1.4694,-0.0198,0.0191,0.0002,0.2122,0.1332,0.1038,2.0,2.0,2.0,0.0,1.9857,-0.0002,0.2712,0,6
0.86,0.6622,0.6522,1.4777,-0.0159,0.022,0.0007,0.2795,0.18,0.1428,2.0,2.0,2.0,0.0,1.9695,-0.0007,0.3618,0,4
0.88,0.6726,0.6642,1.4857,-0.0144,0.0233,-0.0001,0.0749,0.0879,0.0932,2.0,2.0,2.0,0.0,1.9521,0.0001,0.1484,0,7
0.9,0.684,0.6769,1.4935,-0.0169,0.0186,0.0009,0.1026,0.0155,0.0933,2.0,2.0,2.0,0.0,1.9337,-0.0009,0.1395,0,7
0.92,0.6963,0.6902,1.5004,-0.0141,0.0156,0.0001,0.1205,0.1578,0.1541,2.0,2.0,2.0,0.0,1.9144,-0.0001,0.2514,0,4
0.94,0.7093,0.7039,1.5071,-0.0118,0.0162,0.0005,0.1424,0.0899,0.1534,2.0,2.0,2.0,0.0,1.8944,-0.0005,0.2278,0,4
0.96,0.7229,0.718,1.5147,-0.0106,0.0134,0.0,0.083,0.1091,0.1344,2.0,2.0,2.0,0.0,1.8735,-0.0,0.192,0,4
0.98,0.737,0.7323,1.5226,-0.0087,0.0113,-0.0004,0.0408,0.0645,0.1124,2.0,2.0,2.0,0.0,1.8521,0.0004,0.1359,0,5
1.0,0.7513,0.7468,1.5304,-0.0082,0.0103,0.0001,0.0873,0.0506,0.121,2.0,2.0,2.0,0.0,1.8304,-0.0001,0.1576,0,4
1.02,0.7658,0.7612,1.5382,-0.0064,0.008,-0.0002,0.0231,0.0457,0.1059,2.0,2.0,2.0,0.0,1.8086,0.0002,0.1176,0,5
1.04,0.7804,0.7755,1.5457,-0.005,0.0069,0.0005,0.0781,0.0325,0.1197,2.0,2.0,2.0,0.0,1.7869,-0.0005,0.1466,0,4
1.06,0.7949,0.7897,1.5529,-0.0035,0.0044,0.0,0.2627,0.2998,0.1525,2.0,2.0,2.0,0.0,1.7655,-0.0,0.4268,0,1
1.08,0.8092,0.8037,1.561,-0.0069,0.0049,-0.0004,0.2838,0.3211,0.1433,2.0,2.0,2.0,0.0,1.7441,0.0004,0.4519,0,0
1.1,0.8234,0.8177,1.5701,-0.0092,0.0064,-0.0002,-0.0187,-0.0254,0.0456,2.0,2.0,2.0,0.0,1.7225,0.0002,0.0555,0,7
1.12,0.8375,0.8317,1.5779,-0.0063,0.0051,0.001,0.0558,-0.0144,0.0848,2.0,2.0,2.0,0.0,1.7013,-0.001,0.1026,0,5
1.14,0.8515,0.8457,1.5842,-0.0041,0.0031,0.0002,0.2178,0.2594,0.1345,2.0,2.0,2.0,0.0,1.6806,-0.0002,0.3644,0,2
1.16,0.8652,0.8595,1.591,-0.0071,0.0027,-0.0003,0.2046,0.2234,0.1103,2.0,2.0,2.0,0.0,1.66,0.0003,0.3224,0,3
1.18,0.8787,0.8733,1.5983,-0.0081,0.0044,0.0002,0.015,-0.0208,0.071,2.0,2.0,2.0,0.0,1.6396,-0.0002,0.0755,0,6
1.2,0.8919,0.887,1.6048,-0.0028,0.005,0.0007,0.221,0.1958,0.1062,2.0,2.0,2.0,0.0,1.6195,-0.0007,0.3138,0,3
1.22,0.9051,0.9004,1.6111,-0.0029,0.006,-0.0003,-0.0098,0.0469,0.093,2.0,2.0,2.0,0.0,1.5997,0.0003,0.1047,0,5
1.24,0.918,0.9137,1.6176,-0.0049,0.0015,0.0004,0.0205,-0.0249,0.0745,2.0,2.0,2.0,0.0,1.5802,-0.0004,0.0811,0,6
1.26,0.9307,0.9267,1.6239,-0.0023,-0.0005,-0.0,-0.0065,0.0064,0.076,2.0,2.0,2.0,0.0,1.561,0.0,0.0766,0,6
1.28,0.9429,0.9395,1.6296,0.001,-0.0004,0.0002,0.2574,0.2388,0.1303,2.0,2.0,2.0,0.0,1.5425,-0.0002,0.3745,0,1
1.3,0.9548,0.9518,1.636,-0.0009,0.0021,-0.0009,0.2105,0.2482,0.1041,2.0,2.0,2.0,0.0,1.5244,0.0009,0.3417,0,2
1.32,0.9663,0.9638,1.6431,-0.0032,0.0036,-0.0005,0.01,-0.0205,0.044,2.0,2.0,2.0,0.0,1.5066,0.0005,0.0495,0,7
1.34,0.9776,0.9755,1.6489,-0.0002,0.0024,0.0005,0.0363,-0.0295,-0.0146,2.0,2.0,2.0,0.0,1.4894,-0.0005,0.049,0,12
1.36,0.9886,0.9867,1.653,0.0021,0.0001,-0.0003,-0.0326,0.0046,0.0134,2.0,2.0,2.0,0.0,1.4731,0.0003,0.0355,0,13
1.38,0.9993,0.9975,1.6554,0.0036,-0.0011,0.0001,0.0488,0.0265,0.091,2.0,2.0,2.0,0.0,1.4578,-0.0001,0.1066,0,10
1.4,1.0096,1.0078,1.6573,0.0032,-0.0021,-0.0002,-0.0289,-0.013,0.0423,2.0,2.0,2.0,0.0,1.4432,0.0002,0.0529,0,14
1.42,1.0194,1.0174,1.6591,0.003,-0.0042,0.0008,0.1358,0.0783,0.1271,2.0,2.0,2.0,0.0,1.4294,-0.0008,0.2018,0,8
1.44,1.0286,1.0265,1.6622,0.0049,-0.0031,-0.0011,-0.0072,0.0827,0.0924,2.0,2.0,2.0,0.0,1.4162,0.0011,0.1243,0,7
1.46,1.0372,1.0348,1.6666,0.0071,-0.0055,-0.0004,0.0702,0.0427,0.0445,2.0,2.0,2.0,0.0,1.4035,0.0004,0.0934,0,11
1.48,1.0451,1.0425,1.6706,0.0056,-0.006,-0.0015,-0.0247,0.0239,-0.0152,2.0,2.0,2.0,0.0,1.3918,0.0015,0.0376,0,15
1.5,1.0524,1.0495,1.6727,0.0032,-0.0073,0.0004,0.1873,0.0952,0.1027,2.0,2.0,2.0,0.0,1.3815,-0.0004,0.2339,0,9
1.52,1.059,1.056,1.6747,0.0057,-0.004,-0.0018,0.0957,0.2,0.1054,2.0,2.0,2.0,0.0,1.372,0.0018,0.2455,0,9
1.54,1.065,1.0619,1.6776,0.0037,-0.0022,-0.0005,0.04,0.0101,0.0039,2.0,2.0,2.0,0.0,1.3631,0.0005,0.0414,0,15
1.56,1.0707,1.0674,1.6801,0.003,-0.0028,0.0003,0.12,0.0992,0.0677,2.0,2.0,2.0,0.0,1.3549,-0.0003,0.1697,0,11
1.58,1.0759,1.0724,1.6825,0.0026,-0.0025,-0.0012,0.1173,0.15,0.0813,2.0,2.0,2.0,0.0,1.3473,0.0012,0.207,0,10
1.6,1.0808,1.0772,1.6856,0.0014,-0.0008,-0.0002,0.25,0.2043,0.0927,2.0,2.0,2.0,0.0,1.3399,0.0002,0.3359,0,8
1.62,1.0856,1.0818,1.6897,-0.0003,0.0032,-0.0009,0.1378,0.1788,0.0788,2.0,2.0,2.0,0.0,1.3325,0.0009,0.2391,0,6
1.64,1.0903,1.0862,1.6943,-0.0043,0.003,-0.0003,0.12,0.12,0.0325,2.0,2.0,2.0,0.0,1.3251,0.0003,0.1728,0,11
1.66,1.0951,1.0907,1.6982,-0.0045,0.004,0.0004,0.15,0.15,0.0535,2.0,2.0,2.0,0.0,1.3179,-0.0004,0.2188,0,10
1.68,1.1,1.0953,1.7016,-0.004,0.0051,-0.0005,0.06,0.06,0.0032,2.0,2.0,2.0,0.0,1.3105,0.0005,0.0849,0,14
1.7,1.105,1.1001,1.7039,-0.0047,0.0057,0.0011,0.1,0.1,0.0495,2.0,2.0,2.0,0.0,1.3033,-0.0011,0.1498,0,12
1.72,1.1103,1.105,1.7058,-0.0048,0.0051,-0.0007,0.1555,0.25,0.1052,2.0,2.0,2.0,0.0,1.2959,0.0007,0.3127,0,8
1.74,1.1157,1.1101,1.7088,-0.0096,0.0034,-0.0002,0.08,0.08,0.0214,2.0,2.0,2.0,0.0,1.2879,0.0002,0.1151,0,13
1.76,1.1211,1.1157,1.7116,-0.0098,0.0044,0.0009,0.3719,0.322,0.138,2.0,2.0,2.0,0.0,1.2797,-0.0009,0.5109,0,0
1.78,1.1268,1.1217,1.7153,-0.0103,0.0093,-0.0013,0.121,0.23,0.0932,2.0,2.0,2.0,0.0,1.2708,0.0013,0.2761,0,4
1.8,1.1327,1.1282,1.7197,-0.016,0.0057,0.0012,0.06,-0.0098,-0.0214,2.0,2.0,2.0,0.0,1.2612,-0.0012,0.0645,0,14
1.82,1.1389,1.1355,1.7226,-0.0127,0.0071,0.0014,0.1,0.0653,0.0313,2.0,2.0,2.0,0.0,1.2513,-0.0014,0.1234,0,12
1.84,1.1453,1.1434,1.7242,-0.0094,0.0082,0.0004,0.0428,0.0521,0.046,2.0,2.0,2.0,0.0,1.2411,-0.0004,0.0816,0,13
1.86,1.152,1.1516,1.7258,-0.0098,0.0073,0.001,0.0152,-0.0361,0.023,2.0,2.0,2.0,0.0,1.2304,-0.001,0.0454,0,15
1.88,1.1589,1.1603,1.7272,-0.0075,0.0061,0.0009,0.0484,0.0084,0.0516,2.0,2.0,2.0,0.0,1.2195,-0.0009,0.0712,0,13
1.9,1.1659,1.1691,1.7288,-0.0045,0.0053,0.0003,0.0907,0.0682,0.0884,2.0,2.0,2.0,0.0,1.2082,-0.0003,0.1438,0,9
1.92,1.1731,1.1779,1.7317,-0.0043,0.0055,-0.0001,0.0066,-0.0147,0.0089,2.0,2.0,2.0,0.0,1.1965,0.0001,0.0184,0,14
1.94,1.1805,1.1868,1.7341,-0.0029,0.0055,0.0013,0.0994,-0.0024,0.062,2.0,2.0,2.0,0.0,1.1848,-0.0013,0.1172,0,10
1.96,1.1879,1.1955,1.7358,-0.0009,0.0044,0.0002,-0.0132,-0.0024,0.0316,2.0,2.0,2.0,0.0,1.1733,-0.0002,0.0343,0,14
1.98,1.1954,1.204,1.7377,0.0001,0.0041,0.0007,0.1972,0.1642,0.1044,2.0,2.0,2.0,0.0,1.1619,-0.0007,0.277,0,3
2.0,1.2029,1.2121,1.7408,-0.0002,0.0056,-0.0008,0.1675,0.1924,0.0864,2.0,2.0,2.0,0.0,1.1504,0.0008,0.2693,0,3
2.02,1.2104,1.2201,1.745,-0.0022,0.0072,-0.0002,0.064,0.0311,0.0328,2.0,2.0,2.0,0.0,1.1388,0.0002,0.0783,0,10
2.04,1.2182,1.2278,1.7485,-0.0009,0.0071,0.0005,0.0503,0.0137,0.008,2.0,2.0,2.0,0.0,1.1273,-0.0005,0.0528,0,12
2.06,1.2261,1.2353,1.7508,0.0001,0.0065,0.0003,0.2242,0.237,0.1209,2.0,2.0,2.0,0.0,1.1162,-0.0003,0.348,0,0
2.08,1.2341,1.2426,1.754,-0.0025,0.0064,-0.0011,0.193,0.2622,0.1044,2.0,2.0,2.0,0.0,1.1049,0.0011,0.3419,0,0
2.1,1.2423,1.2498,1.7588,-0.0053,0.0083,-0.0002,0.0401,0.0272,0.0362,2.0,2.0,2.0,0.0,1.0932,0.0002,0.0605,0,6
2.12,1.2507,1.2571,1.7635,-0.0033,0.0081,0.0002,0.0612,0.078,0.031,2.0,2.0,2.0,0.0,1.0814,-0.0002,0.1039,0,8
2.14,1.2593,1.2643,1.7673,-0.0031,0.0062,-0.0001,0.1705,0.2106,0.079,2.0,2.0,2.0,0.0,1.0696,0.0001,0.2823,0,1
2.16,1.2681,1.2716,1.7712,-0.0064,0.0059,-0.0007,-0.0486,0.0033,-0.021,2.0,2.0,2.0,0.0,1.0576,0.0007,0.0531,0,14
2.18,1.277,1.279,1.774,-0.0072,0.0026,0.0011,0.0049,-0.027,0.01,2.0,2.0,2.0,0.0,1.0458,-0.0011,0.0292,0,13
2.2,1.2857,1.2866,1.775,-0.0047,0.0011,-0.0,0.1176,0.1674,0.0984,2.0,2.0,2.0,0.0,1.0343,0.0,0.227,0,3
2.22,1.2943,1.2943,1.7768,-0.0061,0.0012,-0.0007,0.0117,0.0648,0.091,2.0,2.0,2.0,0.0,1.0227,0.0007,0.1123,0,4
2.24,1.3027,1.3021,1.7802,-0.0066,0.0003,-0.0002,0.0004,-0.0027,0.0017,2.0,2.0,2.0,0.0,1.0108,0.0002,0.0032,0,12
2.26,1.3107,1.31,1.783,-0.0044,-0.0002,0.0009,0.0139,-0.0167,0.0318,2.0,2.0,2.0,0.0,0.9991,-0.0009,0.0385,0,11
2.28,1.3185,1.3179,1.7851,-0.002,-0.0023,0.0006,0.1757,0.1836,0.1041,2.0,2.0,2.0,0.0,0.9879,-0.0006,0.2746,0,0
2.3,1.3259,1.3257,1.7882,-0.0035,-0.0007,-0.0005,0.0177,0.0488,0.0402,2.0,2.0,2.0,0.0,0.9767,0.0005,0.0656,0,9
2.32,1.333,1.3334,1.7914,-0.004,-0.0011,0.0014,-0.0037,-0.04,-0.0178,2.0,2.0,2.0,0.0,0.9658,-0.0014,0.0439,0,15
2.34,1.3397,1.3411,1.7927,-0.0007,-0.0007,0.0015,0.0377,0.0099,0.0598,2.0,2.0,2.0,0.0,0.9556,-0.0015,0.0713,0,10
2.36,1.3462,1.3485,1.7934,0.0027,-0.0001,0.0004,0.1507,0.159,0.1033,2.0,2.0,2.0,0.0,0.9458,-0.0004,0.2422,0,2
2.38,1.3524,1.3556,1.7957,0.0002,0.0007,-0.0,0.0468,0.0383,0.065,2.0,2.0,2.0,0.0,0.9361,0.0,0.0888,0,5
2.4,1.3585,1.3625,1.7989,-0.0008,0.0004,0.0007,0.0355,-0.0061,0.0347,2.0,2.0,2.0,0.0,0.9265,-0.0007,0.05,0,7
2.42,1.3643,1.3691,1.8019,0.001,0.0007,0.0006,0.0256,0.0113,0.0382,2.0,2.0,2.0,0.0,0.9173,-0.0006,0.0474,0,7
2.44,1.37,1.3754,1.8043,0.0028,-0.0003,0.0004,0.0612,0.0493,0.0592,2.0,2.0,2.0,0.0,0.9085,-0.0004,0.0984,0,5
2.46,1.3754,1.3814,1.807,0.0017,-0.0005,-0.0002,0.0319,0.0332,0.0261,2.0,2.0,2.0,0.0,0.9,0.0002,0.0529,0,11
2.48,1.3806,1.3871,1.8095,0.0002,-0.0008,0.0006,0.1834,0.1525,0.0668,2.0,2.0,2.0,0.0,0.8919,-0.0006,0.2477,0,2
2.5,1.3856,1.3925,1.8123,0.0005,0.0007,-0.0007,0.0461,0.0716,0.03,2.0,2.0,2.0,0.0,0.8841,0.0007,0.0903,0,10
2.52,1.3904,1.3978,1.8149,-0.0017,-0.0005,0.0008,0.1755,0.1327,0.0568,2.0,2.0,2.0,0.0,0.8766,-0.0008,0.2272,0,3
2.54,1.3951,1.403,1.8174,-0.0019,0.0016,-0.0006,0.1616,0.1825,0.0623,2.0,2.0,2.0,0.0,0.8693,0.0006,0.2516,0,2
2.56,1.3997,1.4081,1.8205,-0.0032,0.0046,0.0004,0.1698,0.1353,0.0465,2.0,2.0,2.0,0.0,0.8619,-0.0004,0.2221,0,3
2.58,1.4045,1.4134,1.8237,-0.0056,0.0055,-0.0004,0.013,0.0236,-0.0166,2.0,2.0,2.0,0.0,0.8543,0.0004,0.0316,0,14
2.6,1.4094,1.4187,1.8256,-0.005,0.0036,0.001,0.1152,0.0473,0.0625,2.0,2.0,2.0,0.0,0.8469,-0.001,0.1393,0,4
2.62,1.4143,1.4241,1.8265,-0.0041,0.0036,-0.0001,0.0409,0.059,0.0526,2.0,2.0,2.0,0.0,0.8395,0.0001,0.089,0,10
2.64,1.4194,1.4297,1.8277,-0.0028,0.0039,-0.0,0.0723,0.0515,0.0558,2.0,2.0,2.0,0.0,0.8319,0.0,0.1048,0,9
2.66,1.4245,1.4352,1.8294,-0.0027,0.0027,-0.0001,0.0482,0.0389,0.0405,2.0,2.0,2.0,0.0,0.8242,0.0001,0.0741,0,10
2.68,1.4297,1.4407,1.8315,-0.0033,0.0034,-0.0,0.0274,0.0139,0.0386,2.0,2.0,2.0,0.0,0.8163,0.0,0.0494,0,7
2.7,1.4349,1.4463,1.8337,-0.0022,0.0031,-0.0003,0.1774,0.1708,0.0682,2.0,2.0,2.0,0.0,0.8085,0.0003,0.2555,0,0
2.72,1.4401,1.4517,1.8367,-0.0026,0.0037,-0.0008,0.0299,0.0336,-0.0053,2.0,2.0,2.0,0.0,0.8005,0.0008,0.0452,0,12
2.74,1.4453,1.4572,1.8389,-0.0029,0.0037,0.0008,0.0965,0.0324,0.0405,2.0,2.0,2.0,0.0,0.7926,-0.0008,0.1095,0,8
2.76,1.4507,1.4627,1.84,-0.0023,0.0035,-0.0003,0.0226,0.0456,0.0456,2.0,2.0,2.0,0.0,0.7849,0.0003,0.0683,0,10
2.78,1.4561,1.468,1.841,-0.0013,0.0039,-0.0001,0.0153,0.0079,0.0309,2.0,2.0,2.0,0.0,0.7773,0.0001,0.0354,0,13
2.8,1.4615,1.4733,1.8419,-0.0013,0.0025,0.0002,0.0295,0.0203,0.0391,2.0,2.0,2.0,0.0,0.7697,-0.0002,0.053,0,12
2.82,1.4669,1.4785,1.8431,-0.0001,0.0013,-0.0004,0.0032,0.0208,0.0261,2.0,2.0,2.0,0.0,0.7621,0.0004,0.0335,0,13
2.84,1.4722,1.4835,1.8445,0.0001,0.0021,-0.0001,0.0144,0.0127,0.0195,2.0,2.0,2.0,0.0,0.7547,0.0001,0.0273,0,13
2.86,1.4774,1.4883,1.8456,-0.0003,0.0008,-0.0007,0.015,0.0418,0.0344,2.0,2.0,2.0,0.0,0.7475,0.0007,0.0561,0,12
2.88,1.4826,1.493,1.8465,0.0008,0.0009,-0.0003,0.0506,0.0484,0.0538,2.0,2.0,2.0,0.0,0.7405,0.0003,0.0883,0,9
2.9,1.4877,1.4975,1.8476,0.0,0.0004,-0.0005,0.0494,0.068,0.0633,2.0,2.0,2.0,0.0,0.7336,0.0005,0.1052,0,4
2.92,1.4927,1.5019,1.8494,0.0003,0.0011,-0.0003,-0.0096,-0.0033,0.0003,2.0,2.0,2.0,0.0,0.7267,0.0003,0.0102,0,15
2.94,1.4975,1.5062,1.8506,-0.0003,0.0002,0.0008,0.0459,0.0262,0.0315,2.0,2.0,2.0,0.0,0.7202,-0.0008,0.0615,0,12
2.96,1.5022,1.5103,1.8514,0.0009,-0.0004,-0.0006,0.0089,0.0522,0.0387,2.0,2.0,2.0,0.0,0.7139,0.0006,0.0656,0,11
2.98,1.5067,1.5143,1.8528,0.0014,-0.0004,0.0005,0.0066,-0.0047,0.0077,2.0,2.0,2.0,0.0,0.7078,-0.0005,0.0112,0,15
3.0,1.511,1.518,1.8542,0.0004,-0.001,0.0,0.0077,0.03,0.0132,2.0,2.0,2.0,0.0,0.7019,-0.0,0.0337,0,14
3.02,1.5151,1.5215,1.8552,0.0019,-0.0014,0.0002,0.0335,0.0406,0.0277,2.0,2.0,2.0,0.0,0.6964,-0.0002,0.0595,0,13
3.04,1.519,1.5249,1.856,0.001,-0.0018,0.0,0.1225,0.1333,0.061,2.0,2.0,2.0,0.0,0.6913,-0.0,0.191,0,3
3.06,1.5227,1.5281,1.8575,-0.0007,-0.0001,-0.0006,0.0312,0.0574,0.0145,2.0,2.0,2.0,0.0,0.6862,0.0006,0.0669,0,13
3.08,1.5263,1.5312,1.859,-0.0011,0.0007,0.0007,0.0401,0.022,0.0112,2.0,2.0,2.0,0.0,0.6812,-0.0007,0.0471,0,14
3.1,1.5298,1.5342,1.8598,-0.0009,0.0002,-0.0002,0.0638,0.0982,0.0487,2.0,2.0,2.0,0.0,0.6766,0.0002,0.1268,0,9
3.12,1.5331,1.5371,1.8609,-0.001,-0.0,-0.0002,0.092,0.1025,0.0495,2.0,2.0,2.0,0.0,0.672,0.0002,0.1464,0,8
3.14,1.5364,1.5401,1.8626,-0.0027,0.0006,-0.0002,0.1572,0.1632,0.0553,2.0,2.0,2.0,0.0,0.6673,0.0002,0.2333,0,1
3.16,1.5397,1.5432,1.865,-0.0041,0.0031,-0.0005,0.0372,0.0484,0.0209,2.0,2.0,2.0,0.0,0.6624,0.0005,0.0645,0,7
3.18,1.5431,1.5464,1.8672,-0.0041,0.0037,0.0002,0.066,0.054,0.0188,2.0,2.0,2.0,0.0,0.6574,-0.0002,0.0873,0,10
3.2,1.5467,1.5497,1.869,-0.0039,0.0027,-0.0002,0.156,0.169,0.0547,2.0,2.0,2.0,0.0,0.6523,0.0002,0.2365,0,0
3.22,1.5503,1.5532,1.8711,-0.0056,0.0043,-0.0007,0.0019,0.0127,-0.009,2.0,2.0,2.0,0.0,0.6468,0.0007,0.0157,0,15
3.24,1.5542,1.557,1.8724,-0.0057,0.004,0.0008,0.0852,0.0426,0.0467,2.0,2.0,2.0,0.0,0.6413,-0.0008,0.1061,0,4
3.26,1.5581,1.561,1.8734,-0.0046,0.0038,-0.0009,0.041,0.0847,0.0459,2.0,2.0,2.0,0.0,0.6356,0.0009,0.1047,0,8
3.28,1.5622,1.5652,1.875,-0.0045,0.0043,0.0003,0.1256,0.1015,0.0445,2.0,2.0,2.0,0.0,0.6296,-0.0003,0.1675,0,2
3.3,1.5665,1.5696,1.8771,-0.004,0.0058,-0.0005,0.0253,0.0399,0.0277,2.0,2.0,2.0,0.0,0.6232,0.0005,0.0548,0,5
3.32,1.5709,1.5741,1.8793,-0.005,0.0052,0.0001,0.024,0.0095,-0.0008,2.0,2.0,2.0,0.0,0.6165,-0.0001,0.0258,0,12
3.34,1.5756,1.5787,1.8811,-0.0049,0.004,-0.0002,0.0084,0.0138,0.0264,2.0,2.0,2.0,0.0,0.6097,0.0002,0.031,0,6
3.36,1.5803,1.5834,1.8822,-0.0025,0.0037,-0.0002,0.0055,0.0038,0.0256,2.0,2.0,2.0,0.0,0.603,0.0002,0.0265,0,11
3.38,1.585,1.5881,1.8831,-0.0026,0.0023,-0.0001,0.0042,0.002,0.0288,2.0,2.0,2.0,0.0,0.5963,0.0001,0.0291,0,11
3.4,1.5897,1.5928,1.8842,-0.002,0.0017,-0.0004,0.0008,0.0091,0.0361,2.0,2.0,2.0,0.0,0.5895,0.0004,0.0372,0,6
3.42,1.5944,1.5974,1.8852,-0.0001,0.0008,-0.0006,0.0037,0.0066,0.0239,2.0,2.0,2.0,0.0,0.5829,0.0006,0.025,0,12
3.44,1.599,1.602,1.8861,-0.001,-0.0004,-0.0002,0.0186,0.0107,0.0425,2.0,2.0,2.0,0.0,0.5764,0.0002,0.0476,0,5
3.46,1.6034,1.6064,1.8871,-0.0002,-0.0008,-0.0003,0.0239,0.0263,0.0449,2.0,2.0,2.0,0.0,0.57,0.0003,0.0573,0,4
3.48,1.6077,1.6107,1.8884,0.0009,0.0002,-0.0002,0.1094,0.1055,0.0488,2.0,2.0,2.0,0.0,0.5638,0.0002,0.1596,0,0
3.5,1.6119,1.6149,1.8904,-0.0007,0.0009,-0.0005,0.0975,0.1014,0.0343,2.0,2.0,2.0,0.0,0.5576,0.0005,0.1448,0,1
3.52,1.616,1.6189,1.8927,-0.002,0.0024,-0.0003,0.018,0.0114,-0.0081,2.0,2.0,2.0,0.0,0.5515,0.0003,0.0228,0,12
3.54,1.62,1.623,1.8941,-0.0013,0.0018,0.0004,0.03,0.0139,0.0302,2.0,2.0,2.0,0.0,0.5457,-0.0004,0.0448,0,5
3.56,1.624,1.6269,1.8949,-0.0009,0.0002,-0.0002,0.0932,0.1024,0.0518,2.0,2.0,2.0,0.0,0.54,0.0002,0.1478,0,1
3.58,1.6279,1.6309,1.8962,-0.0023,0.0012,-0.0004,-0.0127,-0.0098,0.002,2.0,2.0,2.0,0.0,0.5343,0.0004,0.0162,0,15
3.6,1.6318,1.6348,1.8971,-0.0016,0.0016,0.0009,0.0249,-0.0006,0.0328,2.0,2.0,2.0,0.0,0.5287,-0.0009,0.0412,0,6
3.62,1.6357,1.6387,1.8974,-0.0005,0.0002,0.0,0.0882,0.1006,0.0565,2.0,2.0,2.0,0.0,0.5233,-0.0,0.1452,0,1
3.64,1.6395,1.6425,1.8986,-0.0017,0.0006,-0.0002,0.0286,0.0302,0.0358,2.0,2.0,2.0,0.0,0.5178,0.0002,0.0549,0,4
3.66,1.6432,1.6463,1.9003,-0.0022,0.0016,0.0001,0.0015,-0.0048,-0.0039,2.0,2.0,2.0,0.0,0.5122,-0.0001,0.0064,0,14
3.68,1.6468,1.6501,1.9015,-0.0009,0.0013,0.0006,0.019,0.0067,0.0268,2.0,2.0,2.0,0.0,0.5068,-0.0006,0.0336,0,6
3.7,1.6504,1.6538,1.9021,-0.0008,-0.0011,0.0001,-0.0104,-0.0067,0.0156,2.0,2.0,2.0,0.0,0.5017,-0.0001,0.0199,0,15
3.72,1.6538,1.6574,1.9027,-0.0017,-0.0011,0.0003,0.0059,-0.003,0.0193,2.0,2.0,2.0,0.0,0.4967,-0.0003,0.0204,0,14
3.74,1.6571,1.661,1.9033,-0.0003,-0.0018,0.0001,0.0202,0.0135,0.0343,2.0,2.0,2.0,0.0,0.4918,-0.0001,0.042,0,6
3.76,1.6602,1.6645,1.9043,0.001,-0.001,-0.0002,0.107,0.1001,0.045,2.0,2.0,2.0,0.0,0.487,0.0002,0.1533,0,0
3.78,1.6631,1.6679,1.906,-0.0003,0.0006,-0.0004,0.0221,0.0147,0.0106,2.0,2.0,2.0,0.0,0.4823,0.0004,0.0286,0,11
3.8,1.666,1.6711,1.9075,-0.0011,0.0005,0.0003,0.0507,0.0244,0.0181,2.0,2.0,2.0,0.0,0.4778,-0.0003,0.0591,0,9
3.82,1.6688,1.6744,1.9086,-0.0004,-0.0003,-0.0001,0.0505,0.0442,0.0283,2.0,2.0,2.0,0.0,0.4734,0.0001,0.0729,0,8
3.84,1.6715,1.6775,1.9096,0.0004,0.0012,0.0001,0.0942,0.0808,0.0357,2.0,2.0,2.0,0.0,0.4691,-0.0001,0.1291,0,2
3.86,1.6743,1.6806,1.9109,-0.0009,0.0023,-0.0004,0.0401,0.0366,0.0208,2.0,2.0,2.0,0.0,0.4648,0.0004,0.0582,0,9
3.88,1.677,1.6837,1.9124,-0.002,0.0023,-0.0,0.0165,0.0038,-0.0004,2.0,2.0,2.0,0.0,0.4605,0.0,0.017,0,14
3.9,1.6798,1.6867,1.9134,-0.0012,0.0019,-0.0,0.0883,0.0804,0.0312,2.0,2.0,2.0,0.0,0.4562,0.0,0.1235,0,2
3.92,1.6827,1.6897,1.9146,-0.0008,0.0021,-0.0007,0.0337,0.0381,0.0213,2.0,2.0,2.0,0.0,0.452,0.0007,0.0551,0,9
3.94,1.6855,1.6927,1.9161,-0.002,0.0026,-0.0003,0.017,0.0069,0.0133,2.0,2.0,2.0,0.0,0.4477,0.0003,0.0227,0,7
3.96,1.6884,1.6956,1.9174,-0.0015,0.0025,-0.0005,0.0331,0.0331,0.0171,2.0,2.0,2.0,0.0,0.4433,0.0005,0.0499,0,9
3.98,1.6914,1.6986,1.9185,-0.0001,0.0018,-0.0002,0.027,0.0206,0.0187,2.0,2.0,2.0,0.0,0.439,0.0002,0.0388,0,10
4.0,1.6944,1.7014,1.9192,-0.0015,0.002,-0.0,0.0342,0.0315,0.0328,2.0,2.0,2.0,0.0,0.4348,0.0,0.0569,0,4
4.02,1.6974,1.7043,1.9199,-0.0001,0.0021,-0.0002,0.019,0.0253,0.023,2.0,2.0,2.0,0.0,0.4306,0.0002,0.0391,0,10
4.04,1.7005,1.7071,1.9209,-0.0004,0.0027,-0.0,0.0299,0.032,0.026,2.0,2.0,2.0,0.0,0.4264,0.0,0.051,0,4
4.06,1.7036,1.7098,1.9215,-0.0008,0.0008,0.0005,0.0671,0.0656,0.0301,2.0,2.0,2.0,0.0,0.4222,-0.0005,0.0985,0,3
4.08,1.7067,1.7125,1.9224,-0.001,0.0018,-0.0002,0.0116,0.0291,0.021,2.0,2.0,2.0,0.0,0.418,0.0002,0.0377,0,10
4.1,1.7098,1.7152,1.9235,-0.0018,0.0023,0.0001,0.0624,0.0656,0.0228,2.0,2.0,2.0,0.0,0.4137,-0.0001,0.0934,0,3
4.12,1.713,1.7179,1.9247,-0.0013,0.0018,-0.0003,0.0759,0.0907,0.0264,2.0,2.0,2.0,0.0,0.4094,0.0003,0.1212,0,0
4.14,1.7162,1.7206,1.9259,-0.0017,0.0025,0.0002,0.0149,0.0188,0.019,2.0,2.0,2.0,0.0,0.4051,-0.0002,0.0306,0,5
4.16,1.7195,1.7234,1.9269,-0.0027,0.003,-0.0001,0.0531,0.0639,0.0216,2.0,2.0,2.0,0.0,0.4007,0.0001,0.0859,0,3
4.18,1.7228,1.7262,1.9282,-0.0023,0.0022,-0.0002,0.0055,0.0172,0.013,2.0,2.0,2.0,0.0,0.3962,0.0002,0.0223,0,10
4.2,1.7262,1.7291,1.9294,-0.0025,0.0022,-0.0002,-0.0038,0.0073,0.0039,2.0,2.0,2.0,0.0,0.3916,0.0002,0.0091,0,13
4.22,1.7296,1.732,1.9304,-0.0021,0.0019,-0.0002,0.0642,0.0744,0.0279,2.0,2.0,2.0,0.0,0.387,0.0002,0.1022,0,0
4.24,1.733,1.735,1.9315,-0.0017,0.0013,-0.0007,0.0014,0.0217,0.0175,2.0,2.0,2.0,0.0,0.3824,0.0007,0.0279,0,4
4.26,1.7363,1.738,1.9329,-0.0025,0.0014,-0.0003,0.0139,0.0184,0.0129,2.0,2.0,2.0,0.0,0.3778,0.0003,0.0264,0,8
4.28,1.7397,1.741,1.934,-0.0019,0.0003,-0.0004,-0.0018,0.0084,0.0142,2.0,2.0,2.0,0.0,0.3731,0.0004,0.0166,0,5
4.3,1.7429,1.744,1.9347,-0.0012,0.0013,0.0002,0.0531,0.0519,0.0263,2.0,2.0,2.0,0.0,0.3686,-0.0002,0.0788,0,2
4.32,1.7462,1.747,1.9354,-0.0009,0.0007,-0.0005,-0.0051,0.0097,0.0149,2.0,2.0,2.0,0.0,0.3642,0.0005,0.0185,0,12
4.34,1.7493,1.75,1.9364,-0.0017,0.0002,-0.0,-0.0005,-0.0024,0.0143,2.0,2.0,2.0,0.0,0.3597,0.0,0.0145,0,6
4.36,1.7523,1.7529,1.9372,-0.0015,-0.0003,-0.0003,-0.0129,-0.0083,0.0062,2.0,2.0,2.0,0.0,0.3554,0.0003,0.0166,0,15
4.38,1.7552,1.7558,1.9376,0.0004,0.0001,0.0001,0.0043,0.0007,0.018,2.0,2.0,2.0,0.0,0.3513,-0.0001,0.0185,0,11
4.4,1.758,1.7585,1.9378,0.0007,-0.0016,0.0001,0.0586,0.0589,0.035,2.0,2.0,2.0,0.0,0.3475,-0.0001,0.0901,0,1
4.42,1.7606,1.7612,1.9384,-0.0,-0.0006,-0.0004,-0.0022,0.0024,0.016,2.0,2.0,2.0,0.0,0.3437,0.0004,0.0163,0,7
4.44,1.7632,1.7638,1.9393,-0.0003,-0.0,0.0,0.0524,0.0479,0.017,2.0,2.0,2.0,0.0,0.34,-0.0,0.073,0,3
4.46,1.7656,1.7662,1.9404,0.0004,-0.0004,-0.0004,0.0189,0.0226,0.0133,2.0,2.0,2.0,0.0,0.3364,0.0004,0.0324,0,9
4.48,1.7679,1.7686,1.9415,-0.0004,0.0001,-0.0002,0.0076,0.004,0.0019,2.0,2.0,2.0,0.0,0.3329,0.0002,0.0088,0,14
4.5,1.7701,1.7709,1.9422,-0.0001,0.0002,0.0,0.0094,0.0058,0.0093,2.0,2.0,2.0,0.0,0.3297,-0.0,0.0145,0,14
4.52,1.7722,1.773,1.9425,0.0021,-0.0013,-0.0007,0.0231,0.0315,0.0238,2.0,2.0,2.0,0.0,0.3267,0.0007,0.0457,0,9
4.54,1.7742,1.775,1.9427,0.0017,-0.001,-0.0001,0.0582,0.0524,0.0266,2.0,2.0,2.0,0.0,0.3239,0.0001,0.0827,0,3
4.56,1.7761,1.7769,1.9432,0.0001,-0.0001,-0.0006,0.0669,0.071,0.0261,2.0,2.0,2.0,0.0,0.3212,0.0006,0.101,0,1
4.58,1.7779,1.7788,1.9439,-0.0001,0.0008,-0.0,0.0232,0.0164,0.0125,2.0,2.0,2.0,0.0,0.3185,0.0,0.031,0,11
4.6,1.7797,1.7806,1.9447,-0.0008,0.0013,-0.0002,0.0082,0.0093,0.0056,2.0,2.0,2.0,0.0,0.3158,0.0002,0.0136,0,15
4.62,1.7815,1.7824,1.9453,-0.0003,0.0014,-0.0,0.0302,0.0271,0.0142,2.0,2.0,2.0,0.0,0.3132,0.0,0.043,0,12
4.64,1.7832,1.7841,1.9458,-0.0003,-0.0001,-0.0002,0.015,0.0165,0.0124,2.0,2.0,2.0,0.0,0.3107,0.0002,0.0255,0,14
4.66,1.7849,1.7859,1.9459,-0.0007,0.0013,0.0005,0.0243,0.0172,0.0205,2.0,2.0,2.0,0.0,0.3083,-0.0005,0.0361,0,11
4.68,1.7867,1.7876,1.9459,-0.0005,0.0002,0.0001,0.0078,0.011,0.0211,2.0,2.0,2.0,0.0,0.3059,-0.0001,0.025,0,15
4.7,1.7884,1.7893,1.946,-0.0003,0.0014,0.0003,0.0296,0.028,0.0248,2.0,2.0,2.0,0.0,0.3035,-0.0003,0.0477,0,12
4.72,1.7901,1.7909,1.9466,-0.0002,0.0004,0.0001,0.0127,0.0162,0.014,2.0,2.0,2.0,0.0,0.301,-0.0001,0.0249,0,7
4.74,1.7918,1.7926,1.947,-0.0016,0.0003,0.0007,0.0308,0.0236,0.0202,2.0,2.0,2.0,0.0,0.2987,-0.0007,0.0438,0,5
4.76,1.7934,1.7943,1.9472,-0.0014,-0.0006,0.0003,0.0313,0.0344,0.0242,2.0,2.0,2.0,0.0,0.2963,-0.0003,0.0524,0,4
4.78,1.795,1.796,1.9476,-0.0004,0.0008,0.0004,0.0177,0.0131,0.0142,2.0,2.0,2.0,0.0,0.2939,-0.0004,0.0262,0,14
4.8,1.7966,1.7977,1.9482,-0.0015,0.0016,0.0003,0.0143,0.0122,0.013,2.0,2.0,2.0,0.0,0.2915,-0.0003,0.0228,0,7
4.82,1.7981,1.7995,1.9483,-0.0012,0.001,-0.0001,0.0316,0.0302,0.0263,2.0,2.0,2.0,0.0,0.2892,0.0001,0.051,0,4
4.84,1.7997,1.8012,1.9486,-0.0006,0.0002,-0.0003,0.032,0.0282,0.0216,2.0,2.0,2.0,0.0,0.2868,0.0003,0.0478,0,9
4.86,1.8013,1.803,1.9492,-0.0013,0.0011,0.0002,0.0163,0.0075,0.013,2.0,2.0,2.0,0.0,0.2844,-0.0002,0.0222,0,7
4.88,1.8029,1.8047,1.9498,-0.001,0.0018,-0.0001,0.0237,0.0226,0.0144,2.0,2.0,2.0,0.0,0.282,0.0001,0.0358,0,10
4.9,1.8045,1.8065,1.9503,0.0002,0.0011,0.0002,0.0377,0.0291,0.0195,2.0,2.0,2.0,0.0,0.2795,-0.0002,0.0514,0,8
4.92,1.8062,1.8082,1.9506,-0.0011,0.0007,0.0002,0.0539,0.0512,0.0224,2.0,2.0,2.0,0.0,0.2771,-0.0002,0.0776,0,2
4.94,1.8079,1.81,1.9511,-0.0014,0.0019,0.0,0.0193,0.0191,0.0158,2.0,2.0,2.0,0.0,0.2746,-0.0,0.0314,0,10
4.96,1.8097,1.8119,1.9518,-0.0018,0.0025,0.0,0.0448,0.0434,0.0136,2.0,2.0,2.0,0.0,0.2719,-0.0,0.0638,0,3
4.98,1.8116,1.8137,1.9527,-0.0013,0.0017,-0.0001,0.0244,0.0255,0.0118,2.0,2.0,2.0,0.0,0.2692,0.0001,0.0372,0,8
5.0,1.8135,1.8156,1.9537,-0.0022,0.0023,-0.0002,0.0136,0.0139,0.008,2.0,2.0,2.0,0.0,0.2663,0.0002,0.021,0,10
5.02,1.8155,1.8176,1.9546,-0.0021,0.0022,-0.0002,0.0201,0.0211,0.0107,2.0,2.0,2.0,0.0,0.2634,0.0002,0.031,0,8
5.04,1.8175,1.8195,1.9554,-0.0008,0.0012,-0.0003,0.003,0.0052,0.007,2.0,2.0,2.0,0.0,0.2605,0.0003,0.0092,0,6
5.06,1.8196,1.8215,1.9563,-0.0016,0.0018,-0.0003,0.0084,0.0093,0.0088,2.0,2.0,2.0,0.0,0.2575,0.0003,0.0153,0,10
5.08,1.8217,1.8236,1.9571,-0.0009,0.0008,-0.0004,0.0133,0.016,0.0117,2.0,2.0,2.0,0.0,0.2545,0.0004,0.0239,0,8
5.1,1.8239,1.8256,1.9578,-0.0004,0.0007,-0.0004,-0.0004,0.0008,0.0075,2.0,2.0,2.0,0.0,0.2514,0.0004,0.0076,0,6
5.12,1.826,1.8277,1.9585,-0.0012,0.0013,-0.0003,0.006,0.0077,0.0109,2.0,2.0,2.0,0.0,0.2484,0.0003,0.0147,0,4
5.14,1.8281,1.8297,1.9592,-0.0,0.0001,-0.0005,0.0013,0.0049,0.0075,2.0,2.0,2.0,0.0,0.2454,0.0005,0.0091,0,13
5.16,1.8302,1.8316,1.9598,-0.0003,0.0006,-0.0002,0.0007,0.0004,0.0091,2.0,2.0,2.0,0.0,0.2425,0.0002,0.0092,0,6
5.18,1.8321,1.8335,1.9595,-0.0006,-0.0001,-0.0001,0.0013,0.0024,0.0263,2.0,2.0,2.0,0.0,0.2399,0.0001,0.0264,0,14
5.2,1.8341,1.8353,1.9595,0.0011,-0.0008,-0.0002,0.005,0.0088,0.02,2.0,2.0,2.0,0.0,0.2373,0.0002,0.0224,0,5
5.22,1.8359,1.8371,1.9596,0.0011,-0.0011,0.0005,0.0032,-0.001,0.0141,2.0,2.0,2.0,0.0,0.2348,-0.0005,0.0145,0,7
5.24,1.8375,1.8387,1.9598,-0.0007,-0.0008,0.0001,0.0087,0.0134,0.0184,2.0,2.0,2.0,0.0,0.2325,-0.0001,0.0243,0,5
5.26,1.8391,1.8403,1.9599,0.0012,-0.0008,0.0004,0.01,0.0076,0.0153,2.0,2.0,2.0,0.0,0.2302,-0.0004,0.0198,0,6
5.28,1.8406,1.8417,1.9598,0.0,-0.0009,-0.0002,0.0367,0.0394,0.0214,2.0,2.0,2.0,0.0,0.2282,0.0002,0.058,0,3
5.3,1.8419,1.8431,1.96,0.0001,-0.0009,-0.0001,0.0088,0.0077,0.0141,2.0,2.0,2.0,0.0,0.2263,0.0001,0.0183,0,7
5.32,1.8432,1.8444,1.9605,-0.0001,0.0001,-0.0002,0.0542,0.0526,0.0166,2.0,2.0,2.0,0.0,0.2244,0.0002,0.0773,0,0
5.34,1.8444,1.8457,1.9613,-0.0,0.0,-0.0003,0.0403,0.0396,0.0083,2.0,2.0,2.0,0.0,0.2225,0.0003,0.0571,0,3
5.36,1.8456,1.847,1.9621,-0.0011,0.001,-0.0001,0.0329,0.0288,0.0084,2.0,2.0,2.0,0.0,0.2206,0.0001,0.0446,0,8
5.38,1.8468,1.8482,1.9623,-0.0017,0.0009,0.0005,0.0141,0.0078,0.0128,2.0,2.0,2.0,0.0,0.2189,-0.0005,0.0206,0,7
5.4,1.848,1.8494,1.9623,-0.0008,0.0009,-0.0001,0.0096,0.0123,0.0145,2.0,2.0,2.0,0.0,0.2173,0.0001,0.0213,0,7
5.42,1.8491,1.8507,1.9627,0.0,0.0009,0.0005,0.0565,0.0488,0.0179,2.0,2.0,2.0,0.0,0.2155,-0.0005,0.0768,0,0
5.44,1.8503,1.8519,1.9634,-0.0007,0.0009,-0.0001,0.0421,0.0433,0.0097,2.0,2.0,2.0,0.0,0.2137,0.0001,0.0612,0,2
5.46,1.8515,1.8532,1.9642,-0.0016,0.0024,0.0003,0.0533,0.0472,0.0098,2.0,2.0,2.0,0.0,0.2119,-0.0003,0.0719,0,0
5.48,1.8528,1.8545,1.9647,-0.0017,0.0013,0.0002,0.0487,0.047,0.0138,2.0,2.0,2.0,0.0,0.21,-0.0002,0.069,0,0
5.5,1.8541,1.8559,1.9644,-0.0019,0.0029,0.0003,0.0471,0.0439,0.0288,2.0,2.0,2.0,0.0,0.2081,-0.0003,0.0705,0,0
5.52,1.8556,1.8574,1.9641,-0.0031,0.0034,-0.0004,0.0104,0.0143,0.0228,2.0,2.0,2.0,0.0,0.2061,0.0004,0.0289,0,10
5.54,1.8572,1.859,1.9644,-0.0031,0.0027,-0.0,0.037,0.0335,0.0164,2.0,2.0,2.0,0.0,0.2038,0.0,0.0526,0,1
5.56,1.8589,1.8607,1.9651,-0.002,0.0022,-0.0002,0.0076,0.0082,0.0091,2.0,2.0,2.0,0.0,0.2013,0.0002,0.0144,0,9
5.58,1.8607,1.8626,1.9658,-0.0026,0.0029,-0.0001,0.0077,0.0058,0.0079,2.0,2.0,2.0,0.0,0.1987,0.0001,0.0124,0,8
5.6,1.8626,1.8645,1.9663,-0.0025,0.0024,-0.0,-0.0014,-0.002,0.0099,2.0,2.0,2.0,0.0,0.1959,0.0,0.0102,0,13
5.62,1.8646,1.8664,1.9668,-0.0017,0.0021,-0.0002,-0.0077,-0.0066,0.0088,2.0,2.0,2.0,0.0,0.1931,0.0002,0.0134,0,15
5.64,1.8666,1.8684,1.9672,-0.0011,0.0017,-0.0001,-0.002,-0.0026,0.012,2.0,2.0,2.0,0.0,0.1903,0.0001,0.0125,0,9
5.66,1.8686,1.8704,1.9677,-0.0004,0.0002,-0.0002,-0.0119,-0.0103,0.0072,2.0,2.0,2.0,0.0,0.1874,0.0002,0.0173,0,6
5.68,1.8706,1.8723,1.9681,-0.0008,0.0007,0.0001,-0.0116,-0.0133,0.0078,2.0,2.0,2.0,0.0,0.1845,-0.0001,0.0193,0,7
5.7,1.8726,1.8743,1.9679,-0.0008,-0.0001,0.0003,-0.0067,-0.008,0.0205,2.0,2.0,2.0,0.0,0.1819,-0.0003,0.023,0,4
5.72,1.8744,1.8761,1.9679,0.0007,-0.0009,-0.0002,-0.0049,-0.0022,0.0169,2.0,2.0,2.0,0.0,0.1793,0.0002,0.0177,0,10
5.74,1.8762,1.878,1.9679,0.0013,-0.0006,0.0006,0.0218,0.0163,0.0181,2.0,2.0,2.0,0.0,0.1768,-0.0006,0.0327,0,2
5.76,1.878,1.8797,1.968,0.0006,-0.0005,-0.0001,-0.0069,-0.0039,0.0139,2.0,2.0,2.0,0.0,0.1743,0.0001,0.016,0,5
5.78,1.8796,1.8814,1.9685,-0.0,-0.0005,0.0002,0.0247,0.0213,0.0113,2.0,2.0,2.0,0.0,0.172,-0.0002,0.0345,0,1
5.8,1.8811,1.8829,1.9692,0.001,-0.001,-0.0001,0.001,0.0009,0.0049,2.0,2.0,2.0,0.0,0.1697,0.0001,0.0051,0,14
5.82,1.8825,1.8844,1.9698,0.0005,-0.0004,0.0,0.009,0.0063,0.0059,2.0,2.0,2.0,0.0,0.1676,-0.0,0.0125,0,12
5.84,1.8838,1.8858,1.9703,0.0009,-0.0012,0.0001,0.0308,0.0284,0.0116,2.0,2.0,2.0,0.0,0.1656,-0.0001,0.0435,0,0
5.86,1.8851,1.8871,1.9708,0.0008,-0.0007,-0.0002,0.0057,0.006,0.0079,2.0,2.0,2.0,0.0,0.1638,0.0002,0.0114,0,11
5.88,1.8862,1.8883,1.9714,0.0,0.0002,-0.0001,0.025,0.0235,0.0058,2.0,2.0,2.0,0.0,0.162,0.0001,0.0348,0,3
5.9,1.8874,1.8894,1.972,0.0007,-0.0005,-0.0003,0.0251,0.0245,0.0053,2.0,2.0,2.0,0.0,0.1603,0.0003,0.0355,0,3
5.92,1.8884,1.8905,1.9727,0.0005,-0.0002,-0.0001,0.0102,0.0087,0.0044,2.0,2.0,2.0,0.0,0.1587,0.0001,0.0141,0,11
5.94,1.8895,1.8915,1.9734,-0.0003,0.0004,-0.0003,0.0167,0.0172,0.0046,2.0,2.0,2.0,0.0,0.1572,0.0003,0.0244,0,12
5.96,1.8905,1.8925,1.9739,0.0006,-0.0002,-0.0001,0.0116,0.0103,0.0047,2.0,2.0,2.0,0.0,0.1557,0.0001,0.0162,0,5
5.98,1.8914,1.8934,1.9743,-0.0004,0.0003,-0.0002,0.0298,0.0297,0.0084,2.0,2.0,2.0,0.0,0.1543,0.0002,0.0429,0,2
6.0,1.8923,1.8943,1.9747,0.0001,0.0001,-0.0003,0.0145,0.0155,0.0081,2.0,2.0,2.0,0.0,0.153,0.0003,0.0227,0,10
6.02,1.8933,1.8952,1.9753,-0.0005,0.0009,-0.0003,0.036,0.0358,0.0063,2.0,2.0,2.0,0.0,0.1516,0.0003,0.0511,0,0
6.04,1.8942,1.8961,1.9759,-0.0003,0.0005,-0.0003,0.018,0.0191,0.0056,2.0,2.0,2.0,0.0,0.1503,0.0003,0.0268,0,12
6.06,1.8951,1.8969,1.9765,-0.0011,0.0013,-0.0003,0.0111,0.0117,0.0024,2.0,2.0,2.0,0.0,0.1489,0.0003,0.0163,0,5
6.08,1.8961,1.8978,1.977,-0.0012,0.0012,-0.0003,0.0307,0.0312,0.0056,2.0,2.0,2.0,0.0,0.1476,0.0003,0.0441,0,1
6.1,1.897,1.8987,1.9775,-0.0004,0.0005,-0.0004,0.0035,0.005,0.0019,2.0,2.0,2.0,0.0,0.1462,0.0004,0.0064,0,7
6.12,1.898,1.8997,1.978,-0.0013,0.0013,-0.0004,0.0074,0.0082,0.0062,2.0,2.0,2.0,0.0,0.1447,0.0004,0.0127,0,15
6.14,1.8991,1.9006,1.9784,-0.0007,0.0007,-0.0007,0.0102,0.0131,0.0095,2.0,2.0,2.0,0.0,0.1433,0.0007,0.0192,0,13
6.16,1.9002,1.9017,1.9786,-0.0004,0.0007,-0.0005,0.0123,0.0128,0.012,2.0,2.0,2.0,0.0,0.1417,0.0005,0.0214,0,12
6.18,1.9013,1.9027,1.979,-0.0013,0.0009,-0.0003,0.0038,0.0041,0.0044,2.0,2.0,2.0,0.0,0.1401,0.0003,0.0071,0,5
6.2,1.9025,1.9038,1.9795,-0.0014,0.0013,-0.0004,0.0055,0.0069,0.0072,2.0,2.0,2.0,0.0,0.1385,0.0004,0.0114,0,14
6.22,1.9036,1.9049,1.9796,-0.0,0.0003,-0.0009,0.0043,0.0081,0.0116,2.0,2.0,2.0,0.0,0.1369,0.0009,0.0148,0,10
6.24,1.9048,1.9061,1.9798,-0.0002,0.0006,-0.0001,0.0042,0.0023,0.0107,2.0,2.0,2.0,0.0,0.1353,0.0001,0.0117,0,15
6.26,1.906,1.9071,1.9797,-0.0012,0.0005,-0.0003,0.0059,0.0085,0.0183,2.0,2.0,2.0,0.0,0.1337,0.0003,0.021,0,13
6.28,1.9071,1.9082,1.9791,0.0004,0.0003,0.0003,0.0096,0.0078,0.0331,2.0,2.0,2.0,0.0,0.1322,-0.0003,0.0353,0,12
6.3,1.9083,1.9093,1.9787,-0.0009,-0.001,0.0005,0.0052,0.0051,0.0245,2.0,2.0,2.0,0.0,0.1307,-0.0005,0.0256,0,14
6.32,1.9093,1.9104,1.9787,-0.0017,-0.0006,0.0006,0.0092,0.0062,0.0162,2.0,2.0,2.0,0.0,0.1292,-0.0006,0.0196,0,13
6.34,1.9103,1.9116,1.9784,-0.0008,-0.0016,0.0009,0.0242,0.0177,0.0187,2.0,2.0,2.0,0.0,0.1278,-0.0009,0.0353,0,1
6.36,1.9111,1.9128,1.9778,-0.0006,-0.001,0.0008,0.0042,-0.003,0.0186,2.0,2.0,2.0,0.0,0.1265,-0.0008,0.0193,0,6
6.38,1.912,1.9139,1.9777,-0.001,0.0005,0.0006,0.0028,-0.0044,0.0109,2.0,2.0,2.0,0.0,0.1251,-0.0006,0.0121,0,7
6.4,1.9127,1.9151,1.9774,-0.0005,0.0002,-0.0001,0.0131,0.0057,0.0228,2.0,2.0,2.0,0.0,0.1238,0.0001,0.0269,0,13
6.42,1.9135,1.9163,1.9775,0.0003,-0.0007,-0.0001,0.0124,-0.001,0.0115,2.0,2.0,2.0,0.0,0.1225,0.0001,0.0169,0,4
6.44,1.9142,1.9173,1.9778,-0.0009,0.0001,0.0001,0.0192,0.0057,0.0096,2.0,2.0,2.0,0.0,0.1212,-0.0001,0.0222,0,8
6.46,1.9149,1.9184,1.9783,0.0004,0.0001,-0.0001,0.0155,0.0054,0.0069,2.0,2.0,2.0,0.0,0.1198,0.0001,0.0178,0,9
6.48,1.9156,1.9195,1.9779,0.0004,0.0012,0.0002,0.0086,-0.0022,0.0159,2.0,2.0,2.0,0.0,0.1187,-0.0002,0.0182,0,6
6.5,1.9163,1.9204,1.9774,-0.0002,0.0007,-0.0002,0.0131,0.0066,0.0211,2.0,2.0,2.0,0.0,0.1177,0.0002,0.0257,0,10
6.52,1.917,1.9214,1.977,0.001,0.0002,0.0006,0.0174,0.0063,0.0276,2.0,2.0,2.0,0.0,0.1166,-0.0006,0.0332,0,13
6.54,1.9177,1.9222,1.9761,0.0008,-0.0003,0.0004,0.0269,0.0215,0.0303,2.0,2.0,2.0,0.0,0.1157,-0.0004,0.0458,0,0
6.56,1.9184,1.9231,1.9753,0.0011,0.0009,0.0009,0.0074,0.0013,0.0231,2.0,2.0,2.0,0.0,0.1148,-0.0009,0.0243,0,6
6.58,1.9192,1.9238,1.9751,0.0001,0.0014,0.0004,0.0028,0.003,0.0129,2.0,2.0,2.0,0.0,0.1138,-0.0004,0.0135,0,7
6.6,1.9199,1.9245,1.9748,0.0005,0.0014,0.0,0.0108,0.0121,0.0231,2.0,2.0,2.0,0.0,0.1129,-0.0,0.0282,0,14
6.62,1.9207,1.9252,1.9748,0.001,0.0004,-0.0001,0.0121,0.0147,0.0188,2.0,2.0,2.0,0.0,0.1119,0.0001,0.0268,0,13
6.64,1.9215,1.9258,1.9749,0.0003,0.0007,-0.0005,0.0021,0.0074,0.0103,2.0,2.0,2.0,0.0,0.1109,0.0005,0.0129,0,6
6.66,1.9223,1.9264,1.9745,-0.0004,0.0014,0.0005,0.0124,0.0129,0.0217,2.0,2.0,2.0,0.0,0.11,-0.0005,0.0282,0,9
6.68,1.9232,1.927,1.9739,-0.0004,-0.0006,0.0002,0.0079,0.0135,0.0289,2.0,2.0,2.0,0.0,0.1091,-0.0002,0.0328,0,14
6.7,1.924,1.9276,1.9731,-0.0005,0.0008,0.0005,0.0065,0.0101,0.0292,2.0,2.0,2.0,0.0,0.1084,-0.0005,0.0316,0,4
6.72,1.9248,1.9282,1.9724,-0.001,0.0009,-0.0002,0.0087,0.0158,0.0284,2.0,2.0,2.0,0.0,0.1076,0.0002,0.0336,0,9
6.74,1.9256,1.9289,1.9718,0.0002,0.0004,0.0008,0.0205,0.0193,0.0272,2.0,2.0,2.0,0.0,0.1067,-0.0008,0.0392,0,1
6.76,1.9265,1.9295,1.9715,-0.0008,0.0002,0.0002,0.0062,0.0121,0.0231,2.0,2.0,2.0,0.0,0.1057,-0.0002,0.0268,0,14
6.78,1.9274,1.9302,1.9716,-0.001,0.002,0.0006,0.0074,0.0095,0.0153,2.0,2.0,2.0,0.0,0.1046,-0.0006,0.0195,0,14
6.8,1.9283,1.9309,1.9716,-0.001,0.0006,0.0009,0.013,0.0151,0.015,2.0,2.0,2.0,0.0,0.1036,-0.0009,0.0249,0,3
6.82,1.9292,1.9317,1.9716,-0.0004,0.0001,0.0004,0.0044,0.0097,0.0159,2.0,2.0,2.0,0.0,0.1024,-0.0004,0.0191,0,14
6.84,1.9302,1.9324,1.9716,-0.0006,0.0018,0.001,0.0121,0.0129,0.0144,2.0,2.0,2.0,0.0,0.1012,-0.001,0.0228,0,3
6.86,1.9312,1.9332,1.9713,-0.0006,0.0003,0.001,0.0031,0.0079,0.0247,2.0,2.0,2.0,0.0,0.1001,-0.001,0.0262,0,14
6.88,1.9322,1.934,1.971,-0.0005,0.0015,0.0009,0.0044,0.0107,0.0266,2.0,2.0,2.0,0.0,0.099,-0.0009,0.029,0,12
6.9,1.9332,1.9348,1.9709,0.0002,0.0009,0.0001,0.0015,0.0115,0.0233,2.0,2.0,2.0,0.0,0.0978,-0.0001,0.026,0,12
6.92,1.9343,1.9356,1.9706,-0.0002,0.0011,0.0011,0.0023,0.0063,0.0242,2.0,2.0,2.0,0.0,0.0966,-0.0011,0.0251,0,8
6.94,1.9354,1.9363,1.97,-0.001,0.0005,0.0002,-0.0005,0.0091,0.0314,2.0,2.0,2.0,0.0,0.0956,-0.0002,0.0327,0,14
6.96,1.9364,1.9371,1.9695,0.0002,0.0006,0.0013,-0.0048,-0.0006,0.0223,2.0,2.0,2.0,0.0,0.0945,-0.0013,0.0228,0,5
6.98,1.9375,1.9378,1.9694,-0.0008,0.0001,0.0007,-0.0011,0.0106,0.0212,2.0,2.0,2.0,0.0,0.0934,-0.0007,0.0237,0,8
7.0,1.9385,1.9385,1.9696,0.0004,-0.0,0.0009,-0.0066,-0.0001,0.011,2.0,2.0,2.0,0.0,0.0921,-0.0009,0.0129,0,6
7.02,1.9394,1.9392,1.9698,-0.001,-0.0002,0.0009,0.0033,0.0109,0.0173,2.0,2.0,2.0,0.0,0.091,-0.0009,0.0208,0,12
7.04,1.9404,1.9399,1.9702,-0.0001,-0.0006,0.0004,0.0007,0.0094,0.0127,2.0,2.0,2.0,0.0,0.0897,-0.0004,0.0158,0,8
7.06,1.9413,1.9406,1.9705,-0.0005,0.0002,-0.0001,-0.005,0.0009,0.0088,2.0,2.0,2.0,0.0,0.0886,0.0001,0.0102,0,6
7.08,1.9421,1.9413,1.9704,-0.0007,-0.0,0.0004,0.0053,0.0083,0.0201,2.0,2.0,2.0,0.0,0.0876,-0.0004,0.0223,0,8
7.1,1.9429,1.942,1.9705,0.0002,-0.001,-0.0002,-0.0036,0.0017,0.0119,2.0,2.0,2.0,0.0,0.0866,0.0002,0.0126,0,6
7.12,1.9436,1.9426,1.9706,-0.0006,-0.0002,0.0005,0.008,0.0079,0.0164,2.0,2.0,2.0,0.0,0.0857,-0.0005,0.0199,0,14
7.14,1.9443,1.9433,1.9704,-0.0005,-0.0013,0.0004,0.0082,0.0087,0.0231,2.0,2.0,2.0,0.0,0.0848,-0.0004,0.026,0,8
7.16,1.9449,1.944,1.9707,-0.0001,-0.0006,0.0003,0.0092,0.0084,0.0103,2.0,2.0,2.0,0.0,0.0839,-0.0003,0.0162,0,14
7.18,1.9455,1.9446,1.9713,-0.0001,0.0002,0.0004,0.0099,0.0083,0.0056,2.0,2.0,2.0,0.0,0.0828,-0.0004,0.0141,0,14
7.2,1.946,1.9453,1.972,-0.0002,0.0004,0.0003,0.0014,0.0007,0.0032,2.0,2.0,2.0,0.0,0.0818,-0.0003,0.0035,0,6
7.22,1.9466,1.9459,1.9726,-0.0004,0.0007,0.0001,0.0102,0.0096,0.0073,2.0,2.0,2.0,0.0,0.0808,-0.0001,0.0158,0,8
7.24,1.9472,1.9465,1.9733,0.0003,-0.0002,-0.0002,0.0012,0.0011,0.002,2.0,2.0,2.0,0.0,0.0798,0.0002,0.0026,0,6
7.26,1.9477,1.9471,1.9739,-0.0005,0.0005,-0.0002,0.0086,0.0076,0.0013,2.0,2.0,2.0,0.0,0.0788,0.0002,0.0115,0,12
7.28,1.9483,1.9477,1.9745,0.0,-0.0002,-0.0004,0.0064,0.0061,0.0054,2.0,2.0,2.0,0.0,0.0779,0.0004,0.0104,0,9
7.3,1.9488,1.9482,1.9747,-0.0006,0.0007,-0.0009,0.002,0.0029,0.0091,2.0,2.0,2.0,0.0,0.077,0.0009,0.0097,0,5
7.32,1.9494,1.9488,1.9748,-0.0006,0.0008,-0.0008,0.0075,0.0063,0.0113,2.0,2.0,2.0,0.0,0.0763,0.0008,0.0149,0,13
7.34,1.9499,1.9494,1.9751,0.0001,-0.0005,-0.0008,0.0054,0.0049,0.0086,2.0,2.0,2.0,0.0,0.0754,0.0008,0.0112,0,10
7.36,1.9504,1.95,1.9751,-0.0007,0.0007,-0.0014,0.007,0.0078,0.0153,2.0,2.0,2.0,0.0,0.0747,0.0014,0.0185,0,8
7.38,1.951,1.9506,1.9749,-0.0002,0.0004,-0.0015,-0.0003,-0.0008,0.0137,2.0,2.0,2.0,0.0,0.074,0.0015,0.0137,0,7
7.4,1.9515,1.9511,1.9748,-0.0008,0.0006,-0.0012,0.0057,0.0043,0.0134,2.0,2.0,2.0,0.0,0.0733,0.0012,0.0152,0,14
7.42,1.9521,1.9517,1.9752,0.0,-0.0002,-0.0013,0.0019,0.0016,0.0075,2.0,2.0,2.0,0.0,0.0724,0.0013,0.0079,0,4
7.44,1.9527,1.9523,1.9756,-0.0005,0.0007,-0.0011,0.0036,0.0026,0.0052,2.0,2.0,2.0,0.0,0.0715,0.0011,0.0069,0,11
7.46,1.9532,1.9529,1.9759,-0.0004,0.0003,-0.0012,0.0035,0.0032,0.0061,2.0,2.0,2.0,0.0,0.0706,0.0012,0.0078,0,15
7.48,1.9538,1.9535,1.9764,-0.0003,0.0003,-0.0009,0.0008,-0.001,0.004,2.0,2.0,2.0,0.0,0.0696,0.0009,0.0042,0,5
7.5,1.9544,1.9541,1.9769,-0.0007,0.0006,-0.001,0.005,0.0047,0.0059,2.0,2.0,2.0,0.0,0.0687,0.001,0.009,0,8
7.52,1.955,1.9547,1.9773,0.0004,-0.0001,-0.0007,0.0033,0.0022,0.0054,2.0,2.0,2.0,0.0,0.0678,0.0007,0.0067,0,10
7.54,1.9555,1.9553,1.9774,-0.0005,0.0005,-0.0012,0.0044,0.0052,0.0115,2.0,2.0,2.0,0.0,0.067,0.0012,0.0133,0,13
7.56,1.9561,1.9559,1.9771,0.0002,0.0001,-0.0014,-0.0021,-0.0021,0.013,2.0,2.0,2.0,0.0,0.0663,0.0014,0.0133,0,7
7.58,1.9567,1.9564,1.9771,-0.0003,0.0004,-0.0012,0.0061,0.0056,0.0164,2.0,2.0,2.0,0.0,0.0656,0.0012,0.0184,0,12
7.6,1.9572,1.957,1.9775,0.0003,-0.0004,-0.0012,0.0041,0.0043,0.0044,2.0,2.0,2.0,0.0,0.0647,0.0012,0.0073,0,14
7.62,1.9577,1.9575,1.9776,-0.0005,0.0005,-0.0014,0.06,0.06,0.06,2.0,2.0,2.0,0.0,0.064,0.0014,0.1039,0,14
7.64,1.9583,1.9581,1.9785,-0.0007,0.0006,-0.0019,-0.0042,-0.0034,-0.0133,2.0,2.0,2.0,0.0,0.0629,0.0019,0.0144,0,14
7.66,1.9588,1.9586,1.9792,-0.001,0.0008,0.0001,-0.0023,-0.0063,-0.009,2.0,2.0,2.0,0.0,0.062,-0.0001,0.0112,0,14
7.68,1.9594,1.9592,1.9788,-0.0009,0.0004,-0.0,-0.0052,-0.0047,0.012,2.0,2.0,2.0,0.0,0.0613,0.0,0.0139,0,14
7.7,1.96,1.9598,1.9786,0.0006,0.0012,0.0005,-0.0052,-0.0054,0.0078,2.0,2.0,2.0,0.0,0.0606,-0.0005,0.0108,0,14
7.72,1.9607,1.9603,1.9789,0.0006,0.001,0.0003,-0.007,-0.0038,-0.0022,2.0,2.0,2.0,0.0,0.0597,-0.0003,0.0083,0,14
7.74,1.9614,1.9608,1.9789,0.0008,0.0008,0.0011,-0.0065,-0.0039,0.0047,2.0,2.0,2.0,0.0,0.0589,-0.0011,0.0089,0,14
7.76,1.962,1.9613,1.979,0.0005,0.0001,0.0006,-0.0079,-0.0018,0.0018,2.0,2.0,2.0,0.0,0.0581,-0.0006,0.0083,0,14
7.78,1.9627,1.9617,1.9789,0.0009,0.0002,0.0016,-0.0064,-0.0022,0.006,2.0,2.0,2.0,0.0,0.0575,-0.0016,0.009,0,14
7.8,1.9633,1.962,1.9789,0.0004,-0.0003,0.001,-0.0075,0.0002,0.0043,2.0,2.0,2.0,0.0,0.0568,-0.001,0.0087,0,14
7.82,1.9639,1.9624,1.9787,0.0008,-0.0001,0.002,-0.0054,-0.0004,0.0092,2.0,2.0,2.0,0.0,0.0563,-0.002,0.0107,0,14
7.84,1.9645,1.9626,1.9785,0.0002,-0.0007,0.0015,-0.0061,0.0017,0.0078,2.0,2.0,2.0,0.0,0.0558,-0.0015,0.01,0,14
7.86,1.965,1.9629,1.9785,0.0003,-0.0007,0.0019,-0.004,0.0012,0.0051,2.0,2.0,2.0,0.0,0.0553,-0.0019,0.0066,0,14
7.88,1.9655,1.9632,1.9784,-0.0,-0.0009,0.0017,-0.0035,0.002,0.0061,2.0,2.0,2.0,0.0,0.0549,-0.0017,0.0073,0,14
7.9,1.9659,1.9634,1.9786,0.0001,-0.0007,0.0015,-0.0023,0.0022,0.0006,2.0,2.0,2.0,0.0,0.0544,-0.0015,0.0033,0,14
7.92,1.9663,1.9636,1.9789,0.0001,-0.0006,0.0014,-0.0013,0.0024,-0.0025,2.0,2.0,2.0,0.0,0.0539,-0.0014,0.0037,0,14
7.94,1.9666,1.9639,1.9793,-0.0001,-0.0006,0.0013,-0.0004,0.0024,-0.0028,2.0,2.0,2.0,0.0,0.0534,-0.0013,0.0037,0,14
7.96,1.9669,1.9641,1.9797,-0.0001,-0.0006,0.0012,0.0004,0.0024,-0.0043,2.0,2.0,2.0,0.0,0.0529,-0.0012,0.005,0,14
7.98,1.9671,1.9643,1.9802,-0.0001,-0.0005,0.0011,0.0012,0.0024,-0.0053,2.0,2.0,2.0,0.0,0.0524,-0.0011,0.006,0,14
8.0,1.9673,1.9646,1.9807,-0.0001,-0.0005,0.001,0.0019,0.0024,-0.0056,2.0,2.0,2.0,0.0,0.0519,-0.001,0.0064,0,14
8.02,1.9675,1.9648,1.9812,-0.0002,-0.0004,0.0009,0.06,0.06,0.06,2.0,2.0,2.0,0.0,0.0515,-0.0009,0.1039,0,14
8.04,1.9677,1.965,1.9826,-0.0006,0.0001,-0.0002,0.0017,0.0022,-0.0243,2.0,2.0,2.0,0.0,0.0507,0.0002,0.0245,0,14
8.06,1.9679,1.9653,1.9835,-0.0012,0.0007,0.0017,0.0039,-0.0008,-0.0163,2.0,2.0,2.0,0.0,0.0501,-0.0017,0.0168,0,14
8.08,1.9681,1.9656,1.9832,-0.0011,0.0002,0.0013,0.0014,0.0002,0.0094,2.0,2.0,2.0,0.0,0.0498,-0.0013,0.0095,0,14
8.1,1.9683,1.966,1.9832,0.0,0.0009,0.0015,0.0013,-0.0008,0.0038,2.0,2.0,2.0,0.0,0.0494,-0.0015,0.0041,0,14
8.12,1.9686,1.9663,1.9836,-0.0,0.0008,0.0011,-0.0001,-0.0004,-0.0046,2.0,2.0,2.0,0.0,0.0489,-0.0011,0.0046,0,14
8.14,1.9689,1.9666,1.9838,-0.0002,0.0004,0.0013,-0.0001,-0.0009,0.0001,2.0,2.0,2.0,0.0,0.0484,-0.0013,0.0009,0,14
8.16,1.9692,1.967,1.984,-0.0004,-0.0001,0.001,-0.0004,-0.0008,-0.0021,2.0,2.0,2.0,0.0,0.0479,-0.001,0.0023,0,14
8.18,1.9695,1.9673,1.9845,-0.0003,-0.0,0.001,-0.0001,-0.0012,-0.0066,2.0,2.0,2.0,0.0,0.0473,-0.001,0.0067,0,14
8.2,1.9697,1.9677,1.985,-0.0002,-0.0,0.0009,-0.0,-0.0012,-0.0064,2.0,2.0,2.0,0.0,0.0468,-0.0009,0.0065,0,14
8.22,1.97,1.968,1.9855,-0.0001,-0.0,0.0008,0.0002,-0.0012,-0.0066,2.0,2.0,2.0,0.0,0.0462,-0.0008,0.0067,0,14
8.24,1.9702,1.9684,1.986,-0.0001,-0.0001,0.0007,0.0004,-0.0012,-0.0076,2.0,2.0,2.0,0.0,0.0456,-0.0007,0.0077,0,14
8.26,1.9705,1.9687,1.9865,-0.0001,-0.0001,0.0007,0.0007,-0.0012,-0.0077,2.0,2.0,2.0,0.0,0.0451,-0.0007,0.0078,0,14
8.28,1.9707,1.969,1.9871,-0.0001,-0.0001,0.0006,0.0009,-0.0012,-0.0077,2.0,2.0,2.0,0.0,0.0445,-0.0006,0.0078,0,14
8.3,1.9709,1.9694,1.9876,-0.0001,-0.0001,0.0005,0.0012,-0.0011,-0.0078,2.0,2.0,2.0,0.0,0.044,-0.0005,0.008,0,14
8.32,1.9711,1.9697,1.9881,-0.0,-0.0001,0.0005,0.0014,-0.001,-0.0079,2.0,2.0,2.0,0.0,0.0435,-0.0005,0.0081,0,14
8.34,1.9713,1.97,1.9886,-0.0,-0.0001,0.0004,0.0017,-0.0009,-0.0079,2.0,2.0,2.0,0.0,0.043,-0.0004,0.0081,0,14
8.36,1.9715,1.9703,1.9891,-0.0,-0.0001,0.0004,0.0019,-0.0008,-0.0079,2.0,2.0,2.0,0.0,0.0426,-0.0004,0.0082,0,14
8.38,1.9717,1.9706,1.9896,-0.0,-0.0001,0.0003,0.0021,-0.0007,-0.008,2.0,2.0,2.0,0.0,0.0421,-0.0003,0.0083,0,14
8.4,1.9718,1.9709,1.9901,-0.0,-0.0,0.0003,0.0022,-0.0006,-0.008,2.0,2.0,2.0,0.0,0.0417,-0.0003,0.0083,0,14
8.42,1.972,1.9712,1.9906,-0.0,-0.0,0.0002,0.06,0.06,0.06,2.0,2.0,2.0,0.0,0.0413,-0.0002,0.1039,0,14
8.44,1.9721,1.9715,1.992,-0.0005,0.0005,-0.0008,0.0011,-0.0004,-0.026,2.0,2.0,2.0,0.0,0.0406,0.0008,0.026,0,14
8.46,1.9723,1.9719,1.993,-0.001,0.0011,0.0011,0.0023,-0.0029,-0.0178,2.0,2.0,2.0,0.0,0.0401,-0.0011,0.0182,0,14
8.48,1.9726,1.9722,1.9927,-0.0015,0.0,0.0005,-0.0,-0.0023,0.0073,2.0,2.0,2.0,0.0,0.0397,-0.0005,0.0077,0,14
8.5,1.9728,1.9726,1.9927,-0.0008,0.0003,0.0008,0.0004,-0.0041,0.0016,2.0,2.0,2.0,0.0,0.0393,-0.0008,0.0045,0,14
8.52,1.9731,1.9731,1.9927,-0.0002,0.0007,0.0008,-0.0005,-0.0043,0.0007,2.0,2.0,2.0,0.0,0.0388,-0.0008,0.0044,0,14
8.54,1.9734,1.9735,1.9928,0.0002,0.0009,0.0006,-0.0015,-0.0039,-0.0002,2.0,2.0,2.0,0.0,0.0383,-0.0006,0.0042,0,14
8.56,1.9737,1.9739,1.9931,0.0002,0.0006,0.0007,-0.0019,-0.0039,-0.0042,2.0,2.0,2.0,0.0,0.0377,-0.0007,0.006,0,14
8.58,1.974,1.9743,1.9934,0.0,0.0002,0.0005,-0.0023,-0.0035,-0.006,2.0,2.0,2.0,0.0,0.0371,-0.0005,0.0073,0,14
8.6,1.9744,1.9747,1.9938,0.0001,0.0002,0.0005,-0.0024,-0.0033,-0.0065,2.0,2.0,2.0,0.0,0.0366,-0.0005,0.0076,0,14
8.62,1.9747,1.975,1.9943,0.0002,0.0001,0.0004,-0.0025,-0.0029,-0.0074,2.0,2.0,2.0,0.0,0.036,-0.0004,0.0083,0,14
8.64,1.975,1.9754,1.9947,0.0002,0.0,0.0004,-0.0024,-0.0026,-0.0078,2.0,2.0,2.0,0.0,0.0355,-0.0004,0.0086,0,14
8.66,1.9754,1.9757,1.9951,0.0002,-0.0,0.0003,-0.0023,-0.0022,-0.008,2.0,2.0,2.0,0.0,0.035,-0.0003,0.0086,0,14
8.68,1.9757,1.976,1.9956,0.0002,-0.0001,0.0002,-0.002,-0.0019,-0.0081,2.0,2.0,2.0,0.0,0.0345,-0.0002,0.0085,0,14
8.7,1.976,1.9763,1.996,0.0002,-0.0001,0.0002,-0.0018,-0.0015,-0.0081,2.0,2.0,2.0,0.0,0.034,-0.0002,0.0085,0,14
8.72,1.9762,1.9766,1.9965,0.0002,-0.0001,0.0001,-0.0015,-0.0012,-0.0081,2.0,2.0,2.0,0.0,0.0336,-0.0001,0.0083,0,14
8.74,1.9765,1.9768,1.9969,0.0002,-0.0002,0.0001,-0.0012,-0.0009,-0.0081,2.0,2.0,2.0,0.0,0.0332,-0.0001,0.0083,0,14
8.76,1.9768,1.977,1.9974,0.0001,-0.0002,0.0,-0.0008,-0.0006,-0.0082,2.0,2.0,2.0,0.0,0.0328,-0.0,0.0082,0,14
8.78,1.977,1.9773,1.9978,0.0001,-0.0002,-0.0,-0.0005,-0.0003,-0.0082,2.0,2.0,2.0,0.0,0.0324,0.0,0.0082,0,14
8.8,1.9772,1.9775,1.9982,0.0001,-0.0002,-0.0,-0.0002,-0.0001,-0.0082,2.0,2.0,2.0,0.0,0.0321,0.0,0.0082,0,14
8.82,1.9774,1.9777,1.9987,0.0001,-0.0001,-0.0001,0.06,0.06,0.0272,2.0,2.0,2.0,0.0,0.0318,0.0001,0.0891,0,14
8.84,1.9776,1.9779,1.9995,-0.0005,0.0004,-0.0008,-0.0006,-0.0,-0.0171,2.0,2.0,2.0,0.0,0.0314,0.0008,0.0171,0,14
8.86,1.9779,1.9781,1.9999,-0.0011,0.001,0.0005,-0.0001,-0.0016,-0.0069,2.0,2.0,2.0,0.0,0.0311,-0.0005,0.0071,0,14
8.88,1.9781,1.9784,1.9998,-0.001,0.0005,-0.0001,-0.0019,-0.0014,0.0003,2.0,2.0,2.0,0.0,0.0307,0.0001,0.0024,0,14
8.9,1.9784,1.9787,2.0001,-0.0004,0.0005,0.0002,-0.0017,-0.0028,-0.0047,2.0,2.0,2.0,0.0,0.0303,-0.0002,0.0057,0,14
8.92,1.9787,1.979,2.0003,-0.0004,0.0004,0.0,-0.0025,-0.0028,-0.0044,2.0,2.0,2.0,0.0,0.0299,-0.0,0.0058,0,14
8.94,1.979,1.9794,2.0005,-0.0002,0.0004,0.0,-0.0027,-0.0032,-0.0049,2.0,2.0,2.0,0.0,0.0294,-0.0,0.0064,0,14
8.96,1.9793,1.9797,2.0009,-0.0001,0.0002,-0.0,-0.0029,-0.0032,-0.0073,2.0,2.0,2.0,0.0,0.029,0.0,0.0085,0,14
8.98,1.9796,1.98,2.0013,-0.0001,0.0001,-0.0,-0.0029,-0.0032,-0.008,2.0,2.0,2.0,0.0,0.0286,0.0,0.0091,0,14
9.0,1.98,1.9803,2.0017,-0.0,0.0,-0.0001,-0.0029,-0.0031,-0.0082,2.0,2.0,2.0,0.0,0.0281,0.0001,0.0092,0,14
9.02,1.9803,1.9806,2.0021,0.0,-0.0,-0.0001,-0.0027,-0.003,-0.0085,2.0,2.0,2.0,0.0,0.0277,0.0001,0.0094,0,14
9.04,1.9805,1.9809,2.0025,0.0001,-0.0001,-0.0001,-0.0025,-0.0028,-0.0087,2.0,2.0,2.0,0.0,0.0274,0.0001,0.0095,0,14
9.06,1.9808,1.9812,2.0029,0.0001,-0.0001,-0.0001,-0.0023,-0.0025,-0.0087,2.0,2.0,2.0,0.0,0.027,0.0001,0.0093,0,14
9.08,1.9811,1.9815,2.0033,0.0001,-0.0001,-0.0001,-0.002,-0.0023,-0.0086,2.0,2.0,2.0,0.0,0.0267,0.0001,0.0092,0,14
9.1,1.9813,1.9817,2.0037,0.0001,-0.0002,-0.0001,-0.0017,-0.002,-0.0086,2.0,2.0,2.0,0.0,0.0264,0.0001,0.009,0,14
9.12,1.9816,1.982,2.0041,0.0001,-0.0002,-0.0002,-0.0014,-0.0017,-0.0086,2.0,2.0,2.0,0.0,0.0261,0.0002,0.0089,0,14
9.14,1.9818,1.9822,2.0045,0.0001,-0.0002,-0.0002,-0.0011,-0.0014,-0.0086,2.0,2.0,2.0,0.0,0.0259,0.0002,0.0088,0,14
9.16,1.982,1.9824,2.0048,0.0001,-0.0002,-0.0002,-0.0008,-0.0011,-0.0086,2.0,2.0,2.0,0.0,0.0256,0.0002,0.0087,0,14
9.18,1.9822,1.9826,2.0052,0.0001,-0.0002,-0.0002,-0.0005,-0.0009,-0.0086,2.0,2.0,2.0,0.0,0.0254,0.0002,0.0087,0,14
9.2,1.9823,1.9828,2.0056,0.0001,-0.0001,-0.0002,-0.0002,-0.0006,-0.0086,2.0,2.0,2.0,0.0,0.0253,0.0002,0.0087,0,14
9.22,1.9825,1.983,2.006,0.0001,-0.0001,-0.0002,0.06,0.06,-0.06,2.0,2.0,2.0,0.0,0.0251,0.0002,0.1039,0,14
9.24,1.9827,1.9832,2.0048,-0.0005,0.0005,0.0011,0.0001,-0.0013,0.0227,2.0,2.0,2.0,0.0,0.0246,-0.0011,0.0228,0,14
9.26,1.9829,1.9834,2.0034,-0.0012,0.0012,-0.001,-0.0018,-0.0007,0.0279,2.0,2.0,2.0,0.0,0.0241,0.001,0.028,0,14
9.28,1.9831,1.9837,2.0031,-0.0007,0.0011,0.0003,-0.0016,-0.0031,0.0048,2.0,2.0,2.0,0.0,0.0237,-0.0003,0.0059,0,14
9.3,1.9834,1.9839,2.0026,-0.0017,0.0006,-0.0005,-0.0034,-0.003,0.0099,2.0,2.0,2.0,0.0,0.0232,0.0005,0.0109,0,14
9.32,1.9837,1.9843,2.0021,-0.001,0.0008,-0.0001,-0.0037,-0.005,0.0088,2.0,2.0,2.0,0.0,0.0227,0.0001,0.0108,0,14
9.34,1.9841,1.9847,2.002,-0.0006,0.0006,-0.0004,-0.0048,-0.0054,0.002,2.0,2.0,2.0,0.0,0.0222,0.0004,0.0075,0,14
9.36,1.9844,1.9851,2.002,-0.0002,0.0003,-0.0003,-0.0049,-0.0059,-0.0001,2.0,2.0,2.0,0.0,0.0217,0.0003,0.0077,0,14
9.38,1.9848,1.9855,2.0021,-0.0001,-0.0001,-0.0004,-0.0048,-0.0059,-0.0036,2.0,2.0,2.0,0.0,0.0211,0.0004,0.0085,0,14
9.4,1.9851,1.9859,2.0024,0.0001,-0.0001,-0.0003,-0.0046,-0.0058,-0.0067,2.0,2.0,2.0,0.0,0.0207,0.0003,0.01,0,14
9.42,1.9855,1.9862,2.0028,0.0002,-0.0001,-0.0003,-0.0044,-0.0055,-0.0074,2.0,2.0,2.0,0.0,0.0202,0.0003,0.0102,0,14
9.44,1.9858,1.9866,2.0031,0.0003,-0.0002,-0.0003,-0.004,-0.0051,-0.0077,2.0,2.0,2.0,0.0,0.0198,0.0003,0.0101,0,14
9.46,1.9861,1.9869,2.0035,0.0003,-0.0003,-0.0003,-0.0036,-0.0046,-0.008,2.0,2.0,2.0,0.0,0.0195,0.0003,0.0099,0,14
9.48,1.9863,1.9872,2.0039,0.0004,-0.0003,-0.0003,-0.0031,-0.004,-0.0079,2.0,2.0,2.0,0.0,0.0191,0.0003,0.0094,0,14
9.5,1.9866,1.9875,2.0042,0.0004,-0.0003,-0.0003,-0.0026,-0.0034,-0.0078,2.0,2.0,2.0,0.0,0.0189,0.0003,0.0089,0,14
9.52,1.9868,1.9877,2.0045,0.0004,-0.0003,-0.0003,-0.0019,-0.0028,-0.009,2.0,2.0,2.0,0.0,0.0186,0.0003,0.0096,0,12
9.54,1.987,1.9879,2.0048,0.0004,-0.0003,-0.0003,-0.0017,-0.0022,-0.0064,2.0,2.0,2.0,0.0,0.0184,0.0003,0.0069,0,14
9.56,1.9871,1.9881,2.0051,0.0004,-0.0003,-0.0003,-0.0012,-0.0016,-0.0074,2.0,2.0,2.0,0.0,0.0183,0.0003,0.0077,0,14
9.58,1.9873,1.9883,2.0055,0.0004,-0.0003,-0.0003,-0.0003,-0.0006,-0.0094,2.0,2.0,2.0,0.0,0.0181,0.0003,0.0095,0,12
9.6,1.9874,1.9884,2.0057,0.0004,-0.0003,-0.0004,0.0,-0.0001,-0.0059,2.0,2.0,2.0,0.0,0.018,0.0004,0.0059,0,12
9.62,1.9876,1.9885,2.0059,0.0003,-0.0002,-0.0003,0.06,0.06,-0.06,2.0,2.0,2.0,0.0,0.0179,0.0003,0.1039,0,14
9.64,1.9877,1.9886,2.0047,-0.0004,0.0004,0.0009,-0.0002,-0.0007,0.0235,2.0,2.0,2.0,0.0,0.0174,-0.0009,0.0235,0,14
9.66,1.9879,1.9888,2.0032,-0.001,0.0011,-0.0011,-0.0016,-0.0003,0.028,2.0,2.0,2.0,0.0,0.0169,0.0011,0.0281,0,14
9.68,1.988,1.9889,2.003,-0.0006,0.0009,0.0001,-0.0017,-0.0021,0.0031,2.0,2.0,2.0,0.0,0.0166,-0.0001,0.0041,0,14
9.7,1.9883,1.9891,2.0024,-0.0017,0.0005,-0.0004,-0.003,-0.0023,0.0124,2.0,2.0,2.0,0.0,0.0162,0.0004,0.013,0,14
