time_s,x,y,z,roll_rad,pitch_rad,yaw_rad,vx_cmd,vy_cmd,vz_cmd,target_x,target_y,target_z,target_yaw,dist_m,yaw_err_rad,speed_ms,wind_enabled,rl_profile
0.02,0.0,0.0,0.9759,0.0,-0.0,0.0,2.5,2.5,1.5,3.0,2.0,2.0,0.0,3.7482,0.0,3.8406,0,0
0.04,0.0,0.0,0.9445,-0.0074,0.0073,-0.0001,1.1963,0.8036,0.8,3.0,2.0,2.0,0.0,3.7568,0.0001,1.6483,0,3
0.06,0.0007,0.0006,0.9386,-0.0139,0.0133,-0.0001,1.483,0.9893,0.7319,3.0,2.0,2.0,0.0,3.7576,0.0001,1.9271,0,1
0.08,0.0025,0.0023,0.951,-0.0196,0.0202,-0.0002,1.4538,0.9682,0.4299,3.0,2.0,2.0,0.0,3.7518,0.0002,1.7989,0,1
0.1,0.0057,0.0055,0.9726,-0.0262,0.0268,-0.0004,1.5581,1.0294,0.2907,3.0,2.0,2.0,0.0,3.7416,0.0004,1.8899,0,0
0.12,0.0107,0.0103,0.9948,-0.0327,0.0329,-0.0005,1.1031,0.72,0.191,3.0,2.0,2.0,0.0,3.729,0.0005,1.331,0,3
0.14,0.0177,0.0171,1.0158,-0.0392,0.0389,-0.0007,1.4563,0.9353,0.2725,3.0,2.0,2.0,0.0,3.7141,0.0007,1.752,0,0
0.16,0.0271,0.0262,1.0362,-0.0439,0.0485,-0.001,0.6,0.3905,0.1285,3.0,2.0,2.0,0.0,3.6964,0.001,0.7273,0,6
0.18,0.0393,0.0378,1.0546,-0.041,0.0546,0.0003,0.7,0.2609,0.1785,3.0,2.0,2.0,0.0,3.6756,-0.0003,0.7681,0,5
0.2,0.0546,0.0516,1.07,-0.0411,0.0566,-0.0007,0.6621,0.4528,0.2409,3.0,2.0,2.0,0.0,3.6519,0.0007,0.8376,0,4
0.22,0.073,0.0677,1.0846,-0.0428,0.0588,-0.0003,1.1686,0.6319,0.3408,3.0,2.0,2.0,0.0,3.6248,0.0003,1.3715,0,0
0.24,0.0949,0.0861,1.1005,-0.0437,0.0662,-0.0019,0.8086,0.585,0.255,3.0,2.0,2.0,0.0,3.5933,0.0019,1.0301,0,2
0.26,0.1205,0.1069,1.1178,-0.0448,0.0708,-0.0003,0.7566,0.3129,0.2001,3.0,2.0,2.0,0.0,3.5572,0.0003,0.8428,0,3
0.28,0.1499,0.1299,1.1344,-0.0425,0.0727,-0.0008,0.6758,0.4106,0.2271,3.0,2.0,2.0,0.0,3.5171,0.0008,0.8227,0,2
0.3,0.183,0.1549,1.1502,-0.0428,0.0718,-0.0006,0.1466,-0.0317,0.1898,3.0,2.0,2.0,0.0,3.473,0.0006,0.242,0,4
0.32,0.2195,0.1819,1.1655,-0.0381,0.0617,0.0001,-0.0491,-0.1756,0.146,3.0,2.0,2.0,0.0,3.4253,-0.0001,0.2336,0,6
0.34,0.2587,0.2104,1.1793,-0.0293,0.0486,0.0009,-0.0766,-0.2204,0.1892,3.0,2.0,2.0,0.0,3.375,-0.0009,0.3004,0,5
0.36,0.2998,0.2398,1.1932,-0.021,0.0403,0.0006,0.4438,0.2562,0.2824,3.0,2.0,2.0,0.0,3.3227,-0.0006,0.5851,0,0
0.38,0.3422,0.2696,1.2088,-0.0196,0.04,-0.0007,-0.3409,-0.1631,0.0977,3.0,2.0,2.0,0.0,3.2686,0.0007,0.3903,0,7
0.4,0.3857,0.2996,1.2241,-0.0096,0.029,0.0013,-0.2162,-0.37,0.1193,3.0,2.0,2.0,0.0,3.2137,-0.0013,0.4448,0,6
0.42,0.4295,0.3291,1.2368,-0.0039,0.0213,-0.0001,-0.3567,-0.1068,0.1984,3.0,2.0,2.0,0.0,3.1594,0.0001,0.4219,0,4
0.44,0.4732,0.3578,1.2482,0.0008,0.0167,0.0006,-0.269,-0.2544,0.2141,3.0,2.0,2.0,0.0,3.1059,-0.0006,0.4276,0,4
0.46,0.5164,0.3855,1.2601,0.0066,0.0086,0.0,0.263,0.2311,0.2717,3.0,2.0,2.0,0.0,3.0532,-0.0,0.4431,0,0
0.48,0.5586,0.4118,1.2739,0.0029,0.0038,-0.0005,0.2238,0.1957,0.1702,3.0,2.0,2.0,0.0,3.0016,0.0005,0.3426,0,3
0.5,0.5996,0.437,1.2881,0.0002,-0.0002,0.001,0.356,0.1409,0.2142,3.0,2.0,2.0,0.0,2.9516,-0.001,0.4387,0,0
0.52,0.6391,0.461,1.3017,0.0029,0.0003,0.0,0.2714,0.3042,0.2163,3.0,2.0,2.0,0.0,2.9034,-0.0,0.4615,0,0
0.54,0.6773,0.4841,1.3153,0.0018,0.0012,0.0001,-0.2126,-0.0911,0.138,3.0,2.0,2.0,0.0,2.8569,-0.0001,0.2694,0,4
0.56,0.714,0.5063,1.3283,0.0033,-0.0071,0.0004,-0.1728,-0.0908,0.1427,3.0,2.0,2.0,0.0,2.8122,-0.0004,0.2418,0,4
0.58,0.749,0.5273,1.3401,0.0073,-0.0134,0.0001,-0.1899,-0.0417,0.1408,3.0,2.0,2.0,0.0,2.7697,-0.0001,0.24,0,5
0.6,0.782,0.5472,1.3512,0.0111,-0.0178,0.0001,-0.1001,-0.0149,0.1618,3.0,2.0,2.0,0.0,2.7297,-0.0001,0.1908,0,4
0.62,0.8125,0.5656,1.362,0.0117,-0.0223,-0.0001,-0.1147,-0.0206,0.1248,3.0,2.0,2.0,0.0,2.6925,0.0001,0.1708,0,6
0.64,0.8405,0.5826,1.3725,0.012,-0.0256,0.0002,0.036,0.0394,0.1624,3.0,2.0,2.0,0.0,2.6582,-0.0002,0.1709,0,4
0.66,0.8659,0.5981,1.3823,0.0147,-0.0259,0.0002,0.0928,0.0968,0.168,3.0,2.0,2.0,0.0,2.627,-0.0002,0.2149,0,4
0.68,0.8887,0.612,1.3922,0.0149,-0.0248,0.0003,0.5462,0.3753,0.2071,3.0,2.0,2.0,0.0,2.5988,-0.0003,0.6943,0,1
0.7,0.9091,0.6245,1.403,0.0129,-0.0151,-0.0002,0.4663,0.3516,0.146,3.0,2.0,2.0,0.0,2.573,0.0002,0.602,0,3
0.72,0.9277,0.6356,1.4141,0.008,-0.0105,0.001,0.1392,0.0305,0.0794,3.0,2.0,2.0,0.0,2.5494,-0.001,0.1632,0,7
0.74,0.9448,0.6458,1.4235,0.0075,-0.0116,0.0012,0.5876,0.3976,0.176,3.0,2.0,2.0,0.0,2.5278,-0.0012,0.7309,0,2
0.76,0.9607,0.6551,1.4326,0.0056,-0.0029,0.0,0.6844,0.568,0.2108,3.0,2.0,2.0,0.0,2.5079,-0.0,0.914,0,0
0.78,0.9759,0.6638,1.4431,-0.0027,0.0058,-0.0,0.7315,0.5212,0.1768,3.0,2.0,2.0,0.0,2.4885,0.0,0.9154,0,0
0.8,0.9909,0.6724,1.455,-0.0102,0.0115,-0.0002,0.2236,0.1905,0.0673,3.0,2.0,2.0,0.0,2.4691,0.0002,0.3013,0,6
0.82,1.006,0.6812,1.4656,-0.0105,0.0103,0.0011,0.5637,0.3266,0.1191,3.0,2.0,2.0,0.0,2.4497,-0.0011,0.6623,0,3
0.84,1.0214,0.6903,1.4747,-0.0091,0.0181,-0.0003,0.104,0.1875,0.0829,3.0,2.0,2.0,0.0,2.4302,0.0003,0.2299,0,7
0.86,1.0373,0.6999,1.4822,-0.016,0.0106,0.0017,0.3896,0.1106,0.1522,3.0,2.0,2.0,0.0,2.4105,-0.0017,0.4327,0,4
0.88,1.0534,0.7103,1.4892,-0.0196,0.0152,0.0014,0.1146,0.1026,0.1063,3.0,2.0,2.0,0.0,2.3903,-0.0014,0.1869,0,7
0.9,1.07,0.7215,1.4965,-0.0188,0.012,0.0013,0.1629,0.1073,0.1179,3.0,2.0,2.0,0.0,2.3692,-0.0013,0.2279,0,6
0.92,1.0867,0.7335,1.5036,-0.0156,0.0088,0.001,0.5178,0.3434,0.1656,3.0,2.0,2.0,0.0,2.3476,-0.001,0.643,0,2
0.94,1.1037,0.7461,1.5116,-0.0139,0.017,0.0003,0.2247,0.1615,0.1302,3.0,2.0,2.0,0.0,2.3253,-0.0003,0.3058,0,4
0.96,1.1211,0.7592,1.5199,-0.0152,0.0155,0.001,0.1518,0.0082,0.0915,3.0,2.0,2.0,0.0,2.3023,-0.001,0.1774,0,6
0.98,1.1388,0.773,1.5273,-0.0129,0.0131,0.0013,0.1228,0.0147,0.1014,3.0,2.0,2.0,0.0,2.2789,-0.0013,0.1599,0,6
1.0,1.1567,0.787,1.5341,-0.009,0.0122,0.0007,0.4581,0.2848,0.1546,3.0,2.0,2.0,0.0,2.2553,-0.0007,0.5612,0,2
1.02,1.1748,0.8011,1.5415,-0.0076,0.0164,0.0001,0.4431,0.2795,0.141,3.0,2.0,2.0,0.0,2.2313,-0.0001,0.5425,0,2
1.04,1.1934,0.8153,1.5499,-0.0094,0.0189,0.0002,0.4445,0.2447,0.1218,3.0,2.0,2.0,0.0,2.2068,-0.0002,0.5218,0,2
1.06,1.2125,0.8297,1.5586,-0.0115,0.0196,-0.0001,0.4157,0.2501,0.1113,3.0,2.0,2.0,0.0,2.1817,0.0001,0.4977,0,2
1.08,1.2322,0.8442,1.5673,-0.0108,0.022,-0.0001,0.3608,0.2101,0.0952,3.0,2.0,2.0,0.0,2.156,0.0001,0.4282,0,3
1.1,1.2526,0.8589,1.5751,-0.0112,0.0222,0.0003,0.1015,-0.0074,0.0964,3.0,2.0,2.0,0.0,2.1298,-0.0003,0.1401,0,4
1.12,1.2737,0.8739,1.5824,-0.0098,0.0175,-0.0002,0.0442,0.0251,0.1032,3.0,2.0,2.0,0.0,2.1031,0.0002,0.1151,0,4
1.14,1.2951,0.889,1.5894,-0.0065,0.0142,-0.0,0.3403,0.1939,0.1209,3.0,2.0,2.0,0.0,2.076,0.0,0.4099,0,2
1.16,1.3169,0.904,1.5966,-0.0044,0.0177,-0.0005,0.3098,0.2109,0.1127,3.0,2.0,2.0,0.0,2.0486,0.0005,0.3913,0,2
1.18,1.3391,0.9187,1.6037,-0.0048,0.0178,-0.0008,-0.0095,0.0037,0.0935,3.0,2.0,2.0,0.0,2.0211,0.0008,0.0941,0,4
1.2,1.3614,0.9334,1.6102,-0.0072,0.0086,0.0001,0.3107,0.1562,0.1172,3.0,2.0,2.0,0.0,1.9936,-0.0001,0.367,0,2
1.22,1.3837,0.948,1.6166,-0.0046,0.0113,-0.0007,-0.0917,-0.0178,0.0761,3.0,2.0,2.0,0.0,1.9663,0.0007,0.1205,0,6
1.24,1.4058,0.9623,1.6222,-0.0057,0.0033,0.0011,0.371,0.1385,0.1479,3.0,2.0,2.0,0.0,1.9393,-0.0011,0.4227,0,0
1.26,1.4276,0.9765,1.6277,-0.002,0.0081,-0.0003,0.2432,0.2237,0.1228,3.0,2.0,2.0,0.0,1.9128,0.0003,0.3525,0,2
1.28,1.449,0.9902,1.6337,-0.0004,0.0087,0.0001,0.2775,0.1666,0.1121,3.0,2.0,2.0,0.0,1.8867,-0.0001,0.3425,0,2
1.3,1.4702,1.0034,1.6398,-0.0013,0.0056,-0.0005,0.2516,0.2041,0.1064,3.0,2.0,2.0,0.0,1.861,0.0005,0.341,0,2
1.32,1.491,1.0163,1.646,-0.0018,0.0067,-0.0004,0.2667,0.1794,0.1005,3.0,2.0,2.0,0.0,1.8358,0.0004,0.3367,0,2
1.34,1.5115,1.0289,1.6524,-0.0028,0.0073,-0.0007,0.252,0.1976,0.0957,3.0,2.0,2.0,0.0,1.811,0.0007,0.3342,0,2
1.36,1.5317,1.0411,1.6589,-0.003,0.0079,-0.0004,0.2614,0.1773,0.0896,3.0,2.0,2.0,0.0,1.7865,0.0004,0.3283,0,2
1.38,1.5518,1.0532,1.6655,-0.0048,0.008,-0.0007,0.2896,0.2289,0.1028,3.0,2.0,2.0,0.0,1.7623,0.0007,0.3832,0,0
1.4,1.5717,1.0651,1.6723,-0.0056,0.008,-0.0009,-0.0333,0.0292,0.0617,3.0,2.0,2.0,0.0,1.7383,0.0009,0.0759,0,4
1.42,1.5914,1.0769,1.6782,-0.0065,0.0031,0.0004,-0.0139,-0.0553,0.0662,3.0,2.0,2.0,0.0,1.7146,-0.0004,0.0873,0,5
1.44,1.6106,1.0887,1.683,-0.0031,0.0,-0.0006,-0.1064,-0.0068,0.0597,3.0,2.0,2.0,0.0,1.6915,0.0006,0.1222,0,7
1.46,1.6292,1.1004,1.6873,0.0002,-0.0024,-0.0001,0.2532,0.1588,0.1067,3.0,2.0,2.0,0.0,1.6692,0.0001,0.3174,0,2
1.48,1.6472,1.1116,1.692,0.0013,0.0016,-0.0008,0.2576,0.2152,0.1101,3.0,2.0,2.0,0.0,1.6475,0.0008,0.3533,0,1
1.5,1.6645,1.1224,1.6974,0.0002,0.0026,-0.0003,-0.0467,-0.0388,0.0452,3.0,2.0,2.0,0.0,1.6264,0.0003,0.0757,0,7
1.52,1.6813,1.1328,1.7019,-0.0019,-0.0035,0.0009,0.0032,-0.0438,0.0665,3.0,2.0,2.0,0.0,1.6061,-0.0009,0.0797,0,6
1.54,1.6974,1.143,1.7054,0.0006,-0.0053,0.0001,0.2278,0.183,0.0982,3.0,2.0,2.0,0.0,1.5868,-0.0001,0.3083,0,3
1.56,1.7127,1.1528,1.7096,0.001,-0.0021,-0.0002,-0.0032,0.022,0.0687,3.0,2.0,2.0,0.0,1.5682,0.0002,0.0722,0,6
1.58,1.7272,1.1621,1.714,0.0001,-0.0049,0.0004,0.033,-0.0039,0.062,3.0,2.0,2.0,0.0,1.5504,-0.0004,0.0704,0,6
1.6,1.7409,1.1712,1.7182,0.0014,-0.0068,-0.0002,-0.0043,0.0211,0.0536,3.0,2.0,2.0,0.0,1.5335,0.0002,0.0578,0,7
1.62,1.7537,1.1798,1.7221,0.0037,-0.0069,-0.0001,0.0238,0.0102,0.0565,3.0,2.0,2.0,0.0,1.5176,0.0001,0.0622,0,7
1.64,1.7657,1.1879,1.7258,0.0034,-0.0082,-0.0003,0.3456,0.2275,0.106,3.0,2.0,2.0,0.0,1.5028,0.0003,0.4271,0,1
1.66,1.7768,1.1955,1.7302,0.0029,-0.0024,-0.0009,0.3177,0.2265,0.0828,3.0,2.0,2.0,0.0,1.4888,0.0009,0.3989,0,2
1.68,1.7873,1.2026,1.7353,0.0009,0.0013,-0.0004,0.3434,0.2049,0.0678,3.0,2.0,2.0,0.0,1.4753,0.0004,0.4056,0,2
1.7,1.7974,1.2094,1.7406,-0.0024,0.0029,-0.0007,0.0688,0.0507,0.0302,3.0,2.0,2.0,0.0,1.4624,0.0007,0.0906,0,7
1.72,1.8072,1.2161,1.7451,-0.0038,0.0,-0.0001,0.08,0.0609,-0.0053,3.0,2.0,2.0,0.0,1.4499,0.0001,0.1007,0,13
1.74,1.8168,1.2228,1.7479,-0.0033,-0.0006,0.0001,0.15,0.1046,0.0517,3.0,2.0,2.0,0.0,1.4379,-0.0001,0.19,0,10
1.76,1.8261,1.2296,1.7503,-0.0026,0.0017,-0.001,0.04,0.04,0.016,3.0,2.0,2.0,0.0,1.4262,0.001,0.0588,0,15
1.78,1.8351,1.2362,1.7524,-0.0034,0.0006,0.0002,0.3236,0.1647,0.0944,3.0,2.0,2.0,0.0,1.4148,-0.0002,0.3752,0,3
1.8,1.8439,1.2428,1.7548,-0.0012,0.0053,-0.0013,0.1314,0.1301,0.0838,3.0,2.0,2.0,0.0,1.4035,0.0013,0.203,0,5
1.82,1.8527,1.2494,1.758,-0.0047,0.0034,0.0001,0.08,0.0349,0.0182,3.0,2.0,2.0,0.0,1.3922,-0.0001,0.0891,0,13
1.84,1.8613,1.256,1.7603,-0.0051,0.0024,0.0007,0.4225,0.2256,0.1157,3.0,2.0,2.0,0.0,1.3812,-0.0007,0.4927,0,0
1.86,1.87,1.2626,1.763,-0.0024,0.0094,-0.0008,0.2222,0.1907,0.0662,3.0,2.0,2.0,0.0,1.37,0.0008,0.3002,0,8
1.88,1.8789,1.2692,1.7664,-0.006,0.0092,0.0007,0.04,-0.0076,-0.0062,3.0,2.0,2.0,0.0,1.3586,-0.0007,0.0412,0,15
1.9,1.8879,1.2759,1.7684,-0.006,0.0067,0.0012,0.2,0.0943,0.0655,3.0,2.0,2.0,0.0,1.3471,-0.0012,0.2306,0,9
1.92,1.8972,1.2828,1.7702,-0.0032,0.0093,-0.0003,0.1295,0.1305,0.0956,3.0,2.0,2.0,0.0,1.3354,0.0003,0.2072,0,4
1.94,1.9068,1.2897,1.7731,-0.0035,0.0097,0.0008,0.08,0.0225,0.019,3.0,2.0,2.0,0.0,1.3233,-0.0008,0.0852,0,13
1.96,1.9166,1.2966,1.7757,-0.0037,0.0081,0.0013,0.1492,0.0655,0.0458,3.0,2.0,2.0,0.0,1.311,-0.0013,0.1692,0,10
1.98,1.9267,1.3035,1.778,-0.0022,0.0081,0.0001,0.009,0.04,0.0133,3.0,2.0,2.0,0.0,1.2987,-0.0001,0.0431,0,15
2.0,1.9368,1.3103,1.7796,-0.0053,0.004,0.0013,0.06,-0.0002,0.0341,3.0,2.0,2.0,0.0,1.2863,-0.0013,0.069,0,14
2.02,1.9469,1.3173,1.7803,-0.0041,0.0027,0.0001,0.1015,0.1033,0.0722,3.0,2.0,2.0,0.0,1.2741,-0.0001,0.1618,0,10
2.04,1.9569,1.3242,1.7817,-0.0036,0.0032,-0.0001,0.1698,0.1089,0.0794,3.0,2.0,2.0,0.0,1.2619,0.0001,0.2168,0,8
2.06,1.9669,1.3312,1.7843,-0.0042,0.0037,-0.0001,0.1188,0.0659,0.0427,3.0,2.0,2.0,0.0,1.2495,0.0001,0.1424,0,10
2.08,1.9767,1.3383,1.787,-0.005,0.004,0.0005,0.1013,0.0317,0.0328,3.0,2.0,2.0,0.0,1.2371,-0.0005,0.1111,0,11
2.1,1.9864,1.3453,1.7893,-0.0037,0.0039,-0.0001,0.16,0.1059,0.0596,3.0,2.0,2.0,0.0,1.2249,0.0001,0.2009,0,8
2.12,1.996,1.3524,1.7921,-0.0028,0.004,-0.0005,0.0283,0.0128,0.0451,3.0,2.0,2.0,0.0,1.2127,0.0005,0.0548,0,7
2.14,2.0055,1.3595,1.7951,-0.0035,0.0029,-0.0003,0.0497,0.0082,0.0025,3.0,2.0,2.0,0.0,1.2005,0.0003,0.0504,0,14
2.16,2.0149,1.3665,1.7973,-0.0017,0.0011,-0.0011,0.0345,0.0322,0.0184,3.0,2.0,2.0,0.0,1.1886,0.0011,0.0506,0,14
2.18,2.0241,1.3733,1.7985,0.0004,0.0015,-0.0007,0.1513,0.0553,0.0672,3.0,2.0,2.0,0.0,1.1771,0.0007,0.1745,0,9
2.2,2.0332,1.38,1.7995,0.0,0.0028,-0.0006,0.116,0.0468,0.0939,3.0,2.0,2.0,0.0,1.1659,0.0006,0.1564,0,4
2.22,2.0421,1.3864,1.8012,0.0003,0.0042,-0.0006,0.0777,0.0341,0.0341,3.0,2.0,2.0,0.0,1.1548,0.0006,0.0914,0,13
2.24,2.0508,1.3926,1.8032,0.0001,0.0027,0.0004,0.1347,0.0299,0.074,3.0,2.0,2.0,0.0,1.1439,-0.0004,0.1566,0,4
2.26,2.0595,1.3985,1.8051,0.001,0.0022,-0.0003,0.1039,0.0827,0.0741,3.0,2.0,2.0,0.0,1.1333,0.0003,0.1521,0,4
2.28,2.068,1.4042,1.8078,0.0008,0.0045,0.0002,0.1254,0.0607,0.0321,3.0,2.0,2.0,0.0,1.1227,-0.0002,0.1429,0,10
2.3,2.0766,1.4096,1.8104,0.0003,0.0039,-0.0011,0.0908,0.1086,0.0594,3.0,2.0,2.0,0.0,1.1123,0.0011,0.1535,0,4
2.32,2.0851,1.4148,1.813,0.0003,0.0042,0.0002,0.06,0.0149,0.0063,3.0,2.0,2.0,0.0,1.102,-0.0002,0.0622,0,14
2.34,2.0935,1.4198,1.8152,0.0016,0.0053,0.0002,0.2627,0.1784,0.0762,3.0,2.0,2.0,0.0,1.092,-0.0002,0.3266,0,1
2.36,2.1021,1.4245,1.8176,0.0013,0.0076,-0.0009,0.0385,0.0824,0.0452,3.0,2.0,2.0,0.0,1.082,0.0009,0.1016,0,6
2.38,2.1107,1.429,1.8203,-0.0034,0.0031,0.0005,0.2193,0.1265,0.0527,3.0,2.0,2.0,0.0,1.072,-0.0005,0.2586,0,3
2.4,2.1194,1.4335,1.8228,-0.0025,0.0058,-0.0004,0.1914,0.1624,0.0532,3.0,2.0,2.0,0.0,1.062,0.0004,0.2566,0,3
2.42,2.1281,1.438,1.8253,-0.0027,0.0091,-0.0,0.2663,0.1878,0.0699,3.0,2.0,2.0,0.0,1.0519,0.0,0.3333,0,0
2.44,2.1372,1.4425,1.8283,-0.0039,0.0099,-0.0007,0.0626,0.1052,0.0418,3.0,2.0,2.0,0.0,1.0415,0.0007,0.1294,0,4
2.46,2.1464,1.4473,1.8311,-0.0091,0.0053,0.0006,0.0343,0.0168,-0.0018,3.0,2.0,2.0,0.0,1.0308,-0.0006,0.0382,0,14
2.48,2.1557,1.4524,1.8326,-0.0072,0.0054,0.0007,0.014,0.0334,0.0243,3.0,2.0,2.0,0.0,1.0202,-0.0007,0.0436,0,14
2.5,2.1651,1.4577,1.8336,-0.0041,0.0053,0.0011,0.2308,0.1567,0.0913,3.0,2.0,2.0,0.0,1.0094,-0.0011,0.2935,0,0
2.52,2.1745,1.4631,1.8357,-0.0044,0.0071,-0.0004,0.0706,0.1215,0.0422,3.0,2.0,2.0,0.0,0.9983,0.0004,0.1468,0,8
2.54,2.184,1.4688,1.8381,-0.0094,0.0031,0.0015,0.1214,0.0263,0.0373,3.0,2.0,2.0,0.0,0.9871,-0.0015,0.1296,0,8
2.56,2.1933,1.4748,1.8401,-0.0072,0.0022,0.0004,0.005,0.0436,0.0182,3.0,2.0,2.0,0.0,0.9758,-0.0004,0.0475,0,13
2.58,2.2025,1.4809,1.8415,-0.0018,0.0003,0.0003,0.0204,0.0169,0.0299,3.0,2.0,2.0,0.0,0.9647,-0.0003,0.0399,0,13
2.6,2.2114,1.487,1.8425,-0.0022,-0.0011,0.0002,0.0428,0.0257,0.0447,3.0,2.0,2.0,0.0,0.9539,-0.0002,0.067,0,12
2.62,2.2199,1.4931,1.8436,-0.0022,-0.0014,0.0001,0.0539,0.0231,0.0661,3.0,2.0,2.0,0.0,0.9434,-0.0001,0.0883,0,4
2.64,2.2282,1.499,1.8452,-0.0013,-0.0006,-0.0001,0.1976,0.1195,0.0678,3.0,2.0,2.0,0.0,0.9331,0.0001,0.2407,0,1
2.66,2.2362,1.5049,1.8476,-0.0006,0.003,-0.0003,0.0258,0.0063,0.0323,3.0,2.0,2.0,0.0,0.9229,0.0003,0.0419,0,6
2.68,2.2441,1.5106,1.85,-0.0021,0.0009,0.0005,0.0645,0.011,0.0179,3.0,2.0,2.0,0.0,0.9129,-0.0005,0.0678,0,11
2.7,2.2517,1.5162,1.8519,-0.0017,-0.0005,-0.0,0.1787,0.1124,0.0533,3.0,2.0,2.0,0.0,0.9033,0.0,0.2177,0,2
2.72,2.2592,1.5218,1.854,-0.0008,0.0031,-0.0005,0.0473,0.0244,0.039,3.0,2.0,2.0,0.0,0.8937,0.0005,0.066,0,5
2.74,2.2666,1.5272,1.8564,-0.0015,0.0029,-0.0002,0.2221,0.1189,0.0504,3.0,2.0,2.0,0.0,0.8843,0.0002,0.2569,0,0
2.76,2.2739,1.5325,1.8591,-0.0008,0.0052,-0.0006,0.0643,0.0366,0.031,3.0,2.0,2.0,0.0,0.8749,0.0006,0.0802,0,4
2.78,2.2813,1.5378,1.8615,-0.0027,0.0036,0.0001,0.0824,0.0233,0.0189,3.0,2.0,2.0,0.0,0.8657,-0.0001,0.0877,0,10
2.8,2.2886,1.543,1.8633,-0.0031,0.0032,-0.0004,0.1854,0.1184,0.0525,3.0,2.0,2.0,0.0,0.8565,0.0004,0.2262,0,1
2.82,2.296,1.5482,1.8654,-0.0019,0.0059,-0.0007,0.0542,0.0328,0.0373,3.0,2.0,2.0,0.0,0.8472,0.0007,0.0736,0,4
2.84,2.3035,1.5534,1.8678,-0.0026,0.0054,-0.0004,0.0583,0.0162,0.0304,3.0,2.0,2.0,0.0,0.8378,0.0004,0.0677,0,4
2.86,2.3111,1.5585,1.8701,-0.0029,0.0043,-0.0005,0.1576,0.098,0.0367,3.0,2.0,2.0,0.0,0.8285,0.0005,0.1891,0,2
2.88,2.3187,1.5636,1.8725,-0.0012,0.0056,-0.0007,-0.0033,-0.0022,0.0183,3.0,2.0,2.0,0.0,0.819,0.0007,0.0187,0,7
2.9,2.3265,1.5686,1.8746,-0.002,0.0042,-0.0004,0.1367,0.0811,0.0331,3.0,2.0,2.0,0.0,0.8096,0.0004,0.1624,0,3
2.92,2.3342,1.5736,1.8767,-0.0016,0.0049,-0.0009,0.0269,0.0318,0.0319,3.0,2.0,2.0,0.0,0.8002,0.0009,0.0525,0,4
2.94,2.342,1.5785,1.8788,-0.0022,0.0039,-0.0007,0.0039,0.0029,-0.0015,3.0,2.0,2.0,0.0,0.7908,0.0007,0.0051,0,14
2.96,2.3497,1.5833,1.8802,-0.001,0.0034,-0.0,-0.0055,-0.0145,0.0286,3.0,2.0,2.0,0.0,0.7815,0.0,0.0325,0,7
2.98,2.3574,1.588,1.8807,0.0007,0.0026,-0.0002,0.1462,0.1045,0.0637,3.0,2.0,2.0,0.0,0.7726,0.0002,0.1907,0,1
3.0,2.3651,1.5924,1.882,0.0012,0.0036,-0.0008,0.0168,0.0446,0.0255,3.0,2.0,2.0,0.0,0.7637,0.0008,0.054,0,12
3.02,2.3727,1.5966,1.8835,-0.001,0.0019,0.0003,0.0235,0.006,0.0341,3.0,2.0,2.0,0.0,0.7549,-0.0003,0.0418,0,5
3.04,2.3801,1.6007,1.8848,-0.0009,0.001,-0.0004,-0.0064,0.0282,0.0324,3.0,2.0,2.0,0.0,0.7463,0.0004,0.0434,0,6
3.06,2.3873,1.6046,1.8858,0.0021,-0.0002,-0.0005,-0.0112,0.0143,0.0159,3.0,2.0,2.0,0.0,0.7381,0.0005,0.0242,0,15
3.08,2.3943,1.6083,1.8866,0.0005,-0.0013,-0.0003,0.0223,0.0329,0.0434,3.0,2.0,2.0,0.0,0.7302,0.0003,0.0588,0,5
3.1,2.401,1.6118,1.8874,0.0008,-0.0021,-0.0004,0.1357,0.1052,0.0493,3.0,2.0,2.0,0.0,0.7226,0.0004,0.1786,0,2
3.12,2.4074,1.6151,1.8889,0.0014,0.0006,-0.0006,0.0644,0.073,0.0268,3.0,2.0,2.0,0.0,0.7153,0.0006,0.101,0,9
3.14,2.4136,1.6182,1.8906,-0.0004,0.0011,-0.0001,0.051,0.0533,0.0117,3.0,2.0,2.0,0.0,0.7083,0.0001,0.0747,0,12
3.16,2.4196,1.6211,1.892,-0.001,0.0004,-0.0002,0.0353,0.0523,0.0153,3.0,2.0,2.0,0.0,0.7015,0.0002,0.065,0,13
3.18,2.4254,1.624,1.893,-0.0003,0.0006,-0.0002,0.1718,0.1344,0.0518,3.0,2.0,2.0,0.0,0.695,0.0002,0.2242,0,0
3.2,2.431,1.6268,1.8946,-0.0007,0.0021,-0.0009,0.0096,0.039,0.0208,3.0,2.0,2.0,0.0,0.6886,0.0009,0.0452,0,7
3.22,2.4365,1.6297,1.8962,-0.003,0.0005,0.0001,0.0586,0.0416,0.0138,3.0,2.0,2.0,0.0,0.6822,-0.0001,0.0732,0,11
3.24,2.442,1.6325,1.8975,-0.0028,-0.0002,-0.0004,0.0536,0.0688,0.0186,3.0,2.0,2.0,0.0,0.676,0.0004,0.0892,0,12
3.26,2.4472,1.6355,1.8985,-0.0017,0.0011,-0.0001,0.0339,0.0324,0.0174,3.0,2.0,2.0,0.0,0.6698,0.0001,0.05,0,14
3.28,2.4524,1.6385,1.8995,-0.0026,0.0017,-0.0004,0.0657,0.0615,0.027,3.0,2.0,2.0,0.0,0.6638,0.0004,0.0939,0,10
3.3,2.4575,1.6416,1.9007,-0.0023,0.0007,-0.0006,0.0351,0.0321,0.0267,3.0,2.0,2.0,0.0,0.6578,0.0006,0.0545,0,6
3.32,2.4624,1.6447,1.9022,-0.0028,0.0011,-0.0006,0.0228,0.0189,0.0179,3.0,2.0,2.0,0.0,0.6518,0.0006,0.0347,0,7
3.34,2.4672,1.6479,1.9037,-0.0024,0.001,-0.0005,0.0227,0.0185,0.0022,3.0,2.0,2.0,0.0,0.6458,0.0005,0.0293,0,15
3.36,2.4719,1.651,1.9047,-0.0011,-0.0002,-0.0007,0.0231,0.0205,0.0124,3.0,2.0,2.0,0.0,0.6401,0.0007,0.0333,0,15
3.38,2.4764,1.6542,1.9056,-0.0001,-0.0009,-0.0006,0.1757,0.1123,0.0462,3.0,2.0,2.0,0.0,0.6346,0.0006,0.2136,0,0
3.4,2.4808,1.6572,1.907,-0.0005,0.0022,-0.0012,0.1282,0.0886,0.0259,3.0,2.0,2.0,0.0,0.6291,0.0012,0.158,0,3
3.42,2.4851,1.6602,1.9088,-0.0025,0.0034,-0.0004,0.0837,0.0347,0.02,3.0,2.0,2.0,0.0,0.6236,0.0004,0.0927,0,4
3.44,2.4894,1.6632,1.9103,-0.0026,0.003,-0.0008,0.057,0.0391,0.0196,3.0,2.0,2.0,0.0,0.6182,0.0008,0.0719,0,5
3.46,2.4937,1.6663,1.9117,-0.002,0.0034,-0.0004,0.129,0.0767,0.0248,3.0,2.0,2.0,0.0,0.6128,0.0004,0.1521,0,3
3.48,2.4981,1.6694,1.9131,-0.0016,0.0041,-0.0007,0.0499,0.0377,0.0082,3.0,2.0,2.0,0.0,0.6072,0.0007,0.0631,0,13
3.5,2.5026,1.6726,1.9144,-0.0034,0.0037,-0.0003,0.0853,0.0444,0.0203,3.0,2.0,2.0,0.0,0.6016,0.0003,0.0982,0,9
3.52,2.5072,1.6758,1.9153,-0.0032,0.0029,-0.0004,0.0495,0.0315,0.0187,3.0,2.0,2.0,0.0,0.5959,0.0004,0.0616,0,11
3.54,2.5119,1.6791,1.9158,-0.0025,0.0044,0.0003,0.0207,0.0032,0.02,3.0,2.0,2.0,0.0,0.5902,-0.0003,0.029,0,15
3.56,2.5166,1.6825,1.9163,-0.0023,0.0035,-0.0003,0.0105,0.014,0.0193,3.0,2.0,2.0,0.0,0.5844,0.0003,0.026,0,15
3.58,2.5213,1.6859,1.917,-0.0012,0.0022,0.0002,0.0416,0.0148,0.0205,3.0,2.0,2.0,0.0,0.5785,-0.0002,0.0487,0,13
3.6,2.5261,1.6893,1.9179,-0.0014,0.0012,-0.0001,0.0739,0.0487,0.0278,3.0,2.0,2.0,0.0,0.5726,0.0001,0.0927,0,8
3.62,2.5308,1.6926,1.919,-0.0014,0.0023,-0.0002,0.0618,0.0375,0.0202,3.0,2.0,2.0,0.0,0.5667,0.0002,0.0751,0,9
3.64,2.5356,1.696,1.9204,-0.0019,0.0032,-0.0001,0.0737,0.0408,0.0187,3.0,2.0,2.0,0.0,0.5608,0.0001,0.0863,0,8
3.66,2.5403,1.6993,1.9216,-0.0015,0.0018,-0.0001,0.0199,0.0117,0.0071,3.0,2.0,2.0,0.0,0.5548,0.0001,0.0242,0,14
3.68,2.5451,1.7027,1.9226,-0.002,0.0019,-0.0001,0.0182,0.0055,0.0196,3.0,2.0,2.0,0.0,0.549,0.0001,0.0274,0,6
3.7,2.5497,1.706,1.923,-0.0023,0.0007,-0.0,0.0294,0.0114,0.0316,3.0,2.0,2.0,0.0,0.5432,0.0,0.0447,0,5
3.72,2.5543,1.7093,1.9231,-0.0011,-0.0005,0.0003,0.045,0.0187,0.0368,3.0,2.0,2.0,0.0,0.5376,-0.0003,0.0611,0,12
3.74,2.5588,1.7126,1.9234,-0.0009,0.0002,0.0002,0.0299,0.0121,0.0335,3.0,2.0,2.0,0.0,0.5321,-0.0002,0.0465,0,5
3.76,2.5632,1.7158,1.9242,-0.0008,0.0017,0.0002,0.0391,0.0182,0.0186,3.0,2.0,2.0,0.0,0.5266,-0.0002,0.047,0,11
3.78,2.5674,1.719,1.9247,-0.0008,-0.0006,0.0008,0.1126,0.0581,0.0334,3.0,2.0,2.0,0.0,0.5213,-0.0008,0.1311,0,2
3.8,2.5716,1.7221,1.9254,-0.0003,0.0013,-0.0,0.0672,0.0477,0.0264,3.0,2.0,2.0,0.0,0.5161,0.0,0.0866,0,8
3.82,2.5757,1.7252,1.9264,-0.001,0.0032,0.0006,0.0521,0.0167,0.0162,3.0,2.0,2.0,0.0,0.5109,-0.0006,0.0571,0,12
3.84,2.5798,1.7282,1.9274,-0.0009,0.0024,0.0001,0.0437,0.0296,0.016,3.0,2.0,2.0,0.0,0.5057,-0.0001,0.0552,0,12
3.86,2.5838,1.7311,1.9278,0.0004,0.0016,-0.0002,0.0377,0.023,0.0209,3.0,2.0,2.0,0.0,0.5007,0.0002,0.0488,0,11
3.88,2.5879,1.734,1.9283,-0.0009,0.0022,-0.0002,0.0116,0.0028,0.0215,3.0,2.0,2.0,0.0,0.4957,0.0002,0.0246,0,7
3.9,2.5919,1.7368,1.9292,-0.0008,0.0015,-0.0004,0.0928,0.0574,0.0232,3.0,2.0,2.0,0.0,0.4908,0.0004,0.1115,0,3
3.92,2.5958,1.7395,1.9304,0.0004,0.0017,-0.0005,0.0683,0.0433,0.0168,3.0,2.0,2.0,0.0,0.4859,0.0005,0.0826,0,8
3.94,2.5998,1.7421,1.9313,-0.0008,0.0028,0.0001,0.046,0.0182,0.0212,3.0,2.0,2.0,0.0,0.4811,-0.0001,0.0538,0,4
3.96,2.6037,1.7447,1.9323,-0.0012,0.0023,-0.0004,0.0199,0.0226,0.01,3.0,2.0,2.0,0.0,0.4763,0.0004,0.0317,0,14
3.98,2.6076,1.7472,1.9332,-0.0004,0.0021,-0.0001,0.1109,0.0669,0.0247,3.0,2.0,2.0,0.0,0.4716,0.0001,0.1319,0,1
4.0,2.6115,1.7496,1.9344,0.0003,0.0028,-0.0006,0.0346,0.0329,0.0166,3.0,2.0,2.0,0.0,0.4669,0.0006,0.0505,0,4
4.02,2.6154,1.752,1.9356,-0.0015,0.0026,-0.0002,0.0387,0.023,0.0135,3.0,2.0,2.0,0.0,0.4621,0.0002,0.047,0,4
4.04,2.6193,1.7544,1.9365,-0.002,0.002,-0.0006,0.0818,0.0592,0.0193,3.0,2.0,2.0,0.0,0.4575,0.0006,0.1028,0,3
4.06,2.6233,1.7567,1.9374,-0.0005,0.0024,-0.0005,0.0475,0.0385,0.0175,3.0,2.0,2.0,0.0,0.4528,0.0005,0.0636,0,9
4.08,2.6273,1.7591,1.9384,-0.0016,0.0032,-0.0006,0.0532,0.0447,0.0158,3.0,2.0,2.0,0.0,0.448,0.0006,0.0712,0,8
4.1,2.6314,1.7614,1.9395,-0.0016,0.0023,-0.0005,0.0421,0.0354,0.0122,3.0,2.0,2.0,0.0,0.4432,0.0005,0.0563,0,9
4.12,2.6355,1.7638,1.9405,-0.0022,0.0027,-0.0003,0.0247,0.0213,0.0094,3.0,2.0,2.0,0.0,0.4384,0.0003,0.034,0,11
4.14,2.6395,1.7663,1.9413,-0.0021,0.0023,-0.0002,0.0154,0.0136,0.0167,3.0,2.0,2.0,0.0,0.4336,0.0002,0.0265,0,5
4.16,2.6435,1.7687,1.9421,-0.0016,0.0015,-0.0004,0.0211,0.0208,0.0179,3.0,2.0,2.0,0.0,0.4289,0.0004,0.0347,0,4
4.18,2.6475,1.7712,1.9431,-0.0008,0.0005,-0.0003,0.0116,0.0122,0.0074,3.0,2.0,2.0,0.0,0.4241,0.0003,0.0184,0,14
4.2,2.6513,1.7737,1.9439,-0.0016,0.001,-0.0002,0.0049,0.0065,0.0071,3.0,2.0,2.0,0.0,0.4194,0.0002,0.0108,0,15
4.22,2.6551,1.7762,1.9446,-0.0013,0.0003,-0.0003,0.0403,0.0286,0.017,3.0,2.0,2.0,0.0,0.4149,0.0003,0.0522,0,9
4.24,2.6587,1.7787,1.9454,-0.0001,-0.0005,-0.0005,0.0269,0.0164,0.0158,3.0,2.0,2.0,0.0,0.4104,0.0005,0.0352,0,4
4.26,2.6622,1.7811,1.9464,-0.0008,0.0006,-0.0003,0.023,0.0093,0.0113,3.0,2.0,2.0,0.0,0.4061,0.0003,0.0273,0,5
4.28,2.6656,1.7834,1.9468,-0.0012,-0.0,0.0004,0.0777,0.0414,0.0209,3.0,2.0,2.0,0.0,0.402,-0.0004,0.0905,0,3
4.3,2.6688,1.7857,1.9472,0.0004,0.0002,-0.0003,0.0888,0.0613,0.0259,3.0,2.0,2.0,0.0,0.398,0.0003,0.1109,0,1
4.32,2.672,1.7879,1.9476,-0.0,0.0016,0.0004,0.0444,0.0184,0.0175,3.0,2.0,2.0,0.0,0.3941,-0.0004,0.0511,0,10
4.34,2.6752,1.7901,1.9482,-0.0018,0.0019,-0.0,0.0973,0.063,0.0236,3.0,2.0,2.0,0.0,0.3902,0.0,0.1183,0,0
4.36,2.6784,1.7924,1.9491,-0.0013,0.0017,-0.0,0.0977,0.0582,0.0176,3.0,2.0,2.0,0.0,0.3862,0.0,0.1151,0,0
4.38,2.6816,1.7946,1.9495,-0.0024,0.0029,-0.0002,0.0525,0.0325,0.0207,3.0,2.0,2.0,0.0,0.3823,0.0002,0.0651,0,8
4.4,2.6848,1.7969,1.95,-0.0025,0.0033,-0.0002,0.017,0.012,0.016,3.0,2.0,2.0,0.0,0.3783,0.0002,0.0263,0,14
4.42,2.6881,1.7992,1.9507,-0.0024,0.0023,-0.0002,0.0111,0.0017,0.0116,3.0,2.0,2.0,0.0,0.3742,0.0002,0.0161,0,6
4.44,2.6915,1.8016,1.951,-0.0023,0.0014,0.0004,0.0274,0.003,0.0205,3.0,2.0,2.0,0.0,0.3701,-0.0004,0.0343,0,4
4.46,2.6948,1.804,1.9512,-0.001,0.0008,0.0001,0.0062,0.0016,0.0193,3.0,2.0,2.0,0.0,0.366,-0.0001,0.0204,0,6
4.48,2.6981,1.8063,1.9515,-0.0007,0.0021,0.0003,0.0365,0.0165,0.0203,3.0,2.0,2.0,0.0,0.3619,-0.0003,0.0449,0,9
4.5,2.7015,1.8087,1.9517,-0.0001,0.0011,0.0007,0.0134,0.0049,0.0213,3.0,2.0,2.0,0.0,0.3579,-0.0007,0.0256,0,14
4.52,2.7047,1.8109,1.9516,0.0001,0.0019,0.0008,0.0004,-0.0043,0.0199,3.0,2.0,2.0,0.0,0.3539,-0.0008,0.0204,0,7
4.54,2.708,1.8131,1.9513,0.0002,0.0013,0.0012,0.0622,0.0339,0.0292,3.0,2.0,2.0,0.0,0.3501,-0.0012,0.0766,0,3
4.56,2.7111,1.8152,1.9513,0.0008,0.0006,0.0005,0.0639,0.0458,0.026,3.0,2.0,2.0,0.0,0.3464,-0.0005,0.0828,0,2
4.58,2.7142,1.8173,1.9519,0.0007,0.0016,0.0008,0.0023,-0.0023,0.0112,3.0,2.0,2.0,0.0,0.3426,-0.0008,0.0116,0,7
4.6,2.7174,1.8192,1.9526,-0.0008,0.0014,0.0006,0.0179,0.0187,0.0117,3.0,2.0,2.0,0.0,0.3388,-0.0006,0.0283,0,13
4.62,2.7204,1.8212,1.9532,-0.0001,-0.0,0.0006,0.0277,0.0194,0.0139,3.0,2.0,2.0,0.0,0.3352,-0.0006,0.0366,0,10
4.64,2.7234,1.8231,1.9536,-0.0003,-0.0003,0.0005,0.0193,0.0148,0.0172,3.0,2.0,2.0,0.0,0.3316,-0.0005,0.0298,0,4
4.66,2.7264,1.8249,1.9537,-0.0002,0.0018,0.0009,0.0235,0.0107,0.0239,3.0,2.0,2.0,0.0,0.3281,-0.0009,0.0352,0,4
4.68,2.7293,1.8267,1.954,-0.0002,0.0005,0.0009,0.028,0.0226,0.0184,3.0,2.0,2.0,0.0,0.3247,-0.0009,0.0404,0,10
4.7,2.7321,1.8284,1.9545,0.0007,0.0005,0.0007,0.0206,0.0181,0.0155,3.0,2.0,2.0,0.0,0.3213,-0.0007,0.0315,0,4
4.72,2.7349,1.8301,1.9548,-0.0005,0.0013,0.001,0.0234,0.0188,0.019,3.0,2.0,2.0,0.0,0.3181,-0.001,0.0355,0,13
4.74,2.7376,1.8318,1.955,-0.0007,-0.0,0.0003,0.0135,0.0211,0.0204,3.0,2.0,2.0,0.0,0.3149,-0.0003,0.0322,0,14
4.76,2.7403,1.8334,1.9552,-0.0005,0.0008,0.0005,0.0653,0.0409,0.0216,3.0,2.0,2.0,0.0,0.3118,-0.0005,0.08,0,2
4.78,2.7428,1.835,1.9557,0.0002,0.001,0.0001,0.0234,0.0219,0.0117,3.0,2.0,2.0,0.0,0.3087,-0.0001,0.0341,0,11
4.8,2.7454,1.8366,1.9565,-0.0012,0.0011,0.0002,0.0133,0.0088,0.0082,3.0,2.0,2.0,0.0,0.3056,-0.0002,0.018,0,6
4.82,2.7479,1.8382,1.9568,-0.0016,0.0004,0.0005,0.0135,0.0118,0.0146,3.0,2.0,2.0,0.0,0.3027,-0.0005,0.0231,0,15
4.84,2.7503,1.8397,1.9569,0.0005,-0.0003,0.0001,0.0121,0.0154,0.0192,3.0,2.0,2.0,0.0,0.2998,-0.0001,0.0274,0,15
4.86,2.7526,1.8412,1.9568,0.0006,-0.0003,0.0009,0.0379,0.0209,0.0285,3.0,2.0,2.0,0.0,0.2971,-0.0009,0.0519,0,12
4.88,2.7549,1.8427,1.9569,-0.0007,-0.0008,0.0004,0.0635,0.0438,0.0225,3.0,2.0,2.0,0.0,0.2944,-0.0004,0.0804,0,2
4.9,2.7571,1.8442,1.9574,-0.0006,0.0005,0.0004,0.0368,0.0254,0.0152,3.0,2.0,2.0,0.0,0.2917,-0.0004,0.0472,0,12
4.92,2.7593,1.8456,1.9582,-0.0013,0.0015,0.0002,0.0174,0.0111,0.0068,3.0,2.0,2.0,0.0,0.289,-0.0002,0.0217,0,6
4.94,2.7614,1.8471,1.959,-0.0013,0.0009,0.0002,0.0242,0.0174,0.0064,3.0,2.0,2.0,0.0,0.2864,-0.0002,0.0304,0,14
4.96,2.7635,1.8486,1.9597,-0.0006,-0.0001,-0.0001,0.0179,0.0096,0.0074,3.0,2.0,2.0,0.0,0.2837,0.0001,0.0216,0,6
4.98,2.7655,1.8501,1.9604,-0.0015,0.0009,-0.0001,0.0311,0.0197,0.0104,3.0,2.0,2.0,0.0,0.2811,0.0001,0.0383,0,13
5.0,2.7675,1.8516,1.9608,-0.0009,0.0003,0.0,0.0772,0.043,0.0177,3.0,2.0,2.0,0.0,0.2786,-0.0,0.0902,0,0
5.02,2.7696,1.8531,1.9614,-0.0005,0.0017,-0.0004,0.0739,0.0445,0.0149,3.0,2.0,2.0,0.0,0.2759,0.0004,0.0875,0,0
5.04,2.7717,1.8547,1.9618,-0.0013,0.0034,0.0003,0.0184,0.0002,0.011,3.0,2.0,2.0,0.0,0.2733,-0.0003,0.0214,0,6
5.06,2.7739,1.8563,1.9622,-0.002,0.0024,-0.0002,0.0228,0.0128,0.0145,3.0,2.0,2.0,0.0,0.2706,0.0002,0.0299,0,4
5.08,2.7761,1.858,1.9625,-0.0008,0.0016,0.0001,0.0514,0.0258,0.0141,3.0,2.0,2.0,0.0,0.2678,-0.0001,0.0592,0,3
5.1,2.7784,1.8598,1.9624,-0.0016,0.0018,0.0005,0.0108,0.0037,0.0213,3.0,2.0,2.0,0.0,0.2649,-0.0005,0.0242,0,15
5.12,2.7808,1.8615,1.9625,-0.0022,0.0025,-0.0001,0.0134,0.0059,0.0193,3.0,2.0,2.0,0.0,0.262,0.0001,0.0242,0,4
5.14,2.7833,1.8634,1.9627,-0.001,0.0013,-0.0004,0.0194,0.011,0.0195,3.0,2.0,2.0,0.0,0.2589,0.0004,0.0296,0,12
5.16,2.7858,1.8653,1.9632,-0.0008,0.0011,-0.0004,0.0018,-0.0066,0.0091,3.0,2.0,2.0,0.0,0.2557,0.0004,0.0114,0,6
5.18,2.7883,1.8671,1.9639,-0.0014,0.0019,-0.0004,0.0084,0.0027,0.0082,3.0,2.0,2.0,0.0,0.2525,0.0004,0.0121,0,14
5.2,2.7908,1.8691,1.9643,-0.0001,0.0008,-0.0002,0.0168,0.0043,0.0151,3.0,2.0,2.0,0.0,0.2494,0.0002,0.0229,0,12
5.22,2.7933,1.8709,1.9644,-0.0003,0.0002,-0.0,0.051,0.0231,0.0217,3.0,2.0,2.0,0.0,0.2463,0.0,0.06,0,0
5.24,2.7959,1.8728,1.9647,-0.0003,0.0016,-0.0004,0.0119,0.0075,0.0173,3.0,2.0,2.0,0.0,0.2431,0.0004,0.0223,0,12
5.26,2.7984,1.8746,1.9654,-0.0009,0.0018,-0.0003,0.0476,0.0229,0.0107,3.0,2.0,2.0,0.0,0.2399,0.0003,0.0538,0,0
5.28,2.801,1.8764,1.9662,0.0,0.0011,-0.0004,0.011,0.0066,0.0058,3.0,2.0,2.0,0.0,0.2367,0.0004,0.0141,0,12
5.3,2.8035,1.8781,1.9669,-0.0009,0.0013,-0.0004,0.0445,0.0233,0.0081,3.0,2.0,2.0,0.0,0.2336,0.0004,0.0509,0,0
5.32,2.8061,1.8799,1.9676,-0.0003,0.0011,-0.0005,-0.0005,0.0017,0.0051,3.0,2.0,2.0,0.0,0.2304,0.0005,0.0054,0,15
5.34,2.8086,1.8816,1.9683,-0.0009,0.0012,-0.0005,0.0003,-0.0034,0.0057,3.0,2.0,2.0,0.0,0.2273,0.0005,0.0067,0,4
5.36,2.8111,1.8832,1.9682,-0.001,0.0004,-0.0006,-0.0031,-0.0039,0.0176,3.0,2.0,2.0,0.0,0.2243,0.0006,0.0183,0,5
5.38,2.8136,1.8848,1.968,0.0003,0.0007,-0.0005,0.0384,0.0215,0.022,3.0,2.0,2.0,0.0,0.2215,0.0005,0.0492,0,1
5.4,2.816,1.8864,1.9684,0.0009,0.0008,-0.0007,-0.0058,-0.0034,0.0085,3.0,2.0,2.0,0.0,0.2186,0.0007,0.0109,0,6
5.42,2.8184,1.8878,1.969,-0.0004,0.0006,-0.0004,0.0015,0.0043,0.0065,3.0,2.0,2.0,0.0,0.2157,0.0004,0.0079,0,15
5.44,2.8207,1.8892,1.9696,0.0003,-0.0006,-0.0006,-0.0046,-0.0015,0.0044,3.0,2.0,2.0,0.0,0.213,0.0006,0.0065,0,6
5.46,2.8229,1.8906,1.9702,-0.0,-0.0001,-0.0005,0.0034,0.0066,0.0065,3.0,2.0,2.0,0.0,0.2103,0.0005,0.0099,0,15
5.48,2.825,1.8919,1.9709,0.0007,-0.0008,-0.0007,0.0025,0.0028,0.0046,3.0,2.0,2.0,0.0,0.2078,0.0007,0.0059,0,5
5.5,2.827,1.8931,1.9708,0.0,-0.0005,-0.0005,0.0094,0.0057,0.017,3.0,2.0,2.0,0.0,0.2054,0.0005,0.0203,0,4
5.52,2.8289,1.8942,1.9704,0.0003,-0.0014,-0.0004,0.0079,0.0098,0.0255,3.0,2.0,2.0,0.0,0.2033,0.0004,0.0284,0,15
5.54,2.8307,1.8953,1.9701,0.0007,-0.0009,0.0003,0.0077,0.0009,0.0182,3.0,2.0,2.0,0.0,0.2012,-0.0003,0.0198,0,6
5.56,2.8324,1.8964,1.9701,-0.0005,-0.001,-0.0001,0.0374,0.0243,0.015,3.0,2.0,2.0,0.0,0.1993,0.0001,0.0471,0,3
5.58,2.8339,1.8974,1.9705,0.0006,-0.0009,-0.0,0.0483,0.029,0.012,3.0,2.0,2.0,0.0,0.1974,0.0,0.0576,0,1
5.6,2.8354,1.8983,1.9708,0.0,-0.0005,0.0002,0.0221,0.0145,0.0102,3.0,2.0,2.0,0.0,0.1956,-0.0002,0.0284,0,11
5.62,2.8369,1.8992,1.9706,-0.001,0.0007,0.0006,0.0377,0.0215,0.0219,3.0,2.0,2.0,0.0,0.194,-0.0006,0.0486,0,8
5.64,2.8383,1.9002,1.9703,-0.0007,-0.0004,0.0004,0.0176,0.0097,0.0199,3.0,2.0,2.0,0.0,0.1924,-0.0004,0.0283,0,5
5.66,2.8396,1.9011,1.97,-0.0004,0.0012,0.0007,0.0151,0.0047,0.0177,3.0,2.0,2.0,0.0,0.1908,-0.0007,0.0237,0,6
5.68,2.841,1.902,1.9699,-0.0008,0.0011,0.0005,0.0366,0.0235,0.0226,3.0,2.0,2.0,0.0,0.1892,-0.0005,0.049,0,8
5.7,2.8423,1.903,1.9701,-0.0001,0.0005,0.0002,0.029,0.0218,0.0158,3.0,2.0,2.0,0.0,0.1875,-0.0002,0.0396,0,12
5.72,2.8437,1.9039,1.9706,-0.0006,0.0021,0.0005,0.0528,0.0285,0.0106,3.0,2.0,2.0,0.0,0.1858,-0.0005,0.0609,0,0
5.74,2.8451,1.9048,1.9711,-0.0011,0.0011,0.0003,0.0102,0.0058,0.0061,3.0,2.0,2.0,0.0,0.1841,-0.0003,0.0132,0,6
5.76,2.8466,1.9058,1.9716,-0.0016,0.0015,0.0002,0.0356,0.0209,0.0075,3.0,2.0,2.0,0.0,0.1823,-0.0002,0.042,0,3
5.78,2.8481,1.9068,1.9719,-0.0009,0.0013,0.0002,0.0147,0.0067,0.0089,3.0,2.0,2.0,0.0,0.1804,-0.0002,0.0184,0,4
5.8,2.8497,1.9079,1.9718,-0.001,0.0024,0.0007,0.0334,0.0171,0.0162,3.0,2.0,2.0,0.0,0.1785,-0.0007,0.0409,0,3
5.82,2.8514,1.909,1.9714,-0.0011,0.0012,0.0005,0.0396,0.0238,0.0255,3.0,2.0,2.0,0.0,0.1766,-0.0005,0.0528,0,0
5.84,2.8531,1.9101,1.9715,-0.0008,0.0019,0.0001,-0.0035,-0.002,0.0097,3.0,2.0,2.0,0.0,0.1746,-0.0001,0.0105,0,7
5.86,2.8549,1.9113,1.972,-0.0016,0.0023,0.0003,0.0008,-0.0018,0.0065,3.0,2.0,2.0,0.0,0.1723,-0.0003,0.0068,0,5
5.88,2.8568,1.9125,1.9717,-0.001,0.0006,0.0002,0.031,0.0184,0.0235,3.0,2.0,2.0,0.0,0.1702,-0.0002,0.0431,0,0
5.9,2.8588,1.9137,1.9713,-0.0008,0.0009,-0.0,-0.0068,-0.0043,0.0183,3.0,2.0,2.0,0.0,0.168,0.0,0.02,0,6
5.92,2.8607,1.915,1.9715,-0.0015,0.0016,-0.0001,0.0234,0.0132,0.0132,3.0,2.0,2.0,0.0,0.1656,0.0001,0.0299,0,2
5.94,2.8627,1.9163,1.972,-0.0004,0.0008,-0.0002,0.0017,0.0042,0.0086,3.0,2.0,2.0,0.0,0.1632,0.0002,0.0097,0,14
5.96,2.8647,1.9176,1.9725,-0.0005,0.0016,0.0001,0.0031,0.0009,0.0078,3.0,2.0,2.0,0.0,0.1608,-0.0001,0.0085,0,11
5.98,2.8666,1.9188,1.9725,-0.0012,0.0005,0.0004,0.0216,0.01,0.0146,3.0,2.0,2.0,0.0,0.1585,-0.0004,0.0279,0,2
6.0,2.8686,1.9201,1.9724,-0.0003,0.0001,0.0002,0.0,0.0043,0.0211,3.0,2.0,2.0,0.0,0.1562,-0.0002,0.0216,0,14
6.02,2.8705,1.9213,1.9725,-0.0001,0.0017,0.0003,0.0024,0.0042,0.0191,3.0,2.0,2.0,0.0,0.154,-0.0003,0.0198,0,13
6.04,2.8725,1.9226,1.9726,-0.0004,0.0005,0.0002,0.0005,0.0018,0.0117,3.0,2.0,2.0,0.0,0.1517,-0.0002,0.0118,0,11
6.06,2.8744,1.9238,1.9727,-0.0007,0.0006,-0.0003,0.001,0.0067,0.0184,3.0,2.0,2.0,0.0,0.1494,0.0003,0.0196,0,13
6.08,2.8763,1.925,1.9722,0.0005,0.0005,0.0001,0.0028,0.0035,0.0317,3.0,2.0,2.0,0.0,0.1474,-0.0001,0.0321,0,13
6.1,2.8781,1.9261,1.9718,-0.0009,-0.0004,0.0006,0.0049,0.0042,0.0298,3.0,2.0,2.0,0.0,0.1453,-0.0006,0.0304,0,12
6.12,2.8799,1.9273,1.972,-0.0009,-0.0004,-0.0001,-0.0086,-0.0049,0.0107,3.0,2.0,2.0,0.0,0.1431,0.0001,0.0145,0,5
6.14,2.8816,1.9285,1.9723,-0.0009,-0.0001,0.0006,0.0062,-0.0005,0.0115,3.0,2.0,2.0,0.0,0.1411,-0.0006,0.013,0,10
6.16,2.8832,1.9297,1.9725,-0.0004,-0.0017,0.0001,0.0056,0.0024,0.0125,3.0,2.0,2.0,0.0,0.1391,-0.0001,0.0139,0,10
6.18,2.8847,1.9309,1.9723,0.0005,-0.0007,0.0009,0.0125,0.001,0.0269,3.0,2.0,2.0,0.0,0.1372,-0.0009,0.0296,0,12
6.2,2.8862,1.932,1.9716,-0.0001,-0.0006,0.0,-0.0016,-0.0052,0.025,3.0,2.0,2.0,0.0,0.1356,-0.0,0.0255,0,5
6.22,2.8875,1.9331,1.9712,0.0002,0.0004,0.0005,0.0101,-0.0,0.0203,3.0,2.0,2.0,0.0,0.134,-0.0005,0.0226,0,11
6.24,2.8888,1.9342,1.9712,0.0006,-0.0013,0.0003,0.0216,0.0084,0.0152,3.0,2.0,2.0,0.0,0.1324,-0.0003,0.0277,0,3
6.26,2.8901,1.9352,1.9708,0.0004,-0.001,0.0009,0.0169,0.0027,0.0228,3.0,2.0,2.0,0.0,0.1309,-0.0009,0.0285,0,9
6.28,2.8913,1.9361,1.9708,-0.0001,0.0008,0.0,0.0087,0.0086,0.0191,3.0,2.0,2.0,0.0,0.1295,-0.0,0.0227,0,15
6.3,2.8924,1.9369,1.971,0.0006,0.0006,0.0003,0.0237,0.0097,0.0106,3.0,2.0,2.0,0.0,0.1281,-0.0003,0.0277,0,3
6.32,2.8935,1.9377,1.9714,0.0003,-0.0009,0.0,0.0179,0.0094,0.011,3.0,2.0,2.0,0.0,0.1266,-0.0,0.023,0,9
6.34,2.8945,1.9385,1.9714,0.0001,0.0011,0.0002,0.0193,0.0092,0.0184,3.0,2.0,2.0,0.0,0.1254,-0.0002,0.0282,0,9
6.36,2.8956,1.9392,1.9716,0.0001,0.0007,0.0,0.0184,0.0109,0.0132,3.0,2.0,2.0,0.0,0.1241,-0.0,0.0251,0,9
6.38,2.8966,1.9399,1.972,-0.0002,-0.0,0.0006,0.0172,0.0077,0.0109,3.0,2.0,2.0,0.0,0.1228,-0.0006,0.0218,0,10
6.4,2.8976,1.9406,1.9719,-0.0012,0.0002,-0.0003,0.002,0.0012,0.0127,3.0,2.0,2.0,0.0,0.1216,0.0003,0.0129,0,7
6.42,2.8986,1.9413,1.9717,-0.0003,0.0009,0.0001,0.0077,-0.0014,0.0158,3.0,2.0,2.0,0.0,0.1205,-0.0001,0.0176,0,6
6.44,2.8995,1.942,1.9715,0.0003,-0.0008,-0.0003,0.0064,0.0013,0.015,3.0,2.0,2.0,0.0,0.1195,0.0003,0.0163,0,6
6.46,2.9004,1.9427,1.9712,0.0009,0.0,0.0006,0.023,0.0082,0.0222,3.0,2.0,2.0,0.0,0.1185,-0.0006,0.033,0,9
6.48,2.9013,1.9433,1.9711,0.0002,-0.0002,-0.0,0.0233,0.0129,0.017,3.0,2.0,2.0,0.0,0.1175,0.0,0.0316,0,3
6.5,2.9022,1.9439,1.9706,0.0008,0.0008,0.0003,0.0157,0.0084,0.0209,3.0,2.0,2.0,0.0,0.1165,-0.0003,0.0275,0,11
6.52,2.9031,1.9445,1.9702,0.0002,0.0017,0.0001,0.0199,0.0134,0.0246,3.0,2.0,2.0,0.0,0.1156,-0.0001,0.0344,0,9
6.54,2.904,1.945,1.9704,0.0005,0.0006,-0.0002,0.0147,0.0142,0.0159,3.0,2.0,2.0,0.0,0.1145,0.0002,0.0259,0,14
6.56,2.9049,1.9455,1.9706,-0.0001,0.0018,-0.0004,0.0177,0.0142,0.0148,3.0,2.0,2.0,0.0,0.1134,0.0004,0.0271,0,9
6.58,2.906,1.9461,1.9702,-0.0007,0.0015,-0.0004,0.0003,0.0019,0.0171,3.0,2.0,2.0,0.0,0.1124,0.0004,0.0172,0,7
6.6,2.9071,1.9466,1.9695,-0.0006,0.0023,0.0001,0.01,0.009,0.025,3.0,2.0,2.0,0.0,0.1115,-0.0001,0.0284,0,11
6.62,2.9082,1.9471,1.9692,-0.0002,0.0007,-0.0004,0.0066,0.0105,0.0197,3.0,2.0,2.0,0.0,0.1103,0.0004,0.0233,0,11
6.64,2.9094,1.9477,1.9691,-0.0002,0.0014,0.0002,-0.0019,0.0001,0.0157,3.0,2.0,2.0,0.0,0.1091,-0.0002,0.0158,0,6
6.66,2.9106,1.9483,1.9691,-0.0007,0.0012,-0.0002,0.0078,0.0125,0.0174,3.0,2.0,2.0,0.0,0.1078,0.0002,0.0229,0,9
6.68,2.9119,1.9488,1.9694,0.0003,0.0004,-0.0,-0.0029,0.0021,0.0111,3.0,2.0,2.0,0.0,0.1064,0.0,0.0117,0,5
6.7,2.9131,1.9494,1.9699,-0.0006,0.001,-0.0003,0.0041,0.0094,0.0083,3.0,2.0,2.0,0.0,0.105,0.0003,0.0132,0,11
6.72,2.9143,1.9499,1.9705,-0.0001,0.0001,-0.0003,0.0054,0.0118,0.0067,3.0,2.0,2.0,0.0,0.1035,0.0003,0.0146,0,14
6.74,2.9156,1.9505,1.9707,-0.0001,0.0,-0.001,0.0027,0.0089,0.0111,3.0,2.0,2.0,0.0,0.1021,0.001,0.0145,0,11
6.76,2.9168,1.9511,1.9707,-0.001,0.0007,-0.0011,-0.0054,0.0001,0.0134,3.0,2.0,2.0,0.0,0.1009,0.0011,0.0144,0,6
6.78,2.9179,1.9517,1.971,-0.0008,0.0002,-0.0011,0.0065,0.0108,0.0148,3.0,2.0,2.0,0.0,0.0995,0.0011,0.0195,0,14
6.8,2.9191,1.9523,1.9715,0.0001,-0.0007,-0.0011,0.0073,0.0088,0.0085,3.0,2.0,2.0,0.0,0.0982,0.0011,0.0143,0,9
6.82,2.9202,1.9529,1.9717,-0.0006,-0.0002,-0.0002,0.0063,0.0052,0.0116,3.0,2.0,2.0,0.0,0.0969,0.0002,0.0142,0,11
6.84,2.9212,1.9534,1.9714,-0.0008,0.0004,-0.0011,-0.0038,0.0016,0.0177,3.0,2.0,2.0,0.0,0.0959,0.0011,0.0182,0,6
6.86,2.9222,1.954,1.9709,-0.0001,0.0004,-0.0001,0.0114,0.007,0.0262,3.0,2.0,2.0,0.0,0.095,0.0001,0.0294,0,9
6.88,2.9232,1.9546,1.9706,-0.0002,-0.0012,-0.0005,0.0072,0.0078,0.0185,3.0,2.0,2.0,0.0,0.094,0.0005,0.0213,0,11
6.9,2.9241,1.9551,1.9701,-0.0005,0.0009,-0.0005,0.0004,-0.0008,0.0208,3.0,2.0,2.0,0.0,0.0931,0.0005,0.0208,0,6
6.92,2.9249,1.9557,1.9698,-0.0006,0.0006,-0.0006,0.0121,0.0089,0.0227,3.0,2.0,2.0,0.0,0.0923,0.0006,0.0272,0,9
6.94,2.9258,1.9562,1.9701,0.0,-0.0008,-0.0005,0.0011,-0.0007,0.0097,3.0,2.0,2.0,0.0,0.0912,0.0005,0.0098,0,6
6.96,2.9266,1.9568,1.9705,-0.0008,0.0003,-0.0002,0.0023,-0.0014,0.0073,3.0,2.0,2.0,0.0,0.0902,0.0002,0.0078,0,6
6.98,2.9273,1.9573,1.9709,-0.0008,-0.0001,-0.0001,0.0139,0.0072,0.0102,3.0,2.0,2.0,0.0,0.0891,0.0001,0.0186,0,9
7.0,2.9281,1.9579,1.9714,-0.0004,-0.0006,-0.0,0.0025,-0.0025,0.0066,3.0,2.0,2.0,0.0,0.0881,0.0,0.0075,0,6
7.02,2.9288,1.9586,1.9717,-0.0008,0.0007,-0.0001,0.0031,-0.0027,0.0073,3.0,2.0,2.0,0.0,0.0871,0.0001,0.0084,0,6
7.04,2.9295,1.9592,1.9723,-0.0005,0.0001,0.0,0.0035,-0.0034,0.0035,3.0,2.0,2.0,0.0,0.086,-0.0,0.006,0,6
7.06,2.9302,1.9598,1.9731,-0.0002,-0.0003,0.0001,0.0038,-0.0035,0.0004,3.0,2.0,2.0,0.0,0.0849,-0.0001,0.0052,0,6
7.08,2.9309,1.9604,1.9739,0.0,-0.0001,0.0001,0.0041,-0.0033,-0.0008,3.0,2.0,2.0,0.0,0.0838,-0.0001,0.0054,0,6
7.1,2.9315,1.961,1.9748,0.0001,0.0001,0.0001,0.0044,-0.0031,-0.0018,3.0,2.0,2.0,0.0,0.0827,-0.0001,0.0057,0,6
7.12,2.9322,1.9616,1.9757,0.0001,0.0001,0.0001,0.0046,-0.0027,-0.0026,3.0,2.0,2.0,0.0,0.0817,-0.0001,0.0059,0,6
7.14,2.9328,1.9621,1.9766,0.0002,0.0,0.0001,0.0048,-0.0023,-0.0029,3.0,2.0,2.0,0.0,0.0806,-0.0001,0.0061,0,6
7.16,2.9334,1.9626,1.9775,0.0002,0.0001,0.0001,0.0111,0.0057,-0.0041,3.0,2.0,2.0,0.0,0.0796,-0.0001,0.0132,0,14
7.18,2.934,1.9631,1.9781,0.0005,-0.0,0.0,0.011,0.0058,0.0004,3.0,2.0,2.0,0.0,0.0787,-0.0,0.0124,0,14
7.2,2.9346,1.9636,1.9788,-0.0001,0.0004,0.0001,0.011,0.0058,-0.0008,3.0,2.0,2.0,0.0,0.0778,-0.0001,0.0125,0,14
7.22,2.9352,1.9641,1.9797,-0.0003,0.0006,0.0001,0.0124,0.0066,-0.0036,3.0,2.0,2.0,0.0,0.0768,-0.0001,0.0145,0,13
7.24,2.9358,1.9646,1.9803,-0.0001,0.0004,-0.0001,0.0115,0.0068,0.0005,3.0,2.0,2.0,0.0,0.0759,0.0001,0.0134,0,13
7.26,2.9365,1.9651,1.981,-0.0002,0.0009,0.0,0.0112,0.006,-0.0002,3.0,2.0,2.0,0.0,0.075,-0.0,0.0127,0,13
7.28,2.9371,1.9656,1.9818,-0.0005,0.0009,-0.0001,0.0115,0.0069,-0.003,3.0,2.0,2.0,0.0,0.074,0.0001,0.0138,0,12
7.3,2.9378,1.9661,1.9825,-0.0003,0.0007,-0.0,0.0065,0.0048,-0.0023,3.0,2.0,2.0,0.0,0.073,0.0,0.0084,0,15
7.32,2.9385,1.9666,1.9826,-0.0005,0.0013,0.0001,0.0077,0.005,0.0094,3.0,2.0,2.0,0.0,0.0721,-0.0001,0.0131,0,14
7.34,2.9393,1.9671,1.983,-0.0003,0.0004,0.0,0.008,0.0055,0.0058,3.0,2.0,2.0,0.0,0.0712,-0.0,0.0113,0,13
7.36,2.94,1.9676,1.9837,-0.0002,0.0003,0.0001,0.0052,0.0043,-0.0028,3.0,2.0,2.0,0.0,0.0701,-0.0001,0.0073,0,15
7.38,2.9407,1.9681,1.9839,-0.0008,0.001,-0.0003,0.005,0.0045,0.0075,3.0,2.0,2.0,0.0,0.0692,0.0003,0.0101,0,15
7.4,2.9415,1.9686,1.9842,-0.0006,0.0005,-0.0,0.0084,0.0038,0.0062,3.0,2.0,2.0,0.0,0.0683,0.0,0.0111,0,12
7.42,2.9422,1.9692,1.9842,-0.0005,-0.0003,0.0002,0.0065,0.0033,0.0134,3.0,2.0,2.0,0.0,0.0674,-0.0002,0.0153,0,13
7.44,2.943,1.9697,1.9843,-0.0005,0.001,-0.0,0.0058,0.0034,0.0112,3.0,2.0,2.0,0.0,0.0664,0.0,0.0131,0,13
7.46,2.9438,1.9703,1.9848,-0.0004,0.001,0.0001,0.0054,0.0024,0.0006,3.0,2.0,2.0,0.0,0.0654,-0.0001,0.0059,0,13
7.48,2.9446,1.9709,1.9854,-0.0003,0.0004,-0.0001,0.0055,0.003,0.0013,3.0,2.0,2.0,0.0,0.0643,0.0001,0.0064,0,12
7.5,2.9453,1.9714,1.9859,0.0001,0.0002,0.0,0.0048,0.0026,0.0004,3.0,2.0,2.0,0.0,0.0633,-0.0,0.0054,0,13
7.52,2.9461,1.972,1.9866,-0.0001,0.0005,-0.0001,0.0038,0.0031,-0.0025,3.0,2.0,2.0,0.0,0.0622,0.0001,0.0055,0,14
7.54,2.9469,1.9725,1.9873,-0.0001,0.0005,0.0001,-0.0033,-0.0052,-0.0098,3.0,2.0,2.0,0.0,0.0611,-0.0001,0.0116,0,13
7.56,2.9477,1.973,1.9876,-0.0004,0.0004,0.0,-0.0046,-0.0044,-0.0038,3.0,2.0,2.0,0.0,0.0602,-0.0,0.0074,0,15
7.58,2.9484,1.9735,1.9879,0.0004,0.0001,0.0002,-0.0018,-0.0039,-0.0019,3.0,2.0,2.0,0.0,0.0593,-0.0002,0.0047,0,12
7.6,2.9491,1.9739,1.9878,0.001,-0.001,-0.0003,-0.0021,-0.0019,0.0069,3.0,2.0,2.0,0.0,0.0585,0.0003,0.0074,0,12
7.62,2.9498,1.9743,1.9878,0.0011,-0.0005,0.0001,-0.0002,-0.0018,0.0045,3.0,2.0,2.0,0.0,0.0578,-0.0001,0.0049,0,12
7.64,2.9504,1.9746,1.9879,0.0005,-0.0003,-0.0002,-0.0009,0.0001,0.0003,3.0,2.0,2.0,0.0,0.057,0.0002,0.001,0,13
7.66,2.951,1.9749,1.9878,0.0004,-0.0001,0.0004,-0.0015,-0.0012,0.0044,3.0,2.0,2.0,0.0,0.0564,-0.0004,0.0048,0,15
7.68,2.9515,1.9751,1.9879,-0.0002,-0.0003,-0.0,0.0009,0.0016,0.0027,3.0,2.0,2.0,0.0,0.0558,0.0,0.0033,0,13
7.7,2.952,1.9754,1.9879,0.0004,-0.0008,-0.0003,0.0027,0.002,0.0038,3.0,2.0,2.0,0.0,0.0553,0.0003,0.0051,0,12
7.72,2.9525,1.9756,1.9879,0.0001,-0.0005,-0.0002,0.0013,0.0005,0.0022,3.0,2.0,2.0,0.0,0.0547,0.0002,0.0026,0,14
7.74,2.953,1.9759,1.9878,-0.0005,0.0004,-0.0008,0.004,0.0029,0.0067,3.0,2.0,2.0,0.0,0.0543,0.0008,0.0083,0,12
7.76,2.9534,1.9761,1.9875,0.0001,-0.0003,-0.001,0.0018,0.0009,0.0095,3.0,2.0,2.0,0.0,0.0538,0.001,0.0097,0,14
7.78,2.9538,1.9763,1.987,-0.0004,0.0003,-0.0015,0.0023,0.0013,0.0129,3.0,2.0,2.0,0.0,0.0535,0.0015,0.0131,0,14
7.8,2.9542,1.9766,1.987,-0.0002,0.0001,-0.001,0.0017,-0.0004,0.0023,3.0,2.0,2.0,0.0,0.053,0.001,0.0029,0,15
7.82,2.9546,1.9768,1.9869,0.0002,-0.0003,-0.0015,0.0043,0.0024,0.0063,3.0,2.0,2.0,0.0,0.0527,0.0015,0.008,0,13
7.84,2.9549,1.977,1.9866,0.0008,-0.0005,-0.0016,0.0035,0.0017,0.011,3.0,2.0,2.0,0.0,0.0524,0.0016,0.0117,0,14
7.86,2.9553,1.9771,1.9866,-0.0001,0.0003,-0.0013,0.0026,0.001,0.0015,3.0,2.0,2.0,0.0,0.052,0.0013,0.0031,0,15
7.88,2.9556,1.9773,1.9869,-0.0003,0.0003,-0.0013,0.0027,0.0016,-0.0017,3.0,2.0,2.0,0.0,0.0516,0.0013,0.0036,0,15
7.9,2.9559,1.9775,1.9871,0.0002,-0.0001,-0.001,0.0045,0.0021,-0.0023,3.0,2.0,2.0,0.0,0.0512,0.001,0.0055,0,14
7.92,2.9562,1.9776,1.9873,0.0001,-0.0003,-0.0011,0.0029,0.0018,-0.0013,3.0,2.0,2.0,0.0,0.0508,0.0011,0.0036,0,15
7.94,2.9565,1.9778,1.9875,-0.0003,0.0005,-0.0009,0.0043,0.002,-0.0006,3.0,2.0,2.0,0.0,0.0504,0.0009,0.0048,0,14
7.96,2.9568,1.9779,1.9878,-0.0003,0.0002,-0.0008,0.0039,0.002,-0.0028,3.0,2.0,2.0,0.0,0.05,0.0008,0.0052,0,14
7.98,2.9571,1.9781,1.9882,-0.0002,0.0003,-0.0006,0.0038,0.0017,-0.0055,3.0,2.0,2.0,0.0,0.0495,0.0006,0.0069,0,14
8.0,2.9575,1.9782,1.9887,-0.0003,0.0004,-0.0005,0.0048,0.0022,-0.0066,3.0,2.0,2.0,0.0,0.0491,0.0005,0.0084,0,13
8.02,2.9578,1.9784,1.9891,-0.0003,0.0003,-0.0005,0.003,0.0012,-0.0057,3.0,2.0,2.0,0.0,0.0486,0.0005,0.0065,0,14
8.04,2.9582,1.9786,1.9893,-0.0005,0.0007,-0.0007,0.0039,0.0017,-0.0004,3.0,2.0,2.0,0.0,0.0482,0.0007,0.0042,0,13
8.06,2.9585,1.9789,1.9896,-0.0003,0.0004,-0.0004,0.0023,0.0002,-0.0032,3.0,2.0,2.0,0.0,0.0477,0.0004,0.004,0,14
8.08,2.9589,1.9791,1.9896,-0.0004,0.0004,-0.0011,0.004,0.0022,0.005,3.0,2.0,2.0,0.0,0.0473,0.0011,0.0068,0,12
8.1,2.9593,1.9793,1.9893,0.0006,-0.0005,-0.001,0.0034,0.0007,0.0077,3.0,2.0,2.0,0.0,0.0469,0.001,0.0084,0,13
8.12,2.9596,1.9795,1.9895,0.0001,-0.0001,-0.0009,0.0051,0.002,0.0012,3.0,2.0,2.0,0.0,0.0465,0.0009,0.0056,0,12
8.14,2.9599,1.9797,1.9893,0.0003,-0.0002,-0.0014,0.0024,0.0015,0.0064,3.0,2.0,2.0,0.0,0.0462,0.0014,0.007,0,14
8.16,2.9603,1.9798,1.9889,-0.0001,0.0007,-0.001,0.0032,0.001,0.0092,3.0,2.0,2.0,0.0,0.0459,0.001,0.0098,0,14
8.18,2.9606,1.98,1.9891,-0.0003,0.0003,-0.0009,0.0039,0.0019,0.0001,3.0,2.0,2.0,0.0,0.0455,0.0009,0.0043,0,13
8.2,2.9609,1.9802,1.9894,-0.0002,0.0002,-0.0009,0.0011,0.0005,-0.0029,3.0,2.0,2.0,0.0,0.0451,0.0009,0.0031,0,15
8.22,2.9613,1.9804,1.9891,-0.0007,0.001,-0.0012,0.0039,0.002,0.0093,3.0,2.0,2.0,0.0,0.0448,0.0012,0.0103,0,12
8.24,2.9616,1.9806,1.9887,0.0003,-0.0005,-0.0013,0.0036,0.0013,0.0126,3.0,2.0,2.0,0.0,0.0444,0.0013,0.0131,0,12
8.26,2.962,1.9808,1.9889,0.0002,-0.0004,-0.0009,0.0024,0.0003,-0.0004,3.0,2.0,2.0,0.0,0.044,0.0009,0.0025,0,14
8.28,2.9623,1.9809,1.9889,-0.0001,0.0001,-0.0014,0.0038,0.0021,0.0046,3.0,2.0,2.0,0.0,0.0437,0.0014,0.0063,0,13
8.3,2.9626,1.9811,1.9887,0.0006,-0.0005,-0.0011,0.0036,0.0012,0.0067,3.0,2.0,2.0,0.0,0.0435,0.0011,0.0077,0,14
8.32,2.9628,1.9812,1.9889,0.0001,-0.0003,-0.0009,0.0068,0.003,-0.0008,3.0,2.0,2.0,0.0,0.0431,0.0009,0.0075,0,12
8.34,2.963,1.9813,1.9889,0.0003,-0.0003,-0.001,0.0049,0.0026,0.0018,3.0,2.0,2.0,0.0,0.0428,0.001,0.0059,0,13
8.36,2.9633,1.9815,1.989,-0.0001,0.0007,-0.0007,0.0039,0.002,0.0025,3.0,2.0,2.0,0.0,0.0426,0.0007,0.005,0,14
8.38,2.9635,1.9816,1.9892,-0.0004,0.0007,-0.0007,0.0059,0.0034,-0.002,3.0,2.0,2.0,0.0,0.0423,0.0007,0.0071,0,12
8.4,2.9638,1.9817,1.9891,0.0,0.0,-0.0011,0.0047,0.0034,0.0065,3.0,2.0,2.0,0.0,0.042,0.0011,0.0087,0,12
8.42,2.9641,1.9818,1.9892,-0.0004,0.0008,-0.0005,0.0013,0.0004,0.001,3.0,2.0,2.0,0.0,0.0416,0.0005,0.0017,0,15
8.44,2.9645,1.982,1.9894,-0.0009,0.0013,-0.0008,0.0024,0.0019,-0.0012,3.0,2.0,2.0,0.0,0.0412,0.0008,0.0033,0,13
8.46,2.9648,1.9822,1.9894,-0.0002,0.0004,-0.0007,0.0007,0.0003,0.0023,3.0,2.0,2.0,0.0,0.0408,0.0007,0.0024,0,14
8.48,2.9652,1.9824,1.9893,-0.0007,0.0007,-0.0009,-0.0007,-0.0004,0.004,3.0,2.0,2.0,0.0,0.0404,0.0009,0.0041,0,15
8.5,2.9656,1.9826,1.9894,-0.0008,0.0009,-0.0006,-0.0011,-0.0013,0.0005,3.0,2.0,2.0,0.0,0.04,0.0006,0.0018,0,15
8.52,2.9661,1.9829,1.9897,-0.0006,0.0006,-0.0006,-0.0012,-0.0015,-0.0028,3.0,2.0,2.0,0.0,0.0394,0.0006,0.0034,0,14
8.54,2.9665,1.9831,1.9901,-0.0004,0.0004,-0.0003,-0.0017,-0.0022,-0.0053,3.0,2.0,2.0,0.0,0.0388,0.0003,0.006,0,14
8.56,2.967,1.9834,1.9905,-0.0005,0.0005,-0.0003,-0.0026,-0.0026,-0.0059,3.0,2.0,2.0,0.0,0.0381,0.0003,0.007,0,15
8.58,2.9675,1.9838,1.9909,-0.0005,0.0005,-0.0001,-0.0029,-0.003,-0.0056,3.0,2.0,2.0,0.0,0.0375,0.0001,0.0069,0,15
8.6,2.968,1.9841,1.9913,-0.0004,0.0003,0.0,-0.0019,-0.0035,-0.0069,3.0,2.0,2.0,0.0,0.0368,-0.0,0.0079,0,12
8.62,2.9685,1.9844,1.9917,-0.0004,0.0001,0.0002,-0.003,-0.0037,-0.0063,3.0,2.0,2.0,0.0,0.0361,-0.0002,0.0079,0,14
8.64,2.9689,1.9848,1.9921,-0.0003,0.0004,0.0002,-0.0025,-0.0041,-0.006,3.0,2.0,2.0,0.0,0.0355,-0.0002,0.0076,0,12
8.66,2.9694,1.9851,1.9925,-0.0003,0.0002,0.0004,-0.003,-0.0043,-0.0068,3.0,2.0,2.0,0.0,0.0348,-0.0004,0.0086,0,13
8.68,2.9699,1.9855,1.993,-0.0002,0.0002,0.0004,-0.0028,-0.0045,-0.008,3.0,2.0,2.0,0.0,0.0341,-0.0004,0.0096,0,12
8.7,2.9704,1.9858,1.9935,-0.0002,0.0001,0.0005,-0.0036,-0.0041,-0.0074,3.0,2.0,2.0,0.0,0.0334,-0.0005,0.0092,0,15
8.72,2.9709,1.9862,1.9939,-0.0001,0.0002,0.0006,-0.0026,-0.0048,-0.0079,3.0,2.0,2.0,0.0,0.0328,-0.0006,0.0096,0,12
8.74,2.9714,1.9865,1.9943,-0.0002,-0.0001,0.0007,-0.0037,-0.0042,-0.0061,3.0,2.0,2.0,0.0,0.0322,-0.0007,0.0083,0,15
8.76,2.9718,1.9869,1.9947,0.0,0.0002,0.0008,-0.0029,-0.0046,-0.0062,3.0,2.0,2.0,0.0,0.0315,-0.0008,0.0082,0,13
8.78,2.9723,1.9872,1.9951,-0.0,-0.0001,0.0009,-0.0031,-0.0042,-0.0068,3.0,2.0,2.0,0.0,0.0309,-0.0009,0.0085,0,14
8.8,2.9727,1.9875,1.9955,0.0,-0.0,0.0009,-0.0028,-0.0041,-0.0076,3.0,2.0,2.0,0.0,0.0304,-0.0009,0.0091,0,14
8.82,2.9731,1.9878,1.996,0.0,-0.0,0.0009,-0.002,-0.0042,-0.0088,3.0,2.0,2.0,0.0,0.0298,-0.0009,0.01,0,12
8.84,2.9735,1.9881,1.9964,-0.0,-0.0001,0.0009,-0.0021,-0.0039,-0.0073,3.0,2.0,2.0,0.0,0.0292,-0.0009,0.0085,0,13
8.86,2.9739,1.9884,1.9968,0.0001,0.0,0.0009,-0.0025,-0.0034,-0.0073,3.0,2.0,2.0,0.0,0.0287,-0.0009,0.0085,0,15
8.88,2.9743,1.9887,1.9972,0.0001,0.0001,0.001,-0.0023,-0.0032,-0.008,3.0,2.0,2.0,0.0,0.0282,-0.001,0.0089,0,15
8.9,2.9747,1.9889,1.9977,0.0,-0.0001,0.0009,-0.0009,-0.0033,-0.0094,3.0,2.0,2.0,0.0,0.0278,-0.0009,0.01,0,12
8.92,2.975,1.9892,1.998,-0.0,-0.0002,0.001,-0.0012,-0.003,-0.006,3.0,2.0,2.0,0.0,0.0273,-0.001,0.0068,0,13
8.94,2.9753,1.9894,1.9984,0.0001,0.0001,0.0009,-0.0017,-0.0027,-0.0065,3.0,2.0,2.0,0.0,0.0269,-0.0009,0.0073,0,15
8.96,2.9757,1.9897,1.9988,0.0001,0.0002,0.001,-0.0007,-0.0026,-0.0087,3.0,2.0,2.0,0.0,0.0265,-0.001,0.0092,0,13
8.98,2.976,1.9899,1.9992,0.0,-0.0002,0.0009,-0.0011,-0.0023,-0.0067,3.0,2.0,2.0,0.0,0.0261,-0.0009,0.0072,0,14
9.0,2.9763,1.9901,1.9995,0.0,0.0,0.0009,-0.0013,-0.0022,-0.0069,3.0,2.0,2.0,0.0,0.0257,-0.0009,0.0074,0,15
9.02,2.9766,1.9903,2.0,0.0001,0.0001,0.0009,-0.0007,-0.0021,-0.0088,3.0,2.0,2.0,0.0,0.0253,-0.0009,0.0091,0,14
9.04,2.9769,1.9905,2.0004,0.0,-0.0001,0.0009,-0.0011,-0.0019,-0.0079,3.0,2.0,2.0,0.0,0.025,-0.0009,0.0082,0,15
9.06,2.9772,1.9907,2.0008,0.0,0.0,0.0009,-0.0005,-0.0018,-0.0085,3.0,2.0,2.0,0.0,0.0247,-0.0009,0.0087,0,14
9.08,2.9774,1.9909,2.0012,0.0,-0.0,0.0009,-0.0004,-0.0017,-0.0085,3.0,2.0,2.0,0.0,0.0244,-0.0009,0.0087,0,14
9.1,2.9777,1.991,2.0016,-0.0,0.0,0.0009,0.0001,-0.0017,-0.0091,3.0,2.0,2.0,0.0,0.0241,-0.0009,0.0092,0,13
9.12,2.978,1.9912,2.002,-0.0,0.0,0.0008,0.0001,-0.0016,-0.0088,3.0,2.0,2.0,0.0,0.0238,-0.0008,0.0089,0,13
9.14,2.9782,1.9914,2.0024,-0.0,0.0001,0.0008,0.0004,-0.0016,-0.0097,3.0,2.0,2.0,0.0,0.0235,-0.0008,0.0098,0,12
9.16,2.9785,1.9915,2.0028,-0.0,0.0001,0.0008,-0.0009,-0.0016,-0.0077,3.0,2.0,2.0,0.0,0.0233,-0.0008,0.0079,0,15
9.18,2.9788,1.9917,2.0031,-0.0,0.0003,0.0008,0.0005,-0.0015,-0.0087,3.0,2.0,2.0,0.0,0.023,-0.0008,0.0089,0,12
9.2,2.979,1.9919,2.0033,-0.0,-0.0001,0.0007,-0.0009,-0.0015,-0.0047,3.0,2.0,2.0,0.0,0.0227,-0.0007,0.0051,0,15
9.22,2.9793,1.992,2.0036,-0.0001,0.0003,0.0007,0.0004,-0.0015,-0.0064,3.0,2.0,2.0,0.0,0.0225,-0.0007,0.0066,0,12
9.24,2.9795,1.9922,2.0038,-0.0001,0.0001,0.0007,-0.0011,-0.0015,-0.0048,3.0,2.0,2.0,0.0,0.0222,-0.0007,0.0052,0,15
9.26,2.9798,1.9923,2.004,-0.0001,0.0004,0.0007,-0.0007,-0.0015,-0.0051,3.0,2.0,2.0,0.0,0.022,-0.0007,0.0054,0,14
9.28,2.9801,1.9925,2.0043,-0.0001,0.0001,0.0007,-0.0009,-0.0015,-0.0071,3.0,2.0,2.0,0.0,0.0217,-0.0007,0.0074,0,14
9.3,2.9803,1.9926,2.0046,-0.0001,0.0001,0.0007,-0.0013,-0.0015,-0.0078,3.0,2.0,2.0,0.0,0.0215,-0.0007,0.008,0,15
9.32,2.9806,1.9928,2.005,-0.0001,0.0001,0.0006,-0.0006,-0.0015,-0.0095,3.0,2.0,2.0,0.0,0.0213,-0.0006,0.0096,0,13
9.34,2.9808,1.9929,2.0053,-0.0001,-0.0,0.0006,-0.001,-0.0015,-0.0079,3.0,2.0,2.0,0.0,0.0211,-0.0006,0.0082,0,14
9.36,2.9811,1.9931,2.0057,-0.0001,0.0001,0.0006,-0.0006,-0.0016,-0.0091,3.0,2.0,2.0,0.0,0.0209,-0.0006,0.0092,0,13
9.38,2.9814,1.9932,2.0061,-0.0001,0.0001,0.0006,-0.0012,-0.0015,-0.008,3.0,2.0,2.0,0.0,0.0207,-0.0006,0.0083,0,15
9.4,2.9816,1.9934,2.0064,-0.0001,0.0001,0.0006,-0.0008,-0.0016,-0.009,3.0,2.0,2.0,0.0,0.0206,-0.0006,0.0092,0,14
9.42,2.9818,1.9935,2.0068,-0.0001,-0.0,0.0006,-0.0002,-0.0017,-0.0105,3.0,2.0,2.0,0.0,0.0204,-0.0006,0.0107,0,12
9.44,2.9821,1.9937,2.0071,-0.0001,-0.0,0.0005,-0.0006,-0.0017,-0.0083,3.0,2.0,2.0,0.0,0.0203,-0.0005,0.0085,0,13
9.46,2.9823,1.9938,2.0074,-0.0,0.0001,0.0005,-0.0011,-0.0016,-0.0076,3.0,2.0,2.0,0.0,0.0201,-0.0005,0.0078,0,15
9.48,2.9826,1.994,2.0078,-0.0,0.0002,0.0005,-0.0007,-0.0016,-0.0096,3.0,2.0,2.0,0.0,0.02,-0.0005,0.0097,0,14
9.5,2.9828,1.9941,2.0081,-0.0001,-0.0,0.0005,-0.0004,-0.0017,-0.0098,3.0,2.0,2.0,0.0,0.0199,-0.0005,0.01,0,13
9.52,2.983,1.9942,2.0084,-0.0001,-0.0,0.0005,-0.0001,-0.0018,-0.0101,3.0,2.0,2.0,0.0,0.0198,-0.0005,0.0102,0,12
9.54,2.9832,1.9944,2.0087,-0.0001,0.0001,0.0005,-0.0008,-0.0017,-0.0081,3.0,2.0,2.0,0.0,0.0197,-0.0005,0.0083,0,14
9.56,2.9835,1.9945,2.0091,-0.0,0.0002,0.0005,-0.0002,-0.0018,-0.0105,3.0,2.0,2.0,0.0,0.0197,-0.0005,0.0106,0,12
9.58,2.9837,1.9946,2.0093,-0.0001,-0.0,0.0005,-0.0005,-0.0017,-0.0085,3.0,2.0,2.0,0.0,0.0196,-0.0005,0.0087,0,13
9.6,2.9839,1.9948,2.0096,-0.0,0.0001,0.0004,-0.0005,-0.0017,-0.0089,3.0,2.0,2.0,0.0,0.0195,-0.0004,0.0091,0,13
9.62,2.9841,1.9949,2.0099,-0.0,0.0001,0.0004,-0.0003,-0.0018,-0.0108,3.0,2.0,2.0,0.0,0.0194,-0.0004,0.011,0,12
9.64,2.9843,1.995,2.0102,-0.0001,0.0,0.0004,-0.0008,-0.0016,-0.0082,3.0,2.0,2.0,0.0,0.0194,-0.0004,0.0084,0,14
9.66,2.9845,1.9952,2.0105,-0.0,0.0001,0.0004,-0.0008,-0.0017,-0.0088,3.0,2.0,2.0,0.0,0.0193,-0.0004,0.009,0,14
9.68,2.9847,1.9953,2.0109,-0.0,0.0001,0.0004,-0.0005,-0.0017,-0.0105,3.0,2.0,2.0,0.0,0.0193,-0.0004,0.0106,0,13
9.7,2.9849,1.9954,2.0112,-0.0001,0.0,0.0004,-0.001,-0.0016,-0.008,3.0,2.0,2.0,0.0,0.0193,-0.0004,0.0082,0,15
9.72,2.9851,1.9955,2.0115,-0.0,0.0001,0.0004,-0.001,-0.0016,-0.0086,3.0,2.0,2.0,0.0,0.0193,-0.0004,0.0088,0,15
9.74,2.9853,1.9957,2.0119,-0.0,0.0001,0.0003,-0.0009,-0.0016,-0.0093,3.0,2.0,2.0,0.0,0.0194,-0.0003,0.0095,0,15
9.76,2.9855,1.9958,2.0122,-0.0001,0.0,0.0003,-0.0004,-0.0018,-0.0111,3.0,2.0,2.0,0.0,0.0194,-0.0003,0.0112,0,13
9.78,2.9857,1.9959,2.0125,-0.0001,-0.0,0.0003,-0.0002,-0.0018,-0.0105,3.0,2.0,2.0,0.0,0.0194,-0.0003,0.0107,0,12
9.8,2.9859,1.996,2.0127,-0.0,0.0001,0.0003,-0.0005,-0.0017,-0.0088,3.0,2.0,2.0,0.0,0.0194,-0.0003,0.009,0,13
9.82,2.9861,1.9961,2.013,-0.0,0.0002,0.0003,-0.0007,-0.0016,-0.009,3.0,2.0,2.0,0.0,0.0194,-0.0003,0.0092,0,14
9.84,2.9863,1.9963,2.0133,-0.0,0.0001,0.0003,-0.0003,-0.0019,-0.0119,3.0,2.0,2.0,0.0,0.0195,-0.0003,0.012,0,12
9.86,2.9865,1.9964,2.0136,-0.0001,-0.0,0.0003,-0.001,-0.0015,-0.0071,3.0,2.0,2.0,0.0,0.0195,-0.0003,0.0073,0,15
9.88,2.9867,1.9965,2.0138,0.0,0.0002,0.0003,-0.0005,-0.0018,-0.0101,3.0,2.0,2.0,0.0,0.0195,-0.0003,0.0102,0,13
9.9,2.9868,1.9966,2.0141,-0.0,0.0001,0.0003,-0.0006,-0.0017,-0.0099,3.0,2.0,2.0,0.0,0.0196,-0.0003,0.0101,0,13
9.92,2.987,1.9967,2.0143,-0.0,0.0001,0.0003,-0.0007,-0.0017,-0.0094,3.0,2.0,2.0,0.0,0.0196,-0.0003,0.0096,0,13
9.94,2.9872,1.9968,2.0146,-0.0,0.0001,0.0003,-0.0011,-0.0016,-0.0089,3.0,2.0,2.0,0.0,0.0197,-0.0003,0.0091,0,14
9.96,2.9874,1.9969,2.0149,-0.0,0.0001,0.0003,-0.0011,-0.0016,-0.0096,3.0,2.0,2.0,0.0,0.0197,-0.0003,0.0098,0,14
9.98,2.9876,1.997,2.0152,-0.0001,0.0,0.0002,-0.0009,-0.0017,-0.0108,3.0,2.0,2.0,0.0,0.0198,-0.0002,0.0109,0,13
10.0,2.9878,1.9971,2.0154,-0.0001,0.0,0.0002,-0.0011,-0.0016,-0.009,3.0,2.0,2.0,0.0,0.0199,-0.0002,0.0092,0,14
10.02,2.988,1.9972,2.0157,-0.0,0.0001,0.0002,-0.0009,-0.0018,-0.0106,3.0,2.0,2.0,0.0,0.02,-0.0002,0.0108,0,13
10.04,2.9881,1.9973,2.016,-0.0001,0.0,0.0002,-0.0012,-0.0015,-0.0082,3.0,2.0,2.0,0.0,0.0201,-0.0002,0.0084,0,15
10.06,2.9883,1.9974,2.0163,-0.0,0.0001,0.0002,-0.001,-0.0017,-0.0101,3.0,2.0,2.0,0.0,0.0202,-0.0002,0.0102,0,14
10.08,2.9885,1.9975,2.0166,-0.0001,0.0,0.0002,-0.0011,-0.0015,-0.0088,3.0,2.0,2.0,0.0,0.0203,-0.0002,0.009,0,15
10.1,2.9887,1.9976,2.0169,-0.0,0.0001,0.0002,-0.0007,-0.002,-0.0126,3.0,2.0,2.0,0.0,0.0205,-0.0002,0.0128,0,12
10.12,2.9888,1.9977,2.017,-0.0001,0.0,0.0002,-0.0007,-0.002,-0.01,3.0,2.0,2.0,0.0,0.0205,-0.0002,0.0103,0,12
10.14,2.989,1.9978,2.0172,-0.0,0.0001,0.0002,-0.0009,-0.0018,-0.0087,3.0,2.0,2.0,0.0,0.0205,-0.0002,0.0089,0,13
10.16,2.9892,1.9979,2.0175,0.0,0.0001,0.0002,-0.001,-0.0016,-0.0093,3.0,2.0,2.0,0.0,0.0206,-0.0002,0.0095,0,14
10.18,2.9893,1.998,2.0177,-0.0,0.0001,0.0002,-0.0009,-0.0018,-0.0111,3.0,2.0,2.0,0.0,0.0208,-0.0002,0.0113,0,13
10.2,2.9895,1.9981,2.0179,-0.0001,0.0,0.0002,-0.001,-0.0016,-0.009,3.0,2.0,2.0,0.0,0.0209,-0.0002,0.0092,0,14
10.22,2.9897,1.9982,2.0182,-0.0,0.0001,0.0002,-0.0011,-0.0015,-0.0084,3.0,2.0,2.0,0.0,0.021,-0.0002,0.0086,0,15
10.24,2.9898,1.9983,2.0185,-0.0,0.0001,0.0002,-0.0011,-0.0016,-0.0096,3.0,2.0,2.0,0.0,0.0212,-0.0002,0.0098,0,15
10.26,2.99,1.9984,2.0188,-0.0001,0.0,0.0001,-0.0009,-0.0019,-0.012,3.0,2.0,2.0,0.0,0.0214,-0.0001,0.0122,0,13
10.28,2.9901,1.9985,2.019,-0.0001,0.0,0.0002,-0.0008,-0.0021,-0.0113,3.0,2.0,2.0,0.0,0.0215,-0.0002,0.0115,0,12
10.3,2.9903,1.9986,2.0191,-0.0001,0.0001,0.0001,-0.0011,-0.0016,-0.0069,3.0,2.0,2.0,0.0,0.0215,-0.0001,0.0072,0,15
10.32,2.9904,1.9987,2.0194,0.0001,0.0001,0.0001,-0.001,-0.0018,-0.0103,3.0,2.0,2.0,0.0,0.0217,-0.0001,0.0105,0,14
10.34,2.9906,1.9988,2.0197,-0.0001,0.0,0.0001,-0.0012,-0.0016,-0.0088,3.0,2.0,2.0,0.0,0.0218,-0.0001,0.0091,0,15
10.36,2.9908,1.9989,2.0199,-0.0,0.0001,0.0001,-0.0011,-0.0018,-0.0101,3.0,2.0,2.0,0.0,0.022,-0.0001,0.0103,0,14
10.38,2.9909,1.999,2.0202,-0.0001,0.0,0.0001,-0.0012,-0.0016,-0.0087,3.0,2.0,2.0,0.0,0.0222,-0.0001,0.0089,0,15
10.4,2.9911,1.9991,2.0204,-0.0,0.0001,0.0001,-0.001,-0.002,-0.0118,3.0,2.0,2.0,0.0,0.0223,-0.0001,0.012,0,13
