time_s,x,y,z,roll_rad,pitch_rad,yaw_rad,vx_cmd,vy_cmd,vz_cmd,target_x,target_y,target_z,target_yaw,dist_m,yaw_err_rad,speed_ms,wind_enabled,rl_profile
0.02,0.0,0.0,0.9759,0.0,-0.0,0.0,2.5,2.5,1.5,3.0,2.0,2.0,0.0,3.7482,0.0,3.8406,0,0
0.04,0.0,0.0,0.9445,-0.0074,0.0073,-0.0001,1.1963,0.8036,0.8,3.0,2.0,2.0,0.0,3.7568,0.0001,1.6483,0,3
0.06,0.0007,0.0006,0.9386,-0.0139,0.0133,-0.0001,1.483,0.9893,0.7319,3.0,2.0,2.0,0.0,3.7576,0.0001,1.9271,0,1
0.08,0.0025,0.0023,0.951,-0.0196,0.0202,-0.0002,1.4538,0.9682,0.4299,3.0,2.0,2.0,0.0,3.7518,0.0002,1.7989,0,1
0.1,0.0057,0.0055,0.9726,-0.0262,0.0268,-0.0004,1.5581,1.0294,0.2907,3.0,2.0,2.0,0.0,3.7416,0.0004,1.8899,0,0
0.12,0.0107,0.0103,0.9948,-0.0327,0.0329,-0.0005,1.1031,0.72,0.191,3.0,2.0,2.0,0.0,3.729,0.0005,1.331,0,3
0.14,0.0177,0.0171,1.0158,-0.0392,0.0389,-0.0007,1.4563,0.9353,0.2725,3.0,2.0,2.0,0.0,3.7141,0.0007,1.752,0,0
0.16,0.0271,0.0262,1.0362,-0.0439,0.0485,-0.001,0.6,0.3905,0.1285,3.0,2.0,2.0,0.0,3.6964,0.001,0.7273,0,6
0.18,0.0393,0.0378,1.0546,-0.041,0.0546,0.0003,0.7,0.2609,0.1785,3.0,2.0,2.0,0.0,3.6756,-0.0003,0.7681,0,5
0.2,0.0546,0.0516,1.07,-0.0411,0.0566,-0.0007,0.6621,0.4528,0.2409,3.0,2.0,2.0,0.0,3.6519,0.0007,0.8376,0,4
0.22,0.073,0.0677,1.0846,-0.0428,0.0588,-0.0003,1.1686,0.6319,0.3408,3.0,2.0,2.0,0.0,3.6248,0.0003,1.3715,0,0
0.24,0.0949,0.0861,1.1005,-0.0437,0.0662,-0.0019,0.8086,0.585,0.255,3.0,2.0,2.0,0.0,3.5933,0.0019,1.0301,0,2
0.26,0.1205,0.1069,1.1178,-0.0448,0.0708,-0.0003,0.7566,0.3129,0.2001,3.0,2.0,2.0,0.0,3.5572,0.0003,0.8428,0,3
0.28,0.1499,0.1299,1.1344,-0.0425,0.0727,-0.0008,0.6758,0.4106,0.2271,3.0,2.0,2.0,0.0,3.5171,0.0008,0.8227,0,2
0.3,0.183,0.1549,1.1502,-0.0428,0.0718,-0.0006,0.1466,-0.0317,0.1898,3.0,2.0,2.0,0.0,3.473,0.0006,0.242,0,4
0.32,0.2195,0.1819,1.1655,-0.0381,0.0617,0.0001,-0.0491,-0.1756,0.146,3.0,2.0,2.0,0.0,3.4253,-0.0001,0.2336,0,6
0.34,0.2587,0.2104,1.1793,-0.0293,0.0486,0.0009,-0.0766,-0.2204,0.1892,3.0,2.0,2.0,0.0,3.375,-0.0009,0.3004,0,5
0.36,0.2998,0.2398,1.1932,-0.021,0.0403,0.0006,0.4438,0.2562,0.2824,3.0,2.0,2.0,0.0,3.3227,-0.0006,0.5851,0,0
0.38,0.3422,0.2696,1.2088,-0.0196,0.04,-0.0007,-0.3409,-0.1631,0.0977,3.0,2.0,2.0,0.0,3.2686,0.0007,0.3903,0,7
0.4,0.3857,0.2996,1.2241,-0.0096,0.029,0.0013,-0.2162,-0.37,0.1193,3.0,2.0,2.0,0.0,3.2137,-0.0013,0.4448,0,6
0.42,0.4295,0.3291,1.2368,-0.0039,0.0213,-0.0001,-0.3567,-0.1068,0.1984,3.0,2.0,2.0,0.0,3.1594,0.0001,0.4219,0,4
0.44,0.4732,0.3578,1.2482,0.0008,0.0167,0.0006,-0.269,-0.2544,0.2141,3.0,2.0,2.0,0.0,3.1059,-0.0006,0.4276,0,4
0.46,0.5164,0.3855,1.2601,0.0066,0.0086,0.0,0.263,0.2311,0.2717,3.0,2.0,2.0,0.0,3.0532,-0.0,0.4431,0,0
0.48,0.5586,0.4118,1.2739,0.0029,0.0038,-0.0005,0.2238,0.1957,0.1702,3.0,2.0,2.0,0.0,3.0016,0.0005,0.3426,0,3
0.5,0.5996,0.437,1.2881,0.0002,-0.0002,0.001,0.356,0.1409,0.2142,3.0,2.0,2.0,0.0,2.9516,-0.001,0.4387,0,0
0.52,0.6391,0.461,1.3017,0.0029,0.0003,0.0,0.2714,0.3042,0.2163,3.0,2.0,2.0,0.0,2.9034,-0.0,0.4615,0,0
0.54,0.6773,0.4841,1.3153,0.0018,0.0012,0.0001,-0.2126,-0.0911,0.138,3.0,2.0,2.0,0.0,2.8569,-0.0001,0.2694,0,4
0.56,0.714,0.5063,1.3283,0.0033,-0.0071,0.0004,-0.1728,-0.0908,0.1427,3.0,2.0,2.0,0.0,2.8122,-0.0004,0.2418,0,4
0.58,0.749,0.5273,1.3401,0.0073,-0.0134,0.0001,-0.1899,-0.0417,0.1408,3.0,2.0,2.0,0.0,2.7697,-0.0001,0.24,0,5
0.6,0.782,0.5472,1.3512,0.0111,-0.0178,0.0001,-0.1001,-0.0149,0.1618,3.0,2.0,2.0,0.0,2.7297,-0.0001,0.1908,0,4
0.62,0.8125,0.5656,1.362,0.0117,-0.0223,-0.0001,-0.1147,-0.0206,0.1248,3.0,2.0,2.0,0.0,2.6925,0.0001,0.1708,0,6
0.64,0.8405,0.5826,1.3725,0.012,-0.0256,0.0002,0.036,0.0394,0.1624,3.0,2.0,2.0,0.0,2.6582,-0.0002,0.1709,0,4
0.66,0.8659,0.5981,1.3823,0.0147,-0.0259,0.0002,0.0928,0.0968,0.168,3.0,2.0,2.0,0.0,2.627,-0.0002,0.2149,0,4
0.68,0.8887,0.612,1.3922,0.0149,-0.0248,0.0003,0.5462,0.3753,0.2071,3.0,2.0,2.0,0.0,2.5988,-0.0003,0.6943,0,1
0.7,0.9091,0.6245,1.403,0.0129,-0.0151,-0.0002,0.4663,0.3516,0.146,3.0,2.0,2.0,0.0,2.573,0.0002,0.602,0,3
0.72,0.9277,0.6356,1.4141,0.008,-0.0105,0.001,0.1392,0.0305,0.0794,3.0,2.0,2.0,0.0,2.5494,-0.001,0.1632,0,7
0.74,0.9448,0.6458,1.4235,0.0074,-0.0115,0.0012,0.5271,0.3566,0.1566,3.0,2.0,2.0,0.0,2.5279,-0.0012,0.6554,1,3
0.76,0.9603,0.6546,1.4325,0.0042,-0.0034,-0.0,0.6926,0.5835,0.2125,3.0,2.0,2.0,0.0,2.5085,0.0,0.9302,1,0
0.78,0.9744,0.6623,1.4431,-0.0061,0.0068,-0.0004,0.7496,0.5606,0.1765,3.0,2.0,2.0,0.0,2.4905,0.0004,0.9526,1,0
0.8,0.9879,0.6693,1.455,-0.0137,0.0124,-0.0004,0.399,0.326,0.0903,3.0,2.0,2.0,0.0,2.4731,0.0004,0.5231,1,4
0.82,1.0009,0.6761,1.4658,-0.0148,0.0149,0.0008,0.6702,0.4117,0.1322,3.0,2.0,2.0,0.0,2.4565,-0.0008,0.7976,1,2
0.84,1.014,0.6828,1.4753,-0.0156,0.0242,-0.0008,0.2771,0.362,0.11,3.0,2.0,2.0,0.0,2.4401,0.0008,0.4689,1,5
0.86,1.0275,0.6898,1.4837,-0.0257,0.0188,0.0012,0.6008,0.3313,0.1411,3.0,2.0,2.0,0.0,2.4236,-0.0012,0.7004,1,3
0.88,1.041,0.6975,1.491,-0.0287,0.0231,0.0003,0.1598,0.1908,0.1014,3.0,2.0,2.0,0.0,2.4069,-0.0003,0.2687,1,7
0.9,1.0549,0.7059,1.4979,-0.0299,0.0194,0.0012,0.2643,0.1369,0.1217,3.0,2.0,2.0,0.0,2.3896,-0.0012,0.3215,1,6
0.92,1.0689,0.7151,1.5048,-0.031,0.022,0.0005,0.5126,0.3761,0.1517,3.0,2.0,2.0,0.0,2.3718,-0.0005,0.6536,1,3
0.94,1.0829,0.725,1.5123,-0.0301,0.0281,0.0001,0.3299,0.2359,0.1367,3.0,2.0,2.0,0.0,2.3534,-0.0001,0.428,1,4
0.96,1.0971,0.7354,1.5202,-0.031,0.0281,0.0005,0.3531,0.1665,0.1249,3.0,2.0,2.0,0.0,2.3346,-0.0005,0.4099,1,4
0.98,1.1114,0.7464,1.5284,-0.0316,0.029,0.0,0.3079,0.2026,0.1173,3.0,2.0,2.0,0.0,2.3154,-0.0,0.3868,1,4
1.0,1.1258,0.7577,1.5365,-0.0297,0.0315,-0.0001,0.5517,0.338,0.1334,3.0,2.0,2.0,0.0,2.2958,0.0001,0.6606,1,2
1.02,1.1406,0.7693,1.5447,-0.0282,0.0367,-0.0005,0.5848,0.3732,0.1413,3.0,2.0,2.0,0.0,2.2758,0.0005,0.708,1,1
1.04,1.156,0.7813,1.553,-0.0306,0.0401,-0.0002,0.5821,0.3272,0.1354,3.0,2.0,2.0,0.0,2.2551,0.0002,0.6813,1,1
1.06,1.1725,0.7938,1.5615,-0.0339,0.0433,-0.0007,0.4828,0.3076,0.1137,3.0,2.0,2.0,0.0,2.2331,0.0007,0.5837,1,2
1.08,1.1901,0.807,1.5697,-0.0333,0.0459,-0.0002,0.1646,0.0315,0.0832,3.0,2.0,2.0,0.0,2.21,0.0002,0.1871,1,5
1.1,1.2089,0.8208,1.5771,-0.0305,0.0423,0.0,0.0743,0.0009,0.0804,3.0,2.0,2.0,0.0,2.1858,-0.0,0.1095,1,6
1.12,1.2284,0.8349,1.5836,-0.0298,0.0375,-0.0001,0.0402,0.0015,0.0891,3.0,2.0,2.0,0.0,2.1609,0.0001,0.0978,1,6
1.14,1.2483,0.849,1.5897,-0.0261,0.0346,-0.0,0.43,0.2558,0.1482,3.0,2.0,2.0,0.0,2.1358,0.0,0.5218,1,1
1.16,1.2683,0.8628,1.5964,-0.0227,0.0391,-0.0008,0.3976,0.2865,0.1354,3.0,2.0,2.0,0.0,2.1107,0.0008,0.5084,1,1
1.18,1.2883,0.876,1.604,-0.0248,0.0409,-0.0004,0.3407,0.206,0.0923,3.0,2.0,2.0,0.0,2.0856,0.0004,0.4087,1,3
1.2,1.3083,0.8888,1.6111,-0.0277,0.0395,0.0002,0.3745,0.2253,0.1064,3.0,2.0,2.0,0.0,2.061,-0.0002,0.4498,1,2
1.22,1.3281,0.9009,1.6181,-0.0276,0.0403,-0.0007,-0.0182,0.0647,0.0676,3.0,2.0,2.0,0.0,2.0369,0.0007,0.0953,1,6
1.24,1.3474,0.9124,1.6241,-0.0319,0.0327,0.001,0.4757,0.2394,0.1384,3.0,2.0,2.0,0.0,2.0138,-0.001,0.5503,1,0
1.26,1.3656,0.923,1.6297,-0.0292,0.0399,-0.0002,0.0009,0.1079,0.0834,3.0,2.0,2.0,0.0,1.9921,0.0002,0.1364,1,6
1.28,1.3827,0.9326,1.6346,-0.0328,0.0333,0.0019,0.1137,-0.0062,0.09,3.0,2.0,2.0,0.0,1.9719,-0.0019,0.1452,1,6
1.3,1.3982,0.9413,1.6387,-0.0325,0.0314,0.0003,0.4139,0.3918,0.1521,3.0,2.0,2.0,0.0,1.9537,-0.0003,0.5899,1,1
1.32,1.4121,0.9488,1.6439,-0.0359,0.0361,-0.0002,0.426,0.3387,0.1181,3.0,2.0,2.0,0.0,1.9373,0.0002,0.5569,1,2
1.34,1.4245,0.9553,1.6507,-0.039,0.0401,-0.0003,0.5045,0.3819,0.1007,3.0,2.0,2.0,0.0,1.9224,0.0003,0.6407,1,1
1.36,1.4358,0.9609,1.6578,-0.0406,0.0454,-0.0005,0.4757,0.3607,0.0815,3.0,2.0,2.0,0.0,1.9088,0.0005,0.6025,1,2
1.38,1.4461,0.9658,1.6641,-0.0441,0.0509,-0.0001,0.5526,0.3944,0.1007,3.0,2.0,2.0,0.0,1.8966,0.0001,0.6864,1,1
1.4,1.4561,0.9701,1.67,-0.0464,0.0558,-0.0012,0.4737,0.4106,0.0926,3.0,2.0,2.0,0.0,1.885,0.0012,0.6337,1,2
1.42,1.4659,0.9741,1.676,-0.0504,0.06,-0.001,0.2703,0.2432,0.0655,3.0,2.0,2.0,0.0,1.8737,0.001,0.3694,1,5
1.44,1.4759,0.9779,1.6816,-0.0531,0.0591,-0.0009,0.4888,0.3802,0.0916,3.0,2.0,2.0,0.0,1.8625,0.0009,0.626,1,2
1.46,1.4862,0.9815,1.6871,-0.0543,0.0629,-0.0017,0.4568,0.4118,0.0895,3.0,2.0,2.0,0.0,1.8511,0.0017,0.6215,1,2
1.48,1.4972,0.9852,1.6928,-0.0574,0.0667,-0.0015,0.4605,0.3777,0.0843,3.0,2.0,2.0,0.0,1.8392,0.0015,0.6016,1,2
1.5,1.5091,0.9892,1.6983,-0.0611,0.0673,-0.0018,0.0981,0.1709,0.0427,3.0,2.0,2.0,0.0,1.8263,0.0018,0.2016,1,7
1.52,1.5223,0.9938,1.7027,-0.062,0.0615,-0.0002,0.4336,0.3126,0.0978,3.0,2.0,2.0,0.0,1.8123,0.0002,0.5434,1,2
1.54,1.537,0.9994,1.7067,-0.0599,0.0651,-0.0016,0.0025,0.1722,0.0622,3.0,2.0,2.0,0.0,1.7965,0.0016,0.1832,1,7
1.56,1.5534,1.0064,1.7103,-0.0609,0.058,0.0004,0.3637,0.2478,0.1053,3.0,2.0,2.0,0.0,1.7787,-0.0004,0.4525,1,2
1.58,1.5715,1.0151,1.7137,-0.0575,0.0598,-0.0007,-0.0522,0.1179,0.0772,3.0,2.0,2.0,0.0,1.7585,0.0007,0.1503,1,6
1.6,1.5916,1.0256,1.7173,-0.0568,0.0518,0.0009,0.0079,0.0093,0.0933,3.0,2.0,2.0,0.0,1.7358,-0.0009,0.0941,1,4
1.62,1.6132,1.0381,1.721,-0.0529,0.0456,0.0004,-0.1075,0.0308,0.0879,3.0,2.0,2.0,0.0,1.7107,-0.0004,0.1423,1,4
1.64,1.6361,1.0524,1.7253,-0.0472,0.041,0.0008,0.1749,0.139,0.0966,3.0,2.0,2.0,0.0,1.6833,-0.0008,0.2434,1,1
1.66,1.6602,1.0681,1.73,-0.0432,0.0407,0.0004,0.1262,0.1319,0.0921,3.0,2.0,2.0,0.0,1.6542,-0.0004,0.2045,1,0
1.68,1.6851,1.0852,1.7348,-0.041,0.038,0.0011,0.1162,0.0543,0.0883,3.0,2.0,2.0,0.0,1.6236,-0.0011,0.1557,1,0
1.7,1.7107,1.1032,1.7395,-0.0368,0.0351,0.0009,0.064,0.0477,0.0731,3.0,2.0,2.0,0.0,1.592,-0.0009,0.1082,1,2
1.72,1.7369,1.122,1.7442,-0.0337,0.031,0.001,-0.2711,-0.2123,0.0451,3.0,2.0,2.0,0.0,1.5594,-0.001,0.3473,1,6
1.74,1.7632,1.1414,1.7481,-0.0255,0.0213,0.0016,-0.2795,-0.257,0.0698,3.0,2.0,2.0,0.0,1.5266,-0.0016,0.386,1,4
1.76,1.7891,1.1607,1.7522,-0.0178,0.0145,0.0011,-0.08,-0.08,0.0082,3.0,2.0,2.0,0.0,1.494,-0.0011,0.1134,1,13
1.78,1.8143,1.1795,1.7555,-0.015,0.0101,0.0022,0.0488,-0.0242,0.0754,3.0,2.0,2.0,0.0,1.4625,-0.0022,0.093,1,3
1.8,1.8384,1.1977,1.7587,-0.0124,0.0088,0.0002,0.0074,0.0439,0.085,3.0,2.0,2.0,0.0,1.4322,-0.0002,0.096,1,2
1.82,1.8615,1.215,1.7626,-0.0106,0.0068,0.0011,-0.12,-0.12,0.0275,3.0,2.0,2.0,0.0,1.4031,-0.0011,0.1719,1,11
1.84,1.8833,1.2312,1.766,-0.0088,0.0031,0.0011,0.0685,0.019,0.0909,3.0,2.0,2.0,0.0,1.3758,-0.0011,0.1154,1,0
1.86,1.9037,1.2461,1.7699,-0.007,0.0023,-0.0002,-0.04,-0.04,-0.0064,3.0,2.0,2.0,0.0,1.3503,0.0002,0.0569,1,15
1.88,1.9226,1.2594,1.7729,-0.0077,-0.0009,0.0017,-0.091,-0.1682,0.0713,3.0,2.0,2.0,0.0,1.327,-0.0017,0.2041,1,4
1.9,1.9396,1.2711,1.7756,-0.005,-0.0023,-0.0008,-0.04,-0.0114,0.014,3.0,2.0,2.0,0.0,1.3062,0.0008,0.0439,1,15
1.92,1.9547,1.2806,1.7774,-0.0066,-0.0059,0.0019,0.0269,-0.0699,0.0572,3.0,2.0,2.0,0.0,1.2883,-0.0019,0.0943,1,12
1.94,1.9675,1.2878,1.7783,-0.0067,-0.0054,0.0001,0.002,0.1041,0.0634,3.0,2.0,2.0,0.0,1.2738,-0.0001,0.1219,1,11
1.96,1.978,1.2928,1.7796,-0.0109,-0.0004,0.0007,0.1427,0.1383,0.0775,3.0,2.0,2.0,0.0,1.2622,-0.0007,0.2133,1,9
1.98,1.9864,1.2955,1.7815,-0.012,0.0028,-0.0,0.3056,0.3089,0.1008,3.0,2.0,2.0,0.0,1.2536,0.0,0.4461,1,1
2.0,1.9929,1.2961,1.7847,-0.0161,0.0056,-0.0003,0.04,0.04,0.0032,3.0,2.0,2.0,0.0,1.2474,0.0003,0.0567,1,15
2.02,1.9979,1.295,1.7874,-0.0205,0.0046,0.0012,0.12,0.12,0.0358,3.0,2.0,2.0,0.0,1.2436,-0.0012,0.1734,1,11
2.04,2.0013,1.2925,1.7893,-0.0236,0.0058,-0.0004,0.1489,0.2676,0.0579,3.0,2.0,2.0,0.0,1.242,0.0004,0.3116,1,7
2.06,2.0032,1.2888,1.7914,-0.0291,0.0065,0.0,0.4154,0.3869,0.0825,3.0,2.0,2.0,0.0,1.2422,-0.0,0.5736,1,2
2.08,2.0039,1.2842,1.794,-0.0322,0.0159,-0.0007,0.12,0.12,0.0365,3.0,2.0,2.0,0.0,1.2438,0.0007,0.1736,1,11
2.1,2.0041,1.2791,1.7963,-0.0326,0.019,0.0002,0.361,0.3669,0.065,3.0,2.0,2.0,0.0,1.2462,-0.0002,0.5188,1,5
2.12,2.0042,1.2743,1.7987,-0.0376,0.0213,-0.0011,0.3801,0.3984,0.0663,3.0,2.0,2.0,0.0,1.2485,0.0011,0.5546,1,3
2.14,2.0047,1.2704,1.8017,-0.0423,0.0241,-0.0008,0.2913,0.3087,0.0447,3.0,2.0,2.0,0.0,1.2499,0.0008,0.4267,1,6
2.16,2.0061,1.2679,1.8045,-0.0446,0.0285,-0.0007,0.2175,0.237,0.039,3.0,2.0,2.0,0.0,1.2498,0.0007,0.3241,1,7
2.18,2.0087,1.2671,1.807,-0.0449,0.0301,-0.0009,0.2724,0.2843,0.0566,3.0,2.0,2.0,0.0,1.2478,0.0009,0.3977,1,5
2.2,2.0124,1.2682,1.8097,-0.0456,0.0305,-0.0013,0.04,0.04,0.0062,3.0,2.0,2.0,0.0,1.2438,0.0013,0.0569,1,15
2.22,2.0175,1.2711,1.8117,-0.0437,0.0298,-0.0002,0.2,0.1913,0.0526,3.0,2.0,2.0,0.0,1.2377,0.0002,0.2817,1,9
2.24,2.0238,1.2758,1.8137,-0.0431,0.03,-0.0017,0.1,0.1,0.0421,3.0,2.0,2.0,0.0,1.2297,0.0017,0.1476,1,12
2.26,2.0313,1.2821,1.816,-0.0421,0.0287,-0.0008,0.2402,0.117,0.0516,3.0,2.0,2.0,0.0,1.2197,0.0008,0.2721,1,8
2.28,2.04,1.2899,1.8186,-0.0382,0.0307,-0.0015,0.118,0.0776,0.0351,3.0,2.0,2.0,0.0,1.2078,0.0015,0.1455,1,10
2.3,2.0498,1.2991,1.8209,-0.0384,0.0288,-0.0004,0.0339,-0.0522,0.0398,3.0,2.0,2.0,0.0,1.1943,0.0004,0.0739,1,7
2.32,2.0605,1.3093,1.8229,-0.0352,0.0261,-0.0009,0.0456,-0.0184,0.0614,3.0,2.0,2.0,0.0,1.1795,0.0009,0.0787,1,4
2.34,2.0719,1.3205,1.8251,-0.0307,0.0241,-0.0005,0.0206,-0.0643,0.0265,3.0,2.0,2.0,0.0,1.1635,0.0005,0.0725,1,13
2.36,2.0837,1.3321,1.8269,-0.0285,0.0224,0.0002,0.0793,-0.0568,0.056,3.0,2.0,2.0,0.0,1.147,-0.0002,0.1124,1,8
2.38,2.0958,1.344,1.8285,-0.0255,0.0198,-0.0002,0.1595,0.0642,0.0708,3.0,2.0,2.0,0.0,1.1301,0.0002,0.1859,1,2
2.4,2.108,1.356,1.8304,-0.0245,0.0197,0.0002,0.0262,-0.0729,0.0414,3.0,2.0,2.0,0.0,1.1132,-0.0002,0.0878,1,10
2.42,2.1199,1.3678,1.8322,-0.0224,0.0189,0.0005,-0.0094,-0.08,0.0317,3.0,2.0,2.0,0.0,1.0966,-0.0005,0.0866,1,13
2.44,2.1314,1.3792,1.8336,-0.0205,0.0163,0.0006,-0.0401,-0.1038,0.0467,3.0,2.0,2.0,0.0,1.0805,-0.0006,0.1206,1,7
2.46,2.1421,1.39,1.8352,-0.0178,0.014,0.0001,0.1498,0.0628,0.0601,3.0,2.0,2.0,0.0,1.0655,-0.0001,0.1732,1,3
2.48,2.1519,1.3998,1.8374,-0.0161,0.0159,0.0001,0.2041,0.0791,0.0627,3.0,2.0,2.0,0.0,1.0516,-0.0001,0.2277,1,1
2.5,2.1607,1.4086,1.8402,-0.0156,0.0188,-0.0003,0.0078,-0.0421,0.024,3.0,2.0,2.0,0.0,1.0391,0.0003,0.0491,1,7
2.52,2.1685,1.4162,1.8429,-0.0168,0.0171,0.0003,0.06,-0.0181,0.0055,3.0,2.0,2.0,0.0,1.0281,-0.0003,0.0629,1,14
2.54,2.1753,1.4229,1.8445,-0.0163,0.0155,0.0005,0.2853,0.1477,0.0735,3.0,2.0,2.0,0.0,1.0185,-0.0005,0.3296,1,0
2.56,2.1812,1.4286,1.8462,-0.0156,0.021,-0.0005,0.1826,0.12,0.0503,3.0,2.0,2.0,0.0,1.0102,0.0005,0.2242,1,8
2.58,2.1866,1.4334,1.8482,-0.0186,0.0223,0.0004,0.2308,0.0996,0.0424,3.0,2.0,2.0,0.0,1.0029,-0.0004,0.2549,1,8
2.6,2.1915,1.4373,1.8503,-0.0209,0.0232,-0.0003,0.06,0.06,0.0155,3.0,2.0,2.0,0.0,0.9964,0.0003,0.0863,1,14
2.62,2.1959,1.4407,1.852,-0.0227,0.021,0.0004,0.08,0.08,0.0282,3.0,2.0,2.0,0.0,0.9906,-0.0004,0.1166,1,13
2.64,2.2,1.4436,1.8536,-0.0229,0.0206,-0.0005,0.08,0.08,0.0307,3.0,2.0,2.0,0.0,0.9854,0.0005,0.1172,1,13
2.66,2.2039,1.446,1.8556,-0.0233,0.0221,-0.0001,0.1469,0.0976,0.0355,3.0,2.0,2.0,0.0,0.9806,0.0001,0.1799,1,6
2.68,2.2077,1.4481,1.8578,-0.0227,0.0239,-0.0007,0.1,0.1,0.019,3.0,2.0,2.0,0.0,0.976,0.0007,0.1427,1,12
2.7,2.2116,1.4498,1.86,-0.024,0.0248,-0.0004,0.1129,0.0942,0.0257,3.0,2.0,2.0,0.0,0.9715,0.0004,0.1493,1,7
2.72,2.2157,1.4512,1.8615,-0.0253,0.0233,-0.0009,0.2364,0.2021,0.0477,3.0,2.0,2.0,0.0,0.9672,0.0009,0.3146,1,3
2.74,2.2203,1.4524,1.8633,-0.027,0.0259,-0.0012,0.1433,0.1663,0.0404,3.0,2.0,2.0,0.0,0.9626,0.0012,0.2232,1,5
2.76,2.2254,1.4533,1.8654,-0.0303,0.026,-0.0009,0.3014,0.2715,0.0511,3.0,2.0,2.0,0.0,0.9576,0.0009,0.4089,1,0
2.78,2.2313,1.4541,1.8677,-0.0322,0.028,-0.0012,0.1268,0.2019,0.0316,3.0,2.0,2.0,0.0,0.9521,0.0012,0.2405,1,4
2.8,2.238,1.4547,1.8697,-0.0356,0.0273,-0.0001,0.06,0.06,0.0138,3.0,2.0,2.0,0.0,0.9461,0.0001,0.086,1,14
2.82,2.2454,1.4551,1.8707,-0.036,0.0264,-0.0001,0.1903,0.2362,0.0552,3.0,2.0,2.0,0.0,0.9397,0.0001,0.3083,1,2
2.84,2.2537,1.4553,1.8718,-0.0388,0.0252,-0.0004,0.0284,0.1954,0.047,3.0,2.0,2.0,0.0,0.9328,0.0004,0.203,1,5
2.86,2.2626,1.4551,1.8733,-0.0422,0.0234,0.0001,0.0205,0.185,0.0393,3.0,2.0,2.0,0.0,0.9256,-0.0001,0.1903,1,5
2.88,2.2721,1.4545,1.8751,-0.0433,0.0228,-0.0002,0.1226,0.2315,0.0377,3.0,2.0,2.0,0.0,0.9182,0.0002,0.2647,1,3
2.9,2.282,1.4536,1.8769,-0.045,0.0215,-0.0,0.1496,0.3199,0.0468,3.0,2.0,2.0,0.0,0.9106,0.0,0.3562,1,0
2.92,2.2923,1.4525,1.8789,-0.049,0.0215,-0.0001,0.111,0.2713,0.0368,3.0,2.0,2.0,0.0,0.9029,0.0001,0.2954,1,2
2.94,2.303,1.4512,1.881,-0.0522,0.0222,-0.0001,-0.0579,0.1955,0.022,3.0,2.0,2.0,0.0,0.8951,0.0001,0.2051,1,6
2.96,2.314,1.4501,1.883,-0.0531,0.0191,-0.0,-0.0546,0.06,0.0094,3.0,2.0,2.0,0.0,0.887,0.0,0.0817,1,14
2.98,2.3251,1.4493,1.8846,-0.0522,0.0165,0.0001,-0.0801,0.1542,0.0236,3.0,2.0,2.0,0.0,0.8787,-0.0001,0.1754,1,7
3.0,2.3362,1.449,1.886,-0.0529,0.0151,0.0003,-0.04,0.04,0.017,3.0,2.0,2.0,0.0,0.8702,-0.0003,0.0591,1,15
3.02,2.3472,1.4493,1.8869,-0.0505,0.0105,0.0,-0.0824,0.1626,0.0367,3.0,2.0,2.0,0.0,0.8615,-0.0,0.1859,1,6
3.04,2.3577,1.4504,1.8879,-0.0508,0.0094,0.0006,-0.0132,0.1884,0.0398,3.0,2.0,2.0,0.0,0.8527,-0.0006,0.193,1,9
3.06,2.3678,1.4525,1.8891,-0.0522,0.0081,0.0002,-0.0535,0.06,0.0225,3.0,2.0,2.0,0.0,0.8437,-0.0002,0.0835,1,14
3.08,2.3773,1.4556,1.8905,-0.0508,0.0071,0.0006,-0.0451,0.0792,0.0292,3.0,2.0,2.0,0.0,0.8344,-0.0006,0.0957,1,6
3.1,2.386,1.4598,1.8917,-0.0479,0.0057,0.0004,0.0987,0.161,0.0413,3.0,2.0,2.0,0.0,0.8249,-0.0004,0.1933,1,2
3.12,2.3941,1.465,1.8928,-0.0478,0.0069,0.0007,0.0131,0.0509,0.0266,3.0,2.0,2.0,0.0,0.8154,-0.0007,0.0589,1,11
3.14,2.4015,1.4709,1.8937,-0.0456,0.0086,0.0007,0.0147,0.0292,0.0328,3.0,2.0,2.0,0.0,0.8058,-0.0007,0.0463,1,13
3.16,2.4084,1.4774,1.8946,-0.0442,0.0076,0.0005,0.0245,0.0175,0.0333,3.0,2.0,2.0,0.0,0.7964,-0.0005,0.0449,1,13
3.18,2.4145,1.4843,1.8958,-0.0424,0.0062,0.0007,0.1702,0.1094,0.0473,3.0,2.0,2.0,0.0,0.7872,-0.0007,0.2078,1,0
3.2,2.4201,1.4913,1.8974,-0.0401,0.0098,0.0001,0.032,-0.0029,0.0128,3.0,2.0,2.0,0.0,0.7782,-0.0001,0.0346,1,14
3.22,2.4253,1.4983,1.8987,-0.0399,0.0098,0.001,0.0577,-0.0225,0.0191,3.0,2.0,2.0,0.0,0.7696,-0.001,0.0648,1,14
3.24,2.43,1.5051,1.8996,-0.0392,0.0085,0.0006,0.0361,-0.012,0.0233,3.0,2.0,2.0,0.0,0.7616,-0.0006,0.0446,1,15
3.26,2.4342,1.5115,1.9004,-0.0369,0.01,0.0006,0.1716,0.0898,0.043,3.0,2.0,2.0,0.0,0.7541,-0.0006,0.1984,1,2
3.28,2.4379,1.5175,1.9013,-0.0349,0.0128,0.0003,0.1738,0.1021,0.0398,3.0,2.0,2.0,0.0,0.7473,-0.0003,0.2054,1,2
3.3,2.4414,1.5229,1.9027,-0.0358,0.0142,0.0003,0.04,0.0072,0.0144,3.0,2.0,2.0,0.0,0.741,-0.0003,0.0431,1,15
3.32,2.4447,1.5278,1.9037,-0.0385,0.0126,0.0007,0.04,0.0123,0.0188,3.0,2.0,2.0,0.0,0.7353,-0.0007,0.0459,1,15
3.34,2.4476,1.5321,1.9038,-0.037,0.0122,0.0004,0.2276,0.1517,0.0608,3.0,2.0,2.0,0.0,0.7303,-0.0004,0.2802,1,0
3.36,2.4503,1.536,1.9044,-0.0365,0.0166,-0.0003,0.1101,0.0665,0.0393,3.0,2.0,2.0,0.0,0.7257,0.0003,0.1345,1,5
3.38,2.4528,1.5395,1.9054,-0.0385,0.0168,0.0005,0.1475,0.0741,0.0277,3.0,2.0,2.0,0.0,0.7214,-0.0005,0.1674,1,10
3.4,2.4553,1.5426,1.9061,-0.0387,0.0167,0.0005,0.08,0.0792,0.0334,3.0,2.0,2.0,0.0,0.7175,-0.0005,0.1174,1,13
3.42,2.4577,1.5454,1.9068,-0.0383,0.0189,0.0002,0.1148,0.0855,0.0285,3.0,2.0,2.0,0.0,0.7137,-0.0002,0.1459,1,11
3.44,2.4603,1.5481,1.9076,-0.0386,0.0184,0.0003,0.1721,0.1321,0.0344,3.0,2.0,2.0,0.0,0.71,-0.0003,0.2197,1,3
3.46,2.4629,1.5509,1.9088,-0.0391,0.0201,-0.0002,0.144,0.1216,0.027,3.0,2.0,2.0,0.0,0.706,0.0002,0.1904,1,9
3.48,2.4659,1.5539,1.9103,-0.0401,0.0223,-0.0001,0.1082,0.0735,0.0215,3.0,2.0,2.0,0.0,0.7017,0.0001,0.1325,1,5
3.5,2.469,1.5571,1.9118,-0.0398,0.0219,-0.0004,0.1911,0.1512,0.0294,3.0,2.0,2.0,0.0,0.697,0.0004,0.2455,1,1
3.52,2.4726,1.5608,1.9134,-0.0396,0.0224,-0.0006,0.08,0.0624,0.0124,3.0,2.0,2.0,0.0,0.6918,0.0006,0.1022,1,13
3.54,2.4765,1.565,1.9148,-0.0402,0.0225,-0.0004,0.159,0.1088,0.0252,3.0,2.0,2.0,0.0,0.6859,0.0004,0.1943,1,2
3.56,2.4809,1.5699,1.9162,-0.0391,0.0233,-0.0009,0.0777,0.0463,0.0186,3.0,2.0,2.0,0.0,0.6794,0.0009,0.0923,1,10
3.58,2.4856,1.5753,1.9176,-0.0385,0.0233,-0.0005,0.0598,0.0069,0.0161,3.0,2.0,2.0,0.0,0.6721,0.0005,0.0624,1,13
3.6,2.4906,1.5813,1.9188,-0.0369,0.0229,-0.0007,0.0319,-0.0078,0.0161,3.0,2.0,2.0,0.0,0.6643,0.0007,0.0366,1,14
3.62,2.4959,1.5877,1.9197,-0.0351,0.0217,-0.0004,0.0468,-0.0306,0.0279,3.0,2.0,2.0,0.0,0.6562,0.0004,0.0624,1,4
3.64,2.5012,1.5943,1.9207,-0.0337,0.0204,-0.0003,0.1073,0.0458,0.0262,3.0,2.0,2.0,0.0,0.6478,0.0003,0.1196,1,3
3.66,2.5064,1.6008,1.9216,-0.0326,0.0209,-0.0001,0.1328,0.05,0.0321,3.0,2.0,2.0,0.0,0.6396,0.0001,0.1455,1,1
3.68,2.5112,1.6072,1.9226,-0.033,0.0216,-0.0003,0.0125,-0.0424,0.0173,3.0,2.0,2.0,0.0,0.6319,0.0003,0.0474,1,7
3.7,2.5155,1.6131,1.9233,-0.0324,0.0215,0.0002,0.0693,-0.0317,0.0289,3.0,2.0,2.0,0.0,0.6247,-0.0002,0.0815,1,4
3.72,2.5193,1.6186,1.9239,-0.0308,0.0208,-0.0001,0.0946,0.0154,0.031,3.0,2.0,2.0,0.0,0.6183,0.0001,0.1008,1,9
3.74,2.5225,1.6235,1.9243,-0.0299,0.0224,0.0005,0.1723,0.0739,0.039,3.0,2.0,2.0,0.0,0.6128,-0.0005,0.1915,1,1
3.76,2.525,1.6275,1.9247,-0.0301,0.0257,0.0001,0.0779,0.0144,0.0276,3.0,2.0,2.0,0.0,0.6083,-0.0001,0.0839,1,6
3.78,2.5267,1.6307,1.9252,-0.0317,0.0258,0.0005,0.06,0.0358,0.0302,3.0,2.0,2.0,0.0,0.6049,-0.0005,0.0761,1,14
3.8,2.5279,1.6331,1.9259,-0.0317,0.0258,0.0004,0.1315,0.0638,0.0249,3.0,2.0,2.0,0.0,0.6025,-0.0004,0.1483,1,5
3.82,2.5287,1.6347,1.927,-0.031,0.028,0.0002,0.1,0.1,0.0215,3.0,2.0,2.0,0.0,0.6008,-0.0002,0.143,1,12
3.84,2.529,1.6355,1.9281,-0.0334,0.0303,-0.0,0.1532,0.1101,0.0188,3.0,2.0,2.0,0.0,0.5999,0.0,0.1896,1,5
3.86,2.5289,1.6353,1.9291,-0.0345,0.0313,-0.0001,0.19,0.1527,0.0212,3.0,2.0,2.0,0.0,0.6,0.0001,0.2447,1,4
3.88,2.5284,1.6342,1.9302,-0.0367,0.0339,-0.0005,0.1959,0.1687,0.0193,3.0,2.0,2.0,0.0,0.6009,0.0005,0.2592,1,3
3.9,2.5273,1.6323,1.9308,-0.0396,0.0368,0.0001,0.2642,0.2215,0.0311,3.0,2.0,2.0,0.0,0.6029,-0.0001,0.3462,1,1
3.92,2.5259,1.6296,1.9316,-0.0431,0.0399,-0.0009,0.1936,0.2172,0.0224,3.0,2.0,2.0,0.0,0.6055,0.0009,0.2918,1,5
3.94,2.5243,1.6261,1.9326,-0.047,0.0429,-0.0006,0.2495,0.2339,0.0218,3.0,2.0,2.0,0.0,0.6088,0.0006,0.3427,1,2
3.96,2.5226,1.6216,1.9336,-0.0501,0.0451,-0.001,0.04,0.04,0.0134,3.0,2.0,2.0,0.0,0.6128,0.001,0.0581,1,15
3.98,2.521,1.6158,1.9345,-0.0522,0.0451,-0.0007,0.2141,0.2895,0.0191,3.0,2.0,2.0,0.0,0.6175,0.0007,0.3606,1,5
4.0,2.5196,1.6091,1.935,-0.0575,0.0452,-0.0008,0.15,0.15,0.0247,3.0,2.0,2.0,0.0,0.6227,0.0008,0.2136,1,10
4.02,2.5184,1.6023,1.9352,-0.0576,0.0478,-0.0005,0.2417,0.3124,0.0324,3.0,2.0,2.0,0.0,0.6279,0.0005,0.3963,1,2
4.04,2.5178,1.5962,1.9354,-0.0612,0.0485,-0.0006,0.2554,0.3405,0.0366,3.0,2.0,2.0,0.0,0.6323,0.0006,0.4272,1,1
4.06,2.5177,1.5913,1.9354,-0.0652,0.0497,-0.0002,0.04,0.04,0.0318,3.0,2.0,2.0,0.0,0.6355,0.0002,0.0649,1,15
4.08,2.5185,1.5877,1.9355,-0.0625,0.0517,-0.0004,0.1673,0.2754,0.0339,3.0,2.0,2.0,0.0,0.6372,0.0004,0.3241,1,4
4.1,2.52,1.5855,1.9357,-0.0658,0.0502,-0.0001,0.04,0.04,0.0294,3.0,2.0,2.0,0.0,0.6375,0.0001,0.0638,1,15
4.12,2.5224,1.5846,1.9359,-0.0636,0.0503,-0.0,0.1508,0.1812,0.0291,3.0,2.0,2.0,0.0,0.6363,0.0,0.2375,1,3
4.14,2.5254,1.5848,1.9364,-0.0634,0.0509,-0.0003,0.0627,0.1216,0.0218,3.0,2.0,2.0,0.0,0.6337,0.0003,0.1386,1,6
4.16,2.529,1.5861,1.9369,-0.065,0.0492,0.0,0.1188,0.152,0.0294,3.0,2.0,2.0,0.0,0.6302,-0.0,0.1951,1,8
4.18,2.533,1.5884,1.9375,-0.0645,0.0485,-0.0004,0.1269,0.1446,0.0247,3.0,2.0,2.0,0.0,0.6256,0.0004,0.194,1,2
4.2,2.5373,1.5913,1.9384,-0.0646,0.049,-0.0002,0.1358,0.136,0.023,3.0,2.0,2.0,0.0,0.6204,0.0002,0.1936,1,1
4.22,2.5419,1.5949,1.9395,-0.065,0.0496,-0.0003,0.0679,0.0751,0.0172,3.0,2.0,2.0,0.0,0.6146,0.0003,0.1027,1,9
4.24,2.5464,1.5989,1.9406,-0.0642,0.0495,-0.0005,0.0741,0.0733,0.017,3.0,2.0,2.0,0.0,0.6084,0.0005,0.1056,1,8
4.26,2.5509,1.6031,1.9412,-0.0631,0.048,-0.0008,0.0171,0.0181,0.0207,3.0,2.0,2.0,0.0,0.6022,0.0008,0.0324,1,15
4.28,2.5552,1.6074,1.9417,-0.0621,0.0481,-0.0008,0.0268,0.0113,0.0186,3.0,2.0,2.0,0.0,0.5962,0.0008,0.0345,1,6
4.3,2.5591,1.6115,1.9421,-0.0612,0.0472,-0.001,0.0292,0.0161,0.0243,3.0,2.0,2.0,0.0,0.5905,0.001,0.0412,1,15
4.32,2.5624,1.6155,1.9424,-0.0595,0.047,-0.0012,0.1419,0.1051,0.0296,3.0,2.0,2.0,0.0,0.5854,0.0012,0.1791,1,1
4.34,2.5652,1.6191,1.9431,-0.0594,0.0487,-0.0014,0.0757,0.0456,0.0177,3.0,2.0,2.0,0.0,0.5809,0.0014,0.0902,1,11
4.36,2.5675,1.6222,1.9439,-0.0598,0.0492,-0.0011,0.1845,0.1265,0.0217,3.0,2.0,2.0,0.0,0.577,0.0011,0.2248,1,0
4.38,2.5692,1.6249,1.9448,-0.0594,0.0504,-0.0013,0.1915,0.1423,0.0203,3.0,2.0,2.0,0.0,0.5739,0.0013,0.2395,1,0
4.4,2.5705,1.627,1.9454,-0.0603,0.0525,-0.0008,0.1,0.085,0.0256,3.0,2.0,2.0,0.0,0.5715,0.0008,0.1337,1,12
4.42,2.5712,1.6285,1.946,-0.0635,0.0534,-0.0014,0.124,0.0972,0.017,3.0,2.0,2.0,0.0,0.5699,0.0014,0.1585,1,5
4.44,2.5711,1.6288,1.9468,-0.0639,0.0538,-0.001,0.1,0.1,0.0213,3.0,2.0,2.0,0.0,0.5697,0.001,0.143,1,12
4.46,2.5703,1.6282,1.9475,-0.0645,0.0555,-0.0012,0.1,0.1,0.0222,3.0,2.0,2.0,0.0,0.5706,0.0012,0.1432,1,12
4.48,2.5693,1.6271,1.9485,-0.0648,0.055,-0.001,0.04,0.04,0.0108,3.0,2.0,2.0,0.0,0.572,0.001,0.0576,1,15
4.5,2.5686,1.6262,1.9496,-0.0645,0.0541,-0.001,0.15,0.15,0.0115,3.0,2.0,2.0,0.0,0.573,0.001,0.2124,1,10
4.52,2.5684,1.6257,1.9505,-0.0645,0.0544,-0.0011,0.2193,0.1994,0.0147,3.0,2.0,2.0,0.0,0.5734,0.0011,0.2968,1,1
4.54,2.5689,1.6257,1.9515,-0.0653,0.0564,-0.0013,0.12,0.12,0.0117,3.0,2.0,2.0,0.0,0.573,0.0013,0.1701,1,11
4.56,2.57,1.6265,1.9523,-0.0665,0.0569,-0.0012,0.151,0.1384,0.0152,3.0,2.0,2.0,0.0,0.5716,0.0012,0.2054,1,9
4.58,2.5719,1.628,1.9532,-0.0658,0.0563,-0.0012,0.1,0.1,0.0169,3.0,2.0,2.0,0.0,0.569,0.0012,0.1424,1,12
4.6,2.5747,1.6304,1.9541,-0.0659,0.0562,-0.0012,0.1192,0.1056,0.014,3.0,2.0,2.0,0.0,0.5653,0.0012,0.1598,1,8
4.62,2.5782,1.6336,1.955,-0.0652,0.055,-0.0009,0.0834,0.065,0.0144,3.0,2.0,2.0,0.0,0.5605,0.0009,0.1067,1,9
4.64,2.5826,1.6375,1.9558,-0.0641,0.0553,-0.001,0.0555,0.0476,0.0148,3.0,2.0,2.0,0.0,0.5546,0.001,0.0746,1,9
4.66,2.5877,1.6421,1.9566,-0.0629,0.0541,-0.0008,0.029,0.0198,0.0129,3.0,2.0,2.0,0.0,0.5477,0.0008,0.0374,1,10
4.68,2.5933,1.647,1.9574,-0.0616,0.0519,-0.0006,0.026,0.0208,0.0148,3.0,2.0,2.0,0.0,0.5402,0.0006,0.0364,1,8
4.7,2.5993,1.6519,1.9578,-0.0598,0.0506,0.0004,0.0047,-0.006,0.018,3.0,2.0,2.0,0.0,0.5325,-0.0004,0.0195,1,11
4.72,2.6053,1.6567,1.9581,-0.0589,0.0491,-0.0002,-0.0133,0.0108,0.0185,3.0,2.0,2.0,0.0,0.5248,0.0002,0.0252,1,11
4.74,2.6114,1.6612,1.9586,-0.0571,0.0472,0.0005,-0.0,0.0095,0.0161,3.0,2.0,2.0,0.0,0.5172,-0.0005,0.0187,1,10
4.76,2.6175,1.6652,1.9592,-0.0566,0.0447,0.0003,-0.0122,0.0212,0.0135,3.0,2.0,2.0,0.0,0.51,-0.0003,0.028,1,11
4.78,2.6233,1.6689,1.9599,-0.0556,0.0447,0.0007,-0.0014,0.0309,0.0142,3.0,2.0,2.0,0.0,0.5031,-0.0007,0.034,1,10
4.8,2.629,1.6723,1.9606,-0.0546,0.0425,0.0004,-0.009,0.0336,0.0118,3.0,2.0,2.0,0.0,0.4966,-0.0004,0.0367,1,11
4.82,2.6345,1.6757,1.961,-0.054,0.0417,0.0002,0.0573,0.0869,0.0175,3.0,2.0,2.0,0.0,0.4902,-0.0002,0.1056,1,1
4.84,2.64,1.6794,1.9613,-0.0532,0.04,0.0003,0.0032,0.0367,0.0212,3.0,2.0,2.0,0.0,0.4836,-0.0003,0.0425,1,9
4.86,2.6456,1.6836,1.9618,-0.0525,0.039,0.0002,-0.0031,0.0207,0.0169,3.0,2.0,2.0,0.0,0.4766,-0.0002,0.0269,1,9
4.88,2.6514,1.6886,1.9624,-0.0509,0.0374,0.0004,0.0451,0.0408,0.0119,3.0,2.0,2.0,0.0,0.4689,-0.0004,0.062,1,1
4.9,2.6575,1.6946,1.9631,-0.0473,0.0365,0.0003,-0.021,-0.0317,0.0139,3.0,2.0,2.0,0.0,0.4603,-0.0003,0.0404,1,9
4.92,2.6639,1.7016,1.9639,-0.0453,0.0359,0.0002,-0.0336,-0.0562,0.0102,3.0,2.0,2.0,0.0,0.4509,-0.0002,0.0663,1,11
4.94,2.6706,1.7094,1.9647,-0.0428,0.0339,0.0003,-0.0408,-0.088,0.0114,3.0,2.0,2.0,0.0,0.4407,-0.0003,0.0976,1,9
4.96,2.6774,1.7177,1.965,-0.0397,0.0312,0.0008,-0.0434,-0.1112,0.0181,3.0,2.0,2.0,0.0,0.4301,-0.0008,0.1207,1,9
4.98,2.6842,1.7263,1.9652,-0.0365,0.0294,0.0006,-0.0538,-0.116,0.0214,3.0,2.0,2.0,0.0,0.4193,-0.0006,0.1296,1,9
5.0,2.691,1.7351,1.9652,-0.0327,0.0282,0.0011,-0.0462,-0.1105,0.0202,3.0,2.0,2.0,0.0,0.4086,-0.0011,0.1214,1,11
5.02,2.6975,1.7437,1.9653,-0.03,0.0251,0.0008,0.0028,-0.0552,0.0173,3.0,2.0,2.0,0.0,0.398,-0.0008,0.0579,1,2
5.04,2.7038,1.752,1.9655,-0.0287,0.0242,0.0012,-0.0475,-0.1,0.0285,3.0,2.0,2.0,0.0,0.3878,-0.0012,0.1143,1,12
5.06,2.7098,1.7598,1.9659,-0.0274,0.0238,0.0007,-0.0634,-0.1137,0.0076,3.0,2.0,2.0,0.0,0.3782,-0.0007,0.1304,1,7
5.08,2.7152,1.7671,1.9662,-0.0257,0.0213,0.0015,-0.0434,-0.1301,0.0141,3.0,2.0,2.0,0.0,0.3695,-0.0015,0.1378,1,4
5.1,2.7201,1.7735,1.966,-0.0232,0.0189,0.0008,-0.0432,-0.0828,0.0155,3.0,2.0,2.0,0.0,0.3617,-0.0008,0.0947,1,7
5.12,2.7243,1.779,1.9659,-0.0213,0.0196,0.0011,0.0096,-0.0576,0.0276,3.0,2.0,2.0,0.0,0.355,-0.0011,0.0646,1,8
5.14,2.7278,1.7834,1.9662,-0.0204,0.0205,0.0004,0.0441,0.0121,0.0125,3.0,2.0,2.0,0.0,0.3495,-0.0004,0.0474,1,3
5.16,2.7307,1.7867,1.9667,-0.0223,0.0196,0.001,0.0245,-0.0039,0.0188,3.0,2.0,2.0,0.0,0.3451,-0.001,0.0312,1,14
5.18,2.7329,1.7888,1.9671,-0.0239,0.0202,0.0007,0.0685,0.0475,0.0115,3.0,2.0,2.0,0.0,0.3421,-0.0007,0.0842,1,3
5.2,2.7343,1.7899,1.9675,-0.0245,0.0207,0.0007,0.054,0.0458,0.009,3.0,2.0,2.0,0.0,0.3403,-0.0007,0.0713,1,5
5.22,2.7349,1.7897,1.968,-0.0262,0.023,0.0006,0.0519,0.0568,0.0064,3.0,2.0,2.0,0.0,0.3399,-0.0006,0.0772,1,7
5.24,2.7347,1.7884,1.9683,-0.0274,0.0235,0.0005,0.0974,0.1109,0.0103,3.0,2.0,2.0,0.0,0.3408,-0.0005,0.1479,1,5
5.26,2.7338,1.7859,1.9687,-0.031,0.0245,0.0002,0.1,0.1,0.0224,3.0,2.0,2.0,0.0,0.3431,-0.0002,0.1432,1,12
5.28,2.732,1.7822,1.9691,-0.0343,0.0273,0.0003,0.06,0.06,0.019,3.0,2.0,2.0,0.0,0.3467,-0.0003,0.087,1,14
5.3,2.7296,1.7774,1.9697,-0.0351,0.0292,0.0,0.2033,0.25,0.0128,3.0,2.0,2.0,0.0,0.3516,-0.0,0.3225,1,8
5.32,2.7265,1.7715,1.9703,-0.0397,0.0307,0.0002,0.1855,0.2187,0.0077,3.0,2.0,2.0,0.0,0.3576,-0.0002,0.2868,1,2
5.34,2.723,1.7649,1.9707,-0.0445,0.0341,-0.0,0.1482,0.2096,0.006,3.0,2.0,2.0,0.0,0.3645,0.0,0.2568,1,7
5.36,2.7191,1.7577,1.971,-0.0468,0.0375,-0.0001,0.18,0.2523,0.0097,3.0,2.0,2.0,0.0,0.3721,0.0001,0.3101,1,6
5.38,2.7152,1.7503,1.9706,-0.0505,0.0382,0.0004,0.1857,0.2582,0.0184,3.0,2.0,2.0,0.0,0.3799,-0.0004,0.3186,1,6
5.4,2.7115,1.7428,1.9702,-0.0545,0.0407,-0.0007,0.12,0.12,0.0242,3.0,2.0,2.0,0.0,0.3876,0.0007,0.1714,1,11
5.42,2.7083,1.7356,1.97,-0.0549,0.0447,-0.0001,0.2427,0.25,0.0277,3.0,2.0,2.0,0.0,0.3949,0.0001,0.3495,1,8
5.44,2.7057,1.7286,1.9701,-0.0568,0.0467,-0.0007,0.12,0.12,0.018,3.0,2.0,2.0,0.0,0.4014,0.0007,0.1707,1,11
5.46,2.704,1.7221,1.9702,-0.0588,0.0472,-0.0001,0.12,0.12,0.0164,3.0,2.0,2.0,0.0,0.407,0.0001,0.1705,1,11
5.48,2.7033,1.7161,1.9707,-0.06,0.0478,-0.0004,0.1144,0.12,0.0119,3.0,2.0,2.0,0.0,0.4117,0.0004,0.1662,1,11
5.5,2.7033,1.7105,1.9709,-0.0613,0.0487,-0.0005,0.1475,0.2711,0.0153,3.0,2.0,2.0,0.0,0.4155,0.0005,0.309,1,1
5.52,2.704,1.7053,1.9707,-0.0662,0.0464,-0.0002,0.1347,0.2639,0.0209,3.0,2.0,2.0,0.0,0.4188,0.0002,0.297,1,1
5.54,2.7052,1.7004,1.9702,-0.0691,0.0482,0.0001,0.1222,0.2575,0.0257,3.0,2.0,2.0,0.0,0.4214,-0.0001,0.2862,1,1
5.56,2.7069,1.6961,1.9695,-0.0708,0.0489,0.0002,0.1073,0.2475,0.0285,3.0,2.0,2.0,0.0,0.4233,-0.0002,0.2712,1,1
5.58,2.7094,1.6928,1.9688,-0.0727,0.0479,0.0006,0.0936,0.2261,0.03,3.0,2.0,2.0,0.0,0.4241,-0.0006,0.2465,1,1
5.6,2.7126,1.6907,1.9684,-0.0745,0.0466,0.0004,0.0342,0.1924,0.0293,3.0,2.0,2.0,0.0,0.4234,-0.0004,0.1976,1,9
5.62,2.7167,1.6901,1.9684,-0.0747,0.0454,0.0007,0.0119,0.149,0.0237,3.0,2.0,2.0,0.0,0.421,-0.0007,0.1513,1,9
5.64,2.7217,1.691,1.9685,-0.0738,0.0439,0.0007,-0.0142,0.108,0.021,3.0,2.0,2.0,0.0,0.417,-0.0007,0.1109,1,9
5.66,2.7273,1.6935,1.9685,-0.0724,0.0417,0.001,-0.0336,0.0621,0.0222,3.0,2.0,2.0,0.0,0.4114,-0.001,0.074,1,9
5.68,2.7336,1.6975,1.9683,-0.0701,0.0395,0.0012,-0.0526,0.0186,0.0263,3.0,2.0,2.0,0.0,0.4043,-0.0012,0.0617,1,9
5.7,2.7403,1.703,1.9679,-0.0662,0.038,0.0013,-0.0739,-0.0268,0.0393,3.0,2.0,2.0,0.0,0.3958,-0.0013,0.0878,1,12
5.72,2.7474,1.7098,1.9681,-0.0621,0.0357,0.0009,-0.0777,-0.0543,0.0168,3.0,2.0,2.0,0.0,0.386,-0.0009,0.0963,1,11
5.74,2.7549,1.7178,1.9685,-0.0577,0.0337,0.0015,-0.1133,-0.1255,0.0095,3.0,2.0,2.0,0.0,0.3751,-0.0015,0.1694,1,5
5.76,2.7624,1.7267,1.9688,-0.0524,0.0313,0.0009,-0.1297,-0.1458,0.0101,3.0,2.0,2.0,0.0,0.3634,-0.0009,0.1954,1,5
5.78,2.77,1.7364,1.9693,-0.0481,0.028,0.001,-0.0469,-0.0742,0.0106,3.0,2.0,2.0,0.0,0.3512,-0.001,0.0884,1,2
5.8,2.7773,1.7465,1.9697,-0.0444,0.0254,0.0009,-0.0625,-0.1126,0.0114,3.0,2.0,2.0,0.0,0.3388,-0.0009,0.1292,1,0
5.82,2.7843,1.7569,1.9701,-0.041,0.0249,0.001,-0.0561,-0.1265,0.013,3.0,2.0,2.0,0.0,0.3264,-0.001,0.139,1,0
5.84,2.7909,1.7673,1.97,-0.0384,0.0228,0.0003,-0.0855,-0.15,0.0218,3.0,2.0,2.0,0.0,0.3143,-0.0003,0.174,1,10
5.86,2.7969,1.7776,1.9695,-0.0342,0.021,0.0012,-0.0286,-0.1246,0.0267,3.0,2.0,2.0,0.0,0.3027,-0.0012,0.1306,1,1
5.88,2.8022,1.7876,1.9691,-0.0295,0.0204,0.0007,-0.061,-0.1767,0.0287,3.0,2.0,2.0,0.0,0.2919,-0.0007,0.1891,1,9
5.9,2.8069,1.797,1.9689,-0.027,0.0201,0.0011,-0.0343,-0.12,0.0222,3.0,2.0,2.0,0.0,0.2819,-0.0011,0.1268,1,11
5.92,2.8107,1.8057,1.9687,-0.0249,0.0181,0.0011,0.0077,-0.0983,0.0214,3.0,2.0,2.0,0.0,0.2731,-0.0011,0.1009,1,1
5.94,2.8137,1.8135,1.9683,-0.0231,0.0181,0.0015,0.0043,-0.1,0.0403,3.0,2.0,2.0,0.0,0.2655,-0.0015,0.1079,1,12
5.96,2.8159,1.8202,1.9686,-0.0225,0.0197,0.001,0.0405,-0.0601,0.0135,3.0,2.0,2.0,0.0,0.2592,-0.001,0.0737,1,1
5.98,2.8173,1.8258,1.9693,-0.021,0.0202,0.0016,0.0276,-0.0954,0.0057,3.0,2.0,2.0,0.0,0.2543,-0.0016,0.0995,1,5
6.0,2.818,1.8301,1.9697,-0.0209,0.0212,0.0008,0.0736,-0.0076,0.0108,3.0,2.0,2.0,0.0,0.2508,-0.0008,0.0748,1,1
6.02,2.8179,1.8329,1.9697,-0.0213,0.0217,0.0014,0.04,-0.0059,0.0259,3.0,2.0,2.0,0.0,0.249,-0.0014,0.048,1,15
6.04,2.8171,1.8344,1.9697,-0.023,0.0231,0.0007,0.1132,0.0448,0.0246,3.0,2.0,2.0,0.0,0.2486,-0.0007,0.1242,1,8
6.06,2.8157,1.8344,1.97,-0.0239,0.0245,0.0007,0.135,0.0831,0.0172,3.0,2.0,2.0,0.0,0.2496,-0.0007,0.1595,1,8
6.08,2.8138,1.8331,1.9706,-0.0267,0.0261,0.0004,0.08,0.08,0.0161,3.0,2.0,2.0,0.0,0.2518,-0.0004,0.1143,1,13
6.1,2.8114,1.8306,1.9713,-0.0299,0.0284,0.0002,0.1468,0.1425,0.0065,3.0,2.0,2.0,0.0,0.2551,-0.0002,0.2047,1,1
6.12,2.8087,1.8269,1.9719,-0.0326,0.0296,0.0001,0.12,0.12,0.0094,3.0,2.0,2.0,0.0,0.2595,-0.0001,0.17,1,11
6.14,2.8057,1.822,1.9725,-0.0359,0.0322,-0.0001,0.1826,0.2201,0.0089,3.0,2.0,2.0,0.0,0.265,0.0001,0.2861,1,0
6.16,2.8023,1.8161,1.9729,-0.0409,0.0332,-0.0002,0.12,0.12,0.0126,3.0,2.0,2.0,0.0,0.2714,0.0002,0.1702,1,11
6.18,2.7987,1.8093,1.9732,-0.0439,0.0359,-0.0004,0.1,0.1,0.0215,3.0,2.0,2.0,0.0,0.2786,0.0004,0.143,1,12
6.2,2.7948,1.8016,1.9739,-0.0458,0.0381,-0.0009,0.2148,0.25,0.0103,3.0,2.0,2.0,0.0,0.2866,0.0009,0.3297,1,8
6.22,2.7908,1.7932,1.9743,-0.0504,0.0392,-0.0002,0.2184,0.3208,0.0095,3.0,2.0,2.0,0.0,0.2953,0.0002,0.3882,1,0
6.24,2.7868,1.7844,1.9743,-0.057,0.041,-0.001,0.15,0.15,0.0181,3.0,2.0,2.0,0.0,0.3043,0.001,0.2129,1,10
6.26,2.7829,1.7755,1.9741,-0.0584,0.0453,-0.0006,0.04,0.04,0.0287,3.0,2.0,2.0,0.0,0.3134,0.0006,0.0634,1,15
6.28,2.7795,1.7667,1.9742,-0.0579,0.0457,-0.0011,0.1849,0.3174,0.0148,3.0,2.0,2.0,0.0,0.3221,0.0011,0.3677,1,1
6.3,2.7765,1.7582,1.9741,-0.0634,0.0449,-0.0002,0.2068,0.25,0.0225,3.0,2.0,2.0,0.0,0.3303,0.0002,0.3253,1,8
6.32,2.774,1.7502,1.974,-0.0671,0.0477,-0.0008,0.1808,0.25,0.0237,3.0,2.0,2.0,0.0,0.3378,0.0008,0.3095,1,8
6.34,2.772,1.7431,1.9741,-0.0687,0.0509,-0.0007,0.1728,0.25,0.0199,3.0,2.0,2.0,0.0,0.3445,0.0007,0.3045,1,8
6.36,2.7702,1.7366,1.9743,-0.0715,0.0521,-0.0011,0.0966,0.2123,0.0077,3.0,2.0,2.0,0.0,0.3505,0.0011,0.2334,1,7
6.38,2.7682,1.7309,1.9741,-0.0751,0.0514,-0.0003,0.1453,0.15,0.0223,3.0,2.0,2.0,0.0,0.3561,0.0003,0.2101,1,10
6.4,2.7661,1.7259,1.9737,-0.0756,0.0532,-0.0009,0.04,0.04,0.0328,3.0,2.0,2.0,0.0,0.3613,0.0009,0.0654,1,15
6.42,2.7642,1.7218,1.9739,-0.0736,0.0533,-0.001,0.1754,0.2562,0.0137,3.0,2.0,2.0,0.0,0.3656,0.001,0.3108,1,0
6.44,2.7629,1.7188,1.974,-0.0774,0.0513,-0.0001,0.04,0.04,0.022,3.0,2.0,2.0,0.0,0.3688,0.0001,0.0607,1,15
6.46,2.7624,1.7169,1.9742,-0.0758,0.0517,-0.0008,0.1385,0.2066,0.0149,3.0,2.0,2.0,0.0,0.3705,0.0008,0.2492,1,0
6.48,2.7628,1.7161,1.9743,-0.0765,0.0517,-0.0004,0.0741,0.1099,0.015,3.0,2.0,2.0,0.0,0.3708,0.0004,0.1334,1,11
6.5,2.7641,1.7165,1.9745,-0.0762,0.0517,-0.0006,0.0754,0.1289,0.0183,3.0,2.0,2.0,0.0,0.3697,0.0006,0.1505,1,8
6.52,2.7663,1.7179,1.9747,-0.0745,0.0512,-0.0004,0.0246,0.04,0.021,3.0,2.0,2.0,0.0,0.3672,0.0004,0.0515,1,15
6.54,2.7693,1.7202,1.9751,-0.0736,0.0505,-0.0006,0.0504,0.0968,0.009,3.0,2.0,2.0,0.0,0.3635,0.0006,0.1095,1,0
6.56,2.7731,1.7233,1.9756,-0.0728,0.0482,-0.0002,0.0011,0.0378,0.0137,3.0,2.0,2.0,0.0,0.3587,0.0002,0.0403,1,8
6.58,2.7776,1.7272,1.976,-0.0718,0.047,-0.0004,-0.0469,-0.0168,0.0042,3.0,2.0,2.0,0.0,0.3528,0.0004,0.05,1,7
6.6,2.7827,1.7315,1.9762,-0.0689,0.0452,-0.0001,-0.0423,-0.0026,0.0161,3.0,2.0,2.0,0.0,0.3462,0.0001,0.0453,1,8
6.62,2.7882,1.7363,1.9763,-0.0657,0.0424,0.0,-0.04,-0.0231,0.0238,3.0,2.0,2.0,0.0,0.339,-0.0,0.052,1,15
6.64,2.7941,1.7413,1.9764,-0.0656,0.0402,0.0002,-0.0326,0.0159,0.0131,3.0,2.0,2.0,0.0,0.3314,-0.0002,0.0386,1,0
6.66,2.8002,1.7465,1.9767,-0.0625,0.0385,0.0002,-0.0422,0.0092,0.0095,3.0,2.0,2.0,0.0,0.3236,-0.0002,0.0443,1,0
6.68,2.8064,1.7518,1.9766,-0.0611,0.0375,0.0009,-0.04,-0.0376,0.0266,3.0,2.0,2.0,0.0,0.3157,-0.0009,0.061,1,15
6.7,2.8126,1.757,1.9764,-0.06,0.035,0.0006,-0.0534,0.005,0.0192,3.0,2.0,2.0,0.0,0.3078,-0.0006,0.0569,1,0
6.72,2.8184,1.762,1.9761,-0.0572,0.0335,0.0002,-0.0867,-0.0331,0.0255,3.0,2.0,2.0,0.0,0.3003,-0.0002,0.0962,1,8
6.74,2.8236,1.7668,1.9761,-0.0568,0.0326,0.0003,-0.0655,-0.0271,0.021,3.0,2.0,2.0,0.0,0.2934,-0.0003,0.0739,1,8
6.76,2.8279,1.7711,1.9765,-0.0551,0.0303,0.0003,-0.0404,-0.0167,0.0138,3.0,2.0,2.0,0.0,0.2874,-0.0003,0.0458,1,8
6.78,2.8313,1.775,1.977,-0.0535,0.0295,0.0005,0.0073,0.0249,0.0069,3.0,2.0,2.0,0.0,0.2821,-0.0005,0.0268,1,0
6.8,2.8343,1.7787,1.9774,-0.0523,0.0298,0.0002,-0.0072,-0.001,0.0125,3.0,2.0,2.0,0.0,0.2773,-0.0002,0.0144,1,8
6.82,2.8373,1.7824,1.9775,-0.052,0.0291,0.0008,-0.002,-0.0043,0.0192,3.0,2.0,2.0,0.0,0.2726,-0.0008,0.0198,1,8
6.84,2.8405,1.786,1.9776,-0.0503,0.0275,0.0007,-0.0134,-0.0027,0.0184,3.0,2.0,2.0,0.0,0.2678,-0.0007,0.0229,1,8
6.86,2.8438,1.7896,1.9779,-0.049,0.0278,0.0006,-0.02,-0.0024,0.0137,3.0,2.0,2.0,0.0,0.263,-0.0006,0.0244,1,8
6.88,2.8472,1.7931,1.9783,-0.0487,0.0267,0.0004,-0.0251,0.0008,0.0138,3.0,2.0,2.0,0.0,0.2582,-0.0004,0.0286,1,8
6.9,2.8507,1.7962,1.9786,-0.0479,0.025,0.0006,-0.0422,-0.0162,0.0047,3.0,2.0,2.0,0.0,0.2535,-0.0006,0.0454,1,5
6.92,2.8541,1.799,1.979,-0.0479,0.0236,0.0005,-0.0432,-0.0053,0.0048,3.0,2.0,2.0,0.0,0.2493,-0.0005,0.0438,1,5
6.94,2.8574,1.8014,1.9792,-0.046,0.0225,0.0005,-0.0418,0.0035,0.0069,3.0,2.0,2.0,0.0,0.2454,-0.0005,0.0425,1,5
6.96,2.8607,1.8036,1.9792,-0.0456,0.0215,0.0006,-0.0397,0.0089,0.0102,3.0,2.0,2.0,0.0,0.2417,-0.0006,0.042,1,5
6.98,2.8638,1.8056,1.979,-0.0459,0.0203,0.0005,-0.0393,0.011,0.0145,3.0,2.0,2.0,0.0,0.2383,-0.0005,0.0433,1,5
7.0,2.8668,1.8078,1.979,-0.0458,0.0196,0.0003,-0.0222,0.0338,0.0195,3.0,2.0,2.0,0.0,0.2348,-0.0003,0.0449,1,8
7.02,2.8697,1.81,1.9795,-0.0451,0.0187,0.0001,-0.0188,0.0299,0.0102,3.0,2.0,2.0,0.0,0.2313,-0.0001,0.0368,1,8
7.04,2.8724,1.8123,1.9802,-0.0456,0.0183,0.0003,-0.012,0.0249,0.0056,3.0,2.0,2.0,0.0,0.2279,-0.0003,0.0282,1,8
7.06,2.8748,1.8146,1.9809,-0.0451,0.0182,0.0001,-0.0084,0.0225,0.0074,3.0,2.0,2.0,0.0,0.2245,-0.0001,0.0251,1,8
7.08,2.8771,1.8171,1.9813,-0.0444,0.0183,0.0006,0.001,0.0175,0.0118,3.0,2.0,2.0,0.0,0.2212,-0.0006,0.0211,1,8
7.1,2.8791,1.8195,1.9811,-0.0439,0.0179,-0.0003,-0.0012,0.0212,0.021,3.0,2.0,2.0,0.0,0.218,0.0003,0.0299,1,8
7.12,2.8809,1.822,1.9809,-0.0432,0.0187,0.0009,0.0169,0.0109,0.0226,3.0,2.0,2.0,0.0,0.215,-0.0009,0.0303,1,8
7.14,2.8824,1.8246,1.9809,-0.0432,0.0178,-0.0001,0.0107,0.0162,0.0191,3.0,2.0,2.0,0.0,0.2121,0.0001,0.0273,1,8
7.16,2.8838,1.8271,1.9812,-0.0423,0.0191,0.0005,0.0238,0.0088,0.0122,3.0,2.0,2.0,0.0,0.2091,-0.0005,0.0282,1,8
7.18,2.885,1.8297,1.9816,-0.0419,0.0183,-0.0002,0.0214,0.0118,0.0114,3.0,2.0,2.0,0.0,0.2063,0.0002,0.027,1,8
7.2,2.8861,1.8323,1.9818,-0.041,0.0194,0.0006,0.0139,-0.0142,0.0056,3.0,2.0,2.0,0.0,0.2036,-0.0006,0.0206,1,5
7.22,2.8871,1.8347,1.982,-0.0413,0.0193,0.0,0.01,-0.0089,0.0063,3.0,2.0,2.0,0.0,0.2009,-0.0,0.0147,1,5
7.24,2.888,1.8372,1.9822,-0.0392,0.0194,0.0004,0.0305,0.0214,0.0056,3.0,2.0,2.0,0.0,0.1984,-0.0004,0.0377,1,3
7.26,2.8888,1.8396,1.9826,-0.0391,0.0191,-0.0,0.0348,0.0271,0.0048,3.0,2.0,2.0,0.0,0.1959,0.0,0.0444,1,1
7.28,2.8897,1.842,1.983,-0.0395,0.0194,0.0,0.019,-0.0096,0.0022,3.0,2.0,2.0,0.0,0.1934,-0.0,0.0214,1,4
7.3,2.8905,1.8444,1.9834,-0.0392,0.0209,-0.0002,0.029,0.0212,0.0032,3.0,2.0,2.0,0.0,0.191,0.0002,0.0361,1,3
7.32,2.891,1.8466,1.9835,-0.0378,0.0212,-0.0,0.0254,-0.0081,0.0064,3.0,2.0,2.0,0.0,0.1889,0.0,0.0274,1,5
7.34,2.8909,1.8485,1.9834,-0.0391,0.0218,-0.0002,0.0555,0.0179,0.0258,3.0,2.0,2.0,0.0,0.1874,0.0002,0.0637,1,13
7.36,2.8901,1.8502,1.9838,-0.0376,0.0229,-0.0005,0.06,0.0206,0.0172,3.0,2.0,2.0,0.0,0.1865,0.0005,0.0657,1,14
7.38,2.8892,1.8518,1.9842,-0.0365,0.024,0.0001,0.0654,0.0181,0.0092,3.0,2.0,2.0,0.0,0.1857,-0.0001,0.0685,1,11
7.4,2.8887,1.8534,1.9841,-0.0368,0.0243,-0.0009,0.0662,0.0278,0.0172,3.0,2.0,2.0,0.0,0.1848,0.0009,0.0738,1,9
7.42,2.8886,1.8551,1.984,-0.0361,0.0251,-0.0003,0.0567,0.0173,0.0283,3.0,2.0,2.0,0.0,0.1834,0.0003,0.0656,1,13
7.44,2.8891,1.8571,1.9844,-0.0369,0.0255,-0.0009,0.0304,0.0111,0.0151,3.0,2.0,2.0,0.0,0.1816,0.0009,0.0357,1,15
7.46,2.8901,1.8592,1.9852,-0.0361,0.0255,-0.0005,0.035,0.0221,-0.0049,3.0,2.0,2.0,0.0,0.1792,0.0005,0.0417,1,1
7.48,2.8914,1.8614,1.9859,-0.0348,0.0246,-0.0005,0.0009,-0.0121,-0.0035,3.0,2.0,2.0,0.0,0.1766,0.0005,0.0127,1,5
7.5,2.8931,1.8636,1.9863,-0.0357,0.0246,-0.0006,-0.0109,-0.0161,0.0,3.0,2.0,2.0,0.0,0.1738,0.0006,0.0194,1,7
7.52,2.8949,1.8659,1.9864,-0.0348,0.0242,-0.0004,-0.014,-0.0175,0.0043,3.0,2.0,2.0,0.0,0.1709,0.0004,0.0228,1,7
7.54,2.8968,1.868,1.986,-0.0337,0.0227,-0.0011,0.0015,0.0061,0.0304,3.0,2.0,2.0,0.0,0.1681,0.0011,0.0311,1,14
7.56,2.8986,1.8701,1.9856,-0.0327,0.0222,-0.0004,0.0054,0.0026,0.0303,3.0,2.0,2.0,0.0,0.1654,0.0004,0.0308,1,15
7.58,2.9003,1.8722,1.9859,-0.0337,0.0223,-0.0004,0.0122,0.0199,0.0053,3.0,2.0,2.0,0.0,0.1627,0.0004,0.024,1,0
7.6,2.9017,1.8741,1.9861,-0.0336,0.022,0.0002,0.0203,0.0172,0.0046,3.0,2.0,2.0,0.0,0.1603,-0.0002,0.0271,1,1
7.62,2.9025,1.8761,1.9859,-0.0338,0.0221,-0.0004,0.0249,0.009,0.0278,3.0,2.0,2.0,0.0,0.1584,0.0004,0.0383,1,14
7.64,2.9025,1.878,1.9857,-0.0348,0.0251,-0.0001,0.0442,0.0038,0.0183,3.0,2.0,2.0,0.0,0.1569,0.0001,0.048,1,10
7.66,2.9017,1.88,1.9858,-0.0335,0.0258,-0.0004,0.0642,0.003,0.0127,3.0,2.0,2.0,0.0,0.1558,0.0004,0.0655,1,10
7.68,2.8999,1.882,1.9862,-0.0327,0.0271,-0.0002,0.0913,0.0126,0.0021,3.0,2.0,2.0,0.0,0.1554,0.0002,0.0922,1,1
7.7,2.897,1.8841,1.9866,-0.032,0.0304,-0.0004,0.08,0.0021,0.0155,3.0,2.0,2.0,0.0,0.1556,0.0004,0.0815,1,13
7.72,2.8932,1.8863,1.9872,-0.0319,0.0333,-0.0007,0.142,-0.0039,0.0063,3.0,2.0,2.0,0.0,0.1565,0.0007,0.1422,1,10
7.74,2.8886,1.8886,1.9875,-0.0325,0.0358,-0.0009,0.1417,0.0053,0.0011,3.0,2.0,2.0,0.0,0.158,0.0009,0.1419,1,2
7.76,2.8835,1.891,1.9877,-0.0311,0.0386,-0.0008,0.1976,-0.0135,0.0124,3.0,2.0,2.0,0.0,0.16,0.0008,0.1985,1,9
7.78,2.8782,1.8935,1.9877,-0.0316,0.0413,-0.001,0.1611,-0.0018,0.0074,3.0,2.0,2.0,0.0,0.1623,0.001,0.1613,1,2
7.8,2.8729,1.8961,1.9876,-0.0301,0.0436,-0.0008,0.08,-0.0144,0.024,3.0,2.0,2.0,0.0,0.1646,0.0008,0.0848,1,13
7.82,2.8681,1.8988,1.9878,-0.029,0.0439,-0.0008,0.2126,-0.0253,0.0136,3.0,2.0,2.0,0.0,0.1666,0.0008,0.2145,1,8
7.84,2.8642,1.9017,1.9879,-0.0309,0.047,-0.001,0.1898,-0.0296,0.0132,3.0,2.0,2.0,0.0,0.1681,0.001,0.1925,1,8
7.86,2.8613,1.9047,1.988,-0.0289,0.0491,-0.0008,0.1302,-0.0331,0.0126,3.0,2.0,2.0,0.0,0.1687,0.0008,0.1349,1,10
7.88,2.8598,1.9079,1.9882,-0.0267,0.0483,-0.0007,0.06,-0.0289,0.0196,3.0,2.0,2.0,0.0,0.1682,0.0007,0.0694,1,14
7.9,2.8597,1.9112,1.9884,-0.0261,0.0471,-0.0005,0.0733,-0.0412,0.0177,3.0,2.0,2.0,0.0,0.1665,0.0005,0.086,1,12
7.92,2.8609,1.9147,1.989,-0.0252,0.0454,-0.0003,0.0065,-0.0568,-0.0039,3.0,2.0,2.0,0.0,0.1635,0.0003,0.0573,1,7
7.94,2.8635,1.9182,1.9894,-0.0245,0.0434,0.0001,-0.0018,-0.0452,0.016,3.0,2.0,2.0,0.0,0.1595,-0.0001,0.048,1,13
7.96,2.8672,1.9218,1.9895,-0.0218,0.0404,0.0001,-0.027,-0.0367,0.02,3.0,2.0,2.0,0.0,0.1545,-0.0001,0.0498,1,15
7.98,2.8718,1.9255,1.9897,-0.021,0.0386,0.0001,-0.0784,-0.0686,0.0013,3.0,2.0,2.0,0.0,0.1486,-0.0001,0.1042,1,6
8.0,2.8774,1.929,1.9899,-0.0207,0.0349,0.0004,-0.048,-0.0349,0.0025,3.0,2.0,2.0,0.0,0.142,-0.0004,0.0594,1,3
8.02,2.8837,1.9325,1.99,-0.0193,0.0314,0.0002,-0.1,-0.0504,0.0219,3.0,2.0,2.0,0.0,0.1348,-0.0002,0.1141,1,12
8.04,2.8906,1.9356,1.9904,-0.0193,0.0295,-0.0,-0.08,-0.0382,0.0145,3.0,2.0,2.0,0.0,0.1273,0.0,0.0898,1,13
8.06,2.8978,1.9383,1.9911,-0.0188,0.0258,0.0003,-0.086,-0.0221,-0.0054,3.0,2.0,2.0,0.0,0.1197,-0.0003,0.0889,1,3
8.08,2.9053,1.9403,1.9914,-0.0177,0.0239,-0.0002,-0.08,-0.0113,0.0155,3.0,2.0,2.0,0.0,0.1123,0.0002,0.0823,1,13
8.1,2.9129,1.9416,1.9917,-0.0181,0.0218,-0.0002,-0.1785,-0.0037,0.0081,3.0,2.0,2.0,0.0,0.1052,0.0002,0.1787,1,8
8.12,2.9204,1.9423,1.9921,-0.0167,0.0167,-0.0003,-0.1493,-0.0002,-0.0014,3.0,2.0,2.0,0.0,0.0986,0.0003,0.1493,1,7
8.14,2.9277,1.9423,1.9922,-0.0172,0.0128,-0.0,-0.1,0.0386,0.019,3.0,2.0,2.0,0.0,0.0928,0.0,0.1088,1,12
8.16,2.9347,1.9419,1.9923,-0.0187,0.012,-0.0,-0.1565,0.0429,0.0121,3.0,2.0,2.0,0.0,0.0877,0.0,0.1627,1,9
8.18,2.9413,1.9414,1.9923,-0.0193,0.011,-0.0003,-0.1611,0.0546,0.014,3.0,2.0,2.0,0.0,0.0834,0.0003,0.1707,1,8
8.2,2.9473,1.9406,1.9921,-0.0198,0.0075,-0.0001,-0.04,0.0343,0.012,3.0,2.0,2.0,0.0,0.0798,0.0001,0.0541,1,15
8.22,2.9525,1.9398,1.992,-0.0241,0.0088,-0.0002,-0.06,0.0424,0.012,3.0,2.0,2.0,0.0,0.0771,0.0002,0.0745,1,14
8.24,2.957,1.9388,1.9918,-0.0248,0.01,-0.0003,-0.06,0.0452,0.0136,3.0,2.0,2.0,0.0,0.0752,0.0003,0.0763,1,14
8.26,2.9607,1.9376,1.9917,-0.0238,0.008,-0.0001,-0.06,0.0499,0.0129,3.0,2.0,2.0,0.0,0.0742,0.0001,0.0791,1,14
8.28,2.9633,1.9362,1.9911,-0.0249,0.0075,-0.0001,-0.0421,0.0566,0.0225,3.0,2.0,2.0,0.0,0.0742,0.0001,0.074,1,14
8.3,2.9649,1.9344,1.9905,-0.0274,0.0078,0.0,-0.0164,0.04,0.0211,3.0,2.0,2.0,0.0,0.075,-0.0,0.0481,1,15
8.32,2.9653,1.9323,1.9906,-0.0287,0.0095,0.0002,0.0087,0.0896,0.0101,3.0,2.0,2.0,0.0,0.0767,-0.0002,0.0906,1,12
8.34,2.9646,1.9298,1.9904,-0.0297,0.0102,0.0009,0.0413,0.0992,0.0139,3.0,2.0,2.0,0.0,0.0792,-0.0009,0.1084,1,12
8.36,2.9629,1.9272,1.9901,-0.0313,0.0117,0.0007,0.0726,0.1174,0.0149,3.0,2.0,2.0,0.0,0.0824,-0.0007,0.1388,1,8
8.38,2.9603,1.9244,1.99,-0.0326,0.0146,0.0005,0.098,0.1203,0.0103,3.0,2.0,2.0,0.0,0.086,-0.0005,0.1555,1,8
8.4,2.9572,1.9218,1.9901,-0.0343,0.0165,0.0004,0.1164,0.1183,0.0056,3.0,2.0,2.0,0.0,0.0897,-0.0004,0.1661,1,8
8.42,2.9537,1.9194,1.9904,-0.0357,0.0186,0.0003,0.1282,0.1109,0.0042,3.0,2.0,2.0,0.0,0.0934,-0.0003,0.1696,1,8
8.44,2.9502,1.9175,1.9902,-0.0371,0.0214,-0.0004,0.1318,0.0989,0.0116,3.0,2.0,2.0,0.0,0.0968,0.0004,0.1651,1,8
8.46,2.9468,1.9163,1.9899,-0.0382,0.024,-0.0001,0.1317,0.0795,0.0143,3.0,2.0,2.0,0.0,0.0997,0.0001,0.1545,1,8
8.48,2.9437,1.9158,1.9897,-0.0379,0.0253,-0.0003,0.1215,0.0576,0.0108,3.0,2.0,2.0,0.0,0.1019,0.0003,0.1349,1,8
8.5,2.9411,1.9161,1.9898,-0.0374,0.0266,-0.0002,0.1067,0.0311,0.007,3.0,2.0,2.0,0.0,0.103,0.0002,0.1114,1,8
8.52,2.9393,1.9174,1.9896,-0.0364,0.0279,0.0004,0.0873,0.003,0.0131,3.0,2.0,2.0,0.0,0.1031,-0.0004,0.0883,1,8
8.54,2.9383,1.9195,1.9895,-0.0347,0.0287,-0.0003,0.0593,-0.0226,0.0107,3.0,2.0,2.0,0.0,0.1019,0.0003,0.0643,1,8
8.56,2.9383,1.9225,1.9892,-0.0328,0.0287,0.0007,0.0369,-0.0517,0.0135,3.0,2.0,2.0,0.0,0.0997,-0.0007,0.065,1,8
8.58,2.939,1.9261,1.9885,-0.0311,0.0279,0.0006,0.0081,-0.0716,0.0216,3.0,2.0,2.0,0.0,0.0965,-0.0006,0.0753,1,8
8.6,2.9406,1.9302,1.9877,-0.0293,0.0267,0.0008,-0.0163,-0.0882,0.0227,3.0,2.0,2.0,0.0,0.0924,-0.0008,0.0925,1,8
8.62,2.9429,1.9346,1.9873,-0.0275,0.0252,0.0007,-0.0384,-0.0966,0.0176,3.0,2.0,2.0,0.0,0.0878,-0.0007,0.1054,1,8
8.64,2.9457,1.9389,1.9871,-0.0254,0.0238,0.0008,-0.0548,-0.0977,0.0133,3.0,2.0,2.0,0.0,0.0828,-0.0008,0.1128,1,8
8.66,2.9488,1.9429,1.9872,-0.0237,0.0222,0.0006,-0.0556,-0.0744,0.0106,3.0,2.0,2.0,0.0,0.0778,-0.0006,0.0935,1,13
8.68,2.9522,1.9463,1.9874,-0.0221,0.0199,0.0006,-0.0555,-0.0562,0.006,3.0,2.0,2.0,0.0,0.073,-0.0006,0.0792,1,14
8.7,2.9556,1.949,1.9877,-0.022,0.0188,0.0005,-0.0642,-0.0431,0.005,3.0,2.0,2.0,0.0,0.0687,-0.0005,0.0774,1,13
8.72,2.9589,1.9506,1.9876,-0.0225,0.0178,-0.0,-0.0696,-0.019,0.0141,3.0,2.0,2.0,0.0,0.0654,0.0,0.0735,1,12
8.74,2.962,1.951,1.9875,-0.0231,0.0164,0.0003,-0.04,0.0095,0.0141,3.0,2.0,2.0,0.0,0.0633,-0.0003,0.0435,1,15
8.76,2.9647,1.95,1.9871,-0.0252,0.015,0.0007,-0.054,0.0536,0.0208,3.0,2.0,2.0,0.0,0.0626,-0.0007,0.0789,1,12
8.78,2.967,1.9474,1.987,-0.0275,0.0161,0.0006,-0.0307,0.04,0.0118,3.0,2.0,2.0,0.0,0.0634,-0.0006,0.0518,1,15
8.8,2.9687,1.9433,1.9871,-0.0311,0.0158,0.0001,-0.0276,0.08,0.0113,3.0,2.0,2.0,0.0,0.0661,-0.0001,0.0854,1,13
8.82,2.9699,1.9375,1.9871,-0.0331,0.0158,0.0003,-0.0111,0.06,0.0104,3.0,2.0,2.0,0.0,0.0706,-0.0003,0.0619,1,14
8.84,2.9704,1.93,1.9868,-0.0369,0.0161,-0.0005,0.0033,0.06,0.017,3.0,2.0,2.0,0.0,0.0771,0.0005,0.0624,1,14
8.86,2.97,1.9209,1.9865,-0.039,0.0164,-0.0,0.0294,0.25,0.0151,3.0,2.0,2.0,0.0,0.0857,0.0,0.2522,1,8
8.88,2.9687,1.9101,1.9864,-0.0446,0.0179,-0.0002,0.0587,0.25,0.0115,3.0,2.0,2.0,0.0,0.0961,0.0002,0.2571,1,8
8.9,2.9661,1.8979,1.9866,-0.0499,0.0202,-0.0002,0.0951,0.25,0.008,3.0,2.0,2.0,0.0,0.1084,0.0002,0.2676,1,8
8.92,2.9623,1.8844,1.9868,-0.0552,0.0231,-0.0004,0.136,0.25,0.0061,3.0,2.0,2.0,0.0,0.1223,0.0004,0.2847,1,8
8.94,2.957,1.8695,1.987,-0.0607,0.0266,-0.0005,0.1816,0.25,0.0062,3.0,2.0,2.0,0.0,0.138,0.0005,0.3091,1,8
8.96,2.9503,1.8533,1.987,-0.0659,0.031,-0.0008,0.2253,0.25,0.0092,3.0,2.0,2.0,0.0,0.1554,0.0008,0.3367,1,8
8.98,2.9426,1.8362,1.9866,-0.0706,0.0356,-0.0012,0.25,0.25,0.018,3.0,2.0,2.0,0.0,0.1741,0.0012,0.354,1,8
9.0,2.9345,1.8187,1.9861,-0.075,0.0398,-0.001,0.12,0.12,0.0146,3.0,2.0,2.0,0.0,0.1933,0.001,0.1703,1,11
9.02,2.9267,1.8015,1.9855,-0.0774,0.0415,-0.0007,0.2,0.2,0.0191,3.0,2.0,2.0,0.0,0.2121,0.0007,0.2835,1,9
9.04,2.9197,1.7852,1.9847,-0.0793,0.0431,-0.0004,0.2,0.2,0.0241,3.0,2.0,2.0,0.0,0.2299,0.0004,0.2839,1,9
9.06,2.9139,1.7703,1.9844,-0.0816,0.0456,-0.001,0.1929,0.2,0.0147,3.0,2.0,2.0,0.0,0.2458,0.001,0.2783,1,9
9.08,2.9097,1.757,1.9842,-0.0837,0.0476,-0.0015,0.1531,0.2,0.0141,3.0,2.0,2.0,0.0,0.2597,0.0015,0.2523,1,9
9.1,2.907,1.7458,1.9839,-0.0853,0.0477,-0.0011,0.1288,0.25,0.0163,3.0,2.0,2.0,0.0,0.2712,0.0011,0.2817,1,8
9.12,2.9059,1.7367,1.9837,-0.087,0.0476,-0.0011,0.078,0.25,0.0136,3.0,2.0,2.0,0.0,0.2801,0.0011,0.2622,1,8
9.14,2.9064,1.7299,1.9838,-0.0882,0.0469,-0.0008,0.034,0.25,0.0108,3.0,2.0,2.0,0.0,0.2863,0.0008,0.2525,1,8
9.16,2.9083,1.7256,1.9839,-0.0891,0.0453,-0.0006,-0.01,0.25,0.0095,3.0,2.0,2.0,0.0,0.2898,0.0006,0.2504,1,8
9.18,2.9115,1.7239,1.984,-0.0896,0.0432,-0.0003,-0.0479,0.1779,0.0097,3.0,2.0,2.0,0.0,0.2904,0.0003,0.1845,1,8
9.2,2.9157,1.7249,1.984,-0.0893,0.0399,-0.0,-0.057,0.1259,0.0094,3.0,2.0,2.0,0.0,0.2882,0.0,0.1386,1,0
9.22,2.9208,1.7285,1.9841,-0.0872,0.0376,0.0002,-0.0818,0.0594,0.0098,3.0,2.0,2.0,0.0,0.2833,-0.0002,0.1016,1,0
9.24,2.9264,1.7345,1.9838,-0.0837,0.0354,0.0007,-0.0982,-0.0048,0.0148,3.0,2.0,2.0,0.0,0.276,-0.0007,0.0994,1,0
9.26,2.9325,1.7426,1.9833,-0.0783,0.034,0.0008,-0.1148,-0.0616,0.019,3.0,2.0,2.0,0.0,0.2666,-0.0008,0.1317,1,0
9.28,2.9389,1.7525,1.9832,-0.0728,0.0321,0.0006,-0.1256,-0.1116,0.0132,3.0,2.0,2.0,0.0,0.2555,-0.0006,0.1686,1,0
9.3,2.9452,1.7639,1.9835,-0.0675,0.0296,0.0008,-0.1539,-0.2299,0.0039,3.0,2.0,2.0,0.0,0.2429,-0.0008,0.2767,1,5
9.32,2.9513,1.7763,1.9836,-0.06,0.0279,0.0012,-0.1496,-0.2619,0.0065,3.0,2.0,2.0,0.0,0.2296,-0.0012,0.3016,1,5
9.34,2.9571,1.7892,1.9837,-0.0542,0.0233,0.0014,-0.1424,-0.2811,0.0064,3.0,2.0,2.0,0.0,0.2158,-0.0014,0.3152,1,5
9.36,2.9622,1.8022,1.9836,-0.0476,0.0194,0.001,-0.1302,-0.2892,0.0099,3.0,2.0,2.0,0.0,0.202,-0.001,0.3173,1,5
9.38,2.9665,1.8151,1.9834,-0.042,0.018,0.0012,-0.0822,-0.12,0.012,3.0,2.0,2.0,0.0,0.1887,-0.0012,0.1459,1,11
9.4,2.9699,1.8275,1.9832,-0.0393,0.0175,0.0011,-0.0625,-0.12,0.0121,3.0,2.0,2.0,0.0,0.1759,-0.0011,0.1358,1,11
9.42,2.9722,1.8394,1.9831,-0.0372,0.0157,0.001,-0.0404,-0.12,0.0101,3.0,2.0,2.0,0.0,0.1638,-0.001,0.127,1,11
9.44,2.9735,1.8506,1.9832,-0.0346,0.0159,0.0009,-0.0175,-0.12,0.0074,3.0,2.0,2.0,0.0,0.1527,-0.0009,0.1215,1,11
9.46,2.9738,1.8607,1.9834,-0.0326,0.0169,0.0008,0.0056,-0.12,0.006,3.0,2.0,2.0,0.0,0.1427,-0.0008,0.1203,1,11
9.48,2.973,1.8696,1.9837,-0.0312,0.0177,0.0006,0.0293,-0.12,0.0054,3.0,2.0,2.0,0.0,0.1342,-0.0006,0.1237,1,11
9.5,2.9713,1.8769,1.984,-0.0297,0.0189,0.0005,0.0517,-0.12,0.0054,3.0,2.0,2.0,0.0,0.1274,-0.0005,0.1308,1,11
9.52,2.9687,1.8828,1.9842,-0.0283,0.0205,0.0004,0.0712,-0.0916,0.0057,3.0,2.0,2.0,0.0,0.1223,-0.0004,0.1161,1,11
9.54,2.9655,1.8874,1.9844,-0.0266,0.0229,0.0003,0.0871,-0.0651,0.0059,3.0,2.0,2.0,0.0,0.1188,-0.0003,0.1089,1,11
9.56,2.9618,1.8912,1.9846,-0.0261,0.0244,0.0002,0.0984,-0.0463,0.0063,3.0,2.0,2.0,0.0,0.1163,-0.0002,0.1089,1,11
9.58,2.9579,1.8944,1.9847,-0.0258,0.0259,0.0002,0.1045,-0.0352,0.0072,3.0,2.0,2.0,0.0,0.1147,-0.0002,0.1105,1,11
9.6,2.954,1.8973,1.9845,-0.0255,0.0277,0.0005,0.1434,-0.0354,0.0142,3.0,2.0,2.0,0.0,0.1136,-0.0005,0.1483,1,8
9.62,2.9503,1.8999,1.9843,-0.0258,0.0293,0.0001,0.1381,-0.0268,0.0142,3.0,2.0,2.0,0.0,0.1129,-0.0001,0.1414,1,8
9.64,2.9468,1.9022,1.984,-0.0252,0.0325,-0.0004,0.13,-0.0192,0.0171,3.0,2.0,2.0,0.0,0.1125,0.0004,0.1325,1,8
9.66,2.9438,1.9043,1.984,-0.0256,0.0344,0.0001,0.1215,-0.0142,0.0118,3.0,2.0,2.0,0.0,0.1122,-0.0001,0.1229,1,8
9.68,2.9413,1.906,1.9839,-0.0255,0.0349,-0.0008,0.1043,-0.004,0.0128,3.0,2.0,2.0,0.0,0.112,0.0008,0.1051,1,8
9.7,2.9393,1.9075,1.9837,-0.0256,0.0357,-0.0004,0.0932,0.0029,0.0143,3.0,2.0,2.0,0.0,0.1119,0.0004,0.0943,1,8
9.72,2.9378,1.9086,1.9834,-0.026,0.0365,-0.001,0.0744,0.014,0.0177,3.0,2.0,2.0,0.0,0.1118,0.001,0.0778,1,8
9.74,2.9369,1.9094,1.9831,-0.0266,0.0368,-0.0005,0.0613,0.0212,0.0165,3.0,2.0,2.0,0.0,0.1117,0.0005,0.0669,1,8
9.76,2.9365,1.9099,1.983,-0.0272,0.0367,-0.0009,0.0439,0.0318,0.0145,3.0,2.0,2.0,0.0,0.1115,0.0009,0.0561,1,8
9.78,2.9366,1.9101,1.9829,-0.0281,0.0366,-0.0006,0.0319,0.0396,0.013,3.0,2.0,2.0,0.0,0.1113,0.0006,0.0525,1,8
9.8,2.937,1.91,1.9826,-0.029,0.0362,-0.001,0.0191,0.0497,0.0166,3.0,2.0,2.0,0.0,0.1112,0.001,0.0558,1,8
9.82,2.9377,1.9097,1.9824,-0.03,0.0357,-0.0006,0.0131,0.0562,0.0163,3.0,2.0,2.0,0.0,0.1111,0.0006,0.0599,1,8
9.84,2.9385,1.9091,1.9826,-0.031,0.035,-0.0003,0.007,0.0635,0.0082,3.0,2.0,2.0,0.0,0.1111,0.0003,0.0644,1,8
9.86,2.9395,1.9083,1.983,-0.0324,0.0347,-0.0004,0.0042,0.0706,0.0049,3.0,2.0,2.0,0.0,0.1112,0.0004,0.0709,1,8
9.88,2.9403,1.9073,1.983,-0.0337,0.0343,-0.0006,0.0058,0.077,0.0115,3.0,2.0,2.0,0.0,0.1115,0.0006,0.0781,1,8
9.9,2.9409,1.9062,1.9824,-0.0354,0.034,0.0001,0.0144,0.0814,0.0235,3.0,2.0,2.0,0.0,0.1123,-0.0001,0.086,1,8
9.92,2.9413,1.9049,1.9816,-0.0378,0.0332,0.0001,0.0209,0.0882,0.026,3.0,2.0,2.0,0.0,0.1133,-0.0001,0.0943,1,8
9.94,2.9412,1.9034,1.9815,-0.0389,0.0339,-0.0001,0.0315,0.0927,0.0138,3.0,2.0,2.0,0.0,0.1146,0.0001,0.0988,1,8
9.96,2.9407,1.9018,1.9819,-0.0405,0.0344,0.0003,0.0475,0.0965,0.0064,3.0,2.0,2.0,0.0,0.1161,-0.0003,0.1077,1,8
9.98,2.9397,1.9001,1.9823,-0.0421,0.0353,0.0,0.0625,0.1033,0.0051,3.0,2.0,2.0,0.0,0.118,-0.0,0.1208,1,8
10.0,2.938,1.8982,1.9824,-0.0435,0.0369,0.0003,0.0831,0.109,0.0089,3.0,2.0,2.0,0.0,0.1205,-0.0003,0.1373,1,8
10.02,2.9357,1.896,1.9825,-0.0452,0.0386,0.0001,0.1015,0.1171,0.0113,3.0,2.0,2.0,0.0,0.1235,-0.0001,0.1554,1,8
10.04,2.9328,1.8937,1.9822,-0.0468,0.0408,0.0005,0.1245,0.1232,0.0166,3.0,2.0,2.0,0.0,0.127,-0.0005,0.176,1,8
10.06,2.9292,1.8911,1.9818,-0.0486,0.0431,0.0003,0.1422,0.1321,0.0195,3.0,2.0,2.0,0.0,0.1311,-0.0003,0.1951,1,8
10.08,2.9252,1.8884,1.9817,-0.0502,0.046,0.0,0.1602,0.1385,0.0139,3.0,2.0,2.0,0.0,0.1356,-0.0,0.2123,1,8
10.1,2.9204,1.8855,1.9821,-0.0521,0.0497,-0.0002,0.1811,0.1461,0.0067,3.0,2.0,2.0,0.0,0.1406,0.0002,0.2328,1,8
10.12,2.9146,1.8821,1.9825,-0.0543,0.054,-0.0004,0.2172,0.1592,0.0051,3.0,2.0,2.0,0.0,0.1466,0.0004,0.2693,1,8
10.14,2.9074,1.8782,1.9825,-0.0558,0.059,-0.0003,0.25,0.1772,0.0118,3.0,2.0,2.0,0.0,0.154,0.0003,0.3067,1,8
10.16,2.899,1.8739,1.9821,-0.0577,0.0634,-0.0005,0.25,0.1946,0.0184,3.0,2.0,2.0,0.0,0.1626,0.0005,0.3174,1,8
10.18,2.8904,1.8694,1.9817,-0.0609,0.0663,-0.0009,0.25,0.202,0.0203,3.0,2.0,2.0,0.0,0.1715,0.0009,0.3221,1,8
10.2,2.8821,1.865,1.9812,-0.064,0.069,-0.0009,0.12,0.12,0.0173,3.0,2.0,2.0,0.0,0.1802,0.0009,0.1706,1,11
10.22,2.8744,1.8609,1.9808,-0.0672,0.0694,-0.0009,0.12,0.12,0.0147,3.0,2.0,2.0,0.0,0.1884,0.0009,0.1703,1,11
10.24,2.8673,1.8572,1.981,-0.0683,0.0698,-0.0008,0.12,0.12,0.0074,3.0,2.0,2.0,0.0,0.1959,0.0008,0.1699,1,11
10.26,2.8606,1.8539,1.9813,-0.0686,0.0712,-0.0012,0.04,0.04,0.007,3.0,2.0,2.0,0.0,0.2028,0.0012,0.057,1,15
10.28,2.8544,1.851,1.9816,-0.0689,0.072,-0.0012,0.04,0.04,0.0067,3.0,2.0,2.0,0.0,0.2091,0.0012,0.057,1,15
10.3,2.8487,1.8485,1.9821,-0.0686,0.0715,-0.0011,0.2332,0.1374,0.0003,3.0,2.0,2.0,0.0,0.2149,0.0011,0.2707,1,4
10.32,2.8433,1.8462,1.9824,-0.0669,0.0759,-0.001,0.2236,0.1304,0.0051,3.0,2.0,2.0,0.0,0.2203,0.001,0.2589,1,4
10.34,2.8385,1.844,1.9822,-0.068,0.0795,-0.0012,0.2076,0.1279,0.0126,3.0,2.0,2.0,0.0,0.2252,0.0012,0.2442,1,4
10.36,2.8343,1.8422,1.9819,-0.0697,0.0803,-0.0011,0.1928,0.1186,0.0149,3.0,2.0,2.0,0.0,0.2295,0.0011,0.2268,1,4
10.38,2.8307,1.8406,1.9815,-0.0706,0.081,-0.0007,0.1779,0.108,0.0182,3.0,2.0,2.0,0.0,0.2332,0.0007,0.2089,1,4
10.4,2.8276,1.8394,1.9807,-0.0711,0.0823,-0.0005,0.1469,0.0874,0.0215,3.0,2.0,2.0,0.0,0.2364,0.0005,0.1723,1,5
10.42,2.8249,1.8386,1.9799,-0.0714,0.083,-0.0004,0.1351,0.0783,0.0225,3.0,2.0,2.0,0.0,0.2389,0.0004,0.1578,1,5
10.44,2.8226,1.8382,1.9795,-0.0718,0.0832,-0.0005,0.1267,0.0679,0.0179,3.0,2.0,2.0,0.0,0.241,0.0005,0.1449,1,5
10.46,2.8204,1.8382,1.9793,-0.0719,0.0833,-0.0004,0.1221,0.0571,0.0134,3.0,2.0,2.0,0.0,0.2426,0.0004,0.1354,1,5
10.48,2.8184,1.8385,1.9792,-0.0715,0.0837,-0.0004,0.1186,0.048,0.0121,3.0,2.0,2.0,0.0,0.2439,0.0004,0.1285,1,5
10.5,2.8165,1.8392,1.9789,-0.0706,0.0842,-0.0002,0.1488,0.0719,0.0185,3.0,2.0,2.0,0.0,0.2449,0.0002,0.1663,1,0
10.52,2.8149,1.8402,1.9784,-0.0683,0.0854,-0.0002,0.144,0.0623,0.022,3.0,2.0,2.0,0.0,0.2455,0.0002,0.1584,1,0
10.54,2.8135,1.8416,1.9778,-0.0695,0.0859,0.0001,0.1369,0.0504,0.0262,3.0,2.0,2.0,0.0,0.2457,-0.0001,0.1482,1,0
10.56,2.8128,1.8434,1.977,-0.069,0.0855,0.0003,0.1225,0.0405,0.0291,3.0,2.0,2.0,0.0,0.2452,-0.0003,0.1322,1,0
10.58,2.8128,1.8455,1.9762,-0.0671,0.0855,0.0005,0.1032,0.0302,0.0297,3.0,2.0,2.0,0.0,0.2439,-0.0005,0.1116,1,0
10.6,2.8139,1.848,1.9758,-0.0665,0.0843,0.0002,0.0562,0.0025,0.0217,3.0,2.0,2.0,0.0,0.2415,-0.0002,0.0603,1,8
10.62,2.8161,1.8507,1.9759,-0.0667,0.0811,0.0005,0.021,-0.0098,0.0139,3.0,2.0,2.0,0.0,0.238,-0.0005,0.027,1,8
10.64,2.8197,1.8537,1.9758,-0.0655,0.0781,0.0008,-0.0181,-0.0184,0.0155,3.0,2.0,2.0,0.0,0.2334,-0.0008,0.0301,1,8
10.66,2.8245,1.8569,1.9758,-0.0633,0.0754,0.0006,-0.0612,-0.0247,0.0163,3.0,2.0,2.0,0.0,0.2277,-0.0006,0.068,1,8
10.68,2.8306,1.8605,1.9758,-0.0615,0.0716,0.0008,-0.1,-0.0383,0.014,3.0,2.0,2.0,0.0,0.2208,-0.0008,0.108,1,8
10.7,2.8378,1.8645,1.9761,-0.0605,0.0663,0.0008,-0.0614,-0.0162,0.0081,3.0,2.0,2.0,0.0,0.2127,-0.0008,0.0641,1,3
10.72,2.846,1.8691,1.976,-0.0578,0.0622,0.0016,-0.0792,-0.0305,0.0137,3.0,2.0,2.0,0.0,0.2035,-0.0016,0.086,1,3
10.74,2.8549,1.8744,1.9759,-0.0556,0.0604,0.0008,-0.12,-0.0711,0.0124,3.0,2.0,2.0,0.0,0.1934,-0.0008,0.14,1,11
10.76,2.8644,1.8803,1.9758,-0.0527,0.0565,0.0017,-0.12,-0.0929,0.014,3.0,2.0,2.0,0.0,0.1825,-0.0017,0.1524,1,11
10.78,2.8742,1.8867,1.9756,-0.05,0.0526,0.0011,-0.12,-0.0995,0.0138,3.0,2.0,2.0,0.0,0.1711,-0.0011,0.1565,1,11
10.8,2.8839,1.893,1.9754,-0.0475,0.0497,0.0013,-0.2301,-0.1374,0.0191,3.0,2.0,2.0,0.0,0.1598,-0.0013,0.2686,1,8
10.82,2.8929,1.8992,1.9752,-0.0464,0.0439,0.0013,-0.2179,-0.1308,0.0181,3.0,2.0,2.0,0.0,0.1492,-0.0013,0.2548,1,8
10.84,2.9012,1.9047,1.9751,-0.0435,0.0391,0.0016,-0.197,-0.1182,0.0177,3.0,2.0,2.0,0.0,0.1395,-0.0016,0.2304,1,8
10.86,2.9087,1.9095,1.9752,-0.0414,0.0366,0.0012,-0.1793,-0.0933,0.0142,3.0,2.0,2.0,0.0,0.1309,-0.0012,0.2026,1,8
10.88,2.9153,1.9131,1.9755,-0.04,0.0347,0.0012,-0.1562,-0.063,0.0098,3.0,2.0,2.0,0.0,0.1237,-0.0012,0.1687,1,8
10.9,2.9211,1.9154,1.9757,-0.0404,0.0315,0.0015,-0.1294,-0.0239,0.0129,3.0,2.0,2.0,0.0,0.1182,-0.0015,0.1322,1,8
10.92,2.9258,1.9164,1.9755,-0.0404,0.0296,0.0014,-0.1042,0.0153,0.0181,3.0,2.0,2.0,0.0,0.1144,-0.0014,0.1068,1,8
