time_s,x,y,z,roll_rad,pitch_rad,yaw_rad,vx_cmd,vy_cmd,vz_cmd,target_x,target_y,target_z,target_yaw,dist_m,yaw_err_rad,speed_ms,wind_enabled,rl_profile
0.02,0.0,0.0,0.9759,0.0,-0.0,0.0,2.5,2.5,1.5,2.0,2.0,2.0,0.0,3.0081,0.0,3.8406,0,0
0.04,0.0,0.0,0.9445,-0.0074,0.0073,-0.0001,0.7963,0.8021,0.8,2.0,2.0,2.0,0.0,3.0189,0.0001,1.3847,0,3
0.06,0.0007,0.0007,0.9376,-0.0136,0.0136,0.001,1.0361,0.9355,0.7476,2.0,2.0,2.0,0.0,3.0205,-0.001,1.5836,0,1
0.08,0.0024,0.0024,0.9501,-0.0196,0.0196,0.0002,0.9221,0.9977,0.4312,2.0,2.0,2.0,0.0,3.0138,-0.0002,1.4253,0,1
0.1,0.0056,0.0056,0.9743,-0.0262,0.0268,0.0003,1.0226,1.0108,0.2417,2.0,2.0,2.0,0.0,3.0012,-0.0003,1.458,0,0
0.12,0.0104,0.0105,0.9994,-0.0326,0.0321,-0.0001,0.6968,0.7241,0.1501,2.0,2.0,2.0,0.0,2.9862,0.0001,1.016,0,3
0.14,0.0171,0.0173,1.0204,-0.0388,0.0384,0.001,0.9792,0.864,0.2678,2.0,2.0,2.0,0.0,2.9702,-0.001,1.3331,0,0
0.16,0.0262,0.0265,1.0409,-0.0441,0.0439,-0.0002,0.307,0.4227,0.125,2.0,2.0,2.0,0.0,2.9514,0.0002,0.5372,0,6
0.18,0.0377,0.0382,1.0596,-0.0484,0.0401,0.002,0.4941,0.2397,0.1702,2.0,2.0,2.0,0.0,2.9298,-0.002,0.5749,0,5
0.2,0.0514,0.0526,1.0752,-0.0468,0.043,0.0004,0.2697,0.4453,0.2369,2.0,2.0,2.0,0.0,2.906,-0.0004,0.5719,0,4
0.22,0.0675,0.0695,1.0895,-0.0456,0.0429,0.0009,0.6869,0.6134,0.3403,2.0,2.0,2.0,0.0,2.8793,-0.0009,0.9818,0,0
0.24,0.086,0.0889,1.1056,-0.0449,0.0484,-0.0008,0.4231,0.5396,0.2515,2.0,2.0,2.0,0.0,2.8488,0.0008,0.7303,0,2
0.26,0.1071,0.1108,1.1225,-0.0497,0.0455,0.0016,0.4696,0.2917,0.2013,2.0,2.0,2.0,0.0,2.8146,-0.0016,0.5883,0,3
0.28,0.1304,0.1351,1.139,-0.0476,0.045,-0.0001,0.2854,0.3738,0.2002,2.0,2.0,2.0,0.0,2.7775,0.0001,0.5112,0,3
0.3,0.1559,0.1616,1.1545,-0.0417,0.0417,0.0005,0.3433,0.2749,0.2324,2.0,2.0,2.0,0.0,2.7378,-0.0005,0.4975,0,2
0.32,0.1832,0.19,1.1699,-0.0378,0.0377,0.0006,-0.1336,-0.1693,0.1419,2.0,2.0,2.0,0.0,2.6956,-0.0006,0.2581,0,6
0.34,0.212,0.2197,1.1844,-0.0278,0.0287,0.0019,-0.1007,-0.261,0.177,2.0,2.0,2.0,0.0,2.6517,-0.0019,0.331,0,5
0.36,0.2417,0.2503,1.1973,-0.0215,0.0227,0.0009,-0.27,-0.2098,0.1395,2.0,2.0,2.0,0.0,2.6072,-0.0009,0.3693,0,7
0.38,0.2719,0.2813,1.2097,-0.0146,0.0172,0.0012,-0.2371,-0.2784,0.1427,2.0,2.0,2.0,0.0,2.5622,-0.0012,0.3925,0,7
0.4,0.3022,0.3121,1.2214,-0.0084,0.0094,0.0009,-0.2485,-0.2308,0.224,2.0,2.0,2.0,0.0,2.5175,-0.0009,0.4065,0,4
0.42,0.3321,0.3424,1.2329,-0.0012,0.0038,0.0008,-0.2318,-0.2432,0.2197,2.0,2.0,2.0,0.0,2.4734,-0.0008,0.4014,0,4
0.44,0.3611,0.3718,1.2456,0.0042,-0.003,0.0005,-0.2405,-0.2225,0.1749,2.0,2.0,2.0,0.0,2.4302,-0.0005,0.3714,0,5
0.46,0.389,0.3998,1.259,0.0111,-0.0083,0.0003,0.1628,0.1647,0.2065,2.0,2.0,2.0,0.0,2.3885,-0.0003,0.3103,0,2
0.48,0.4153,0.4262,1.2729,0.0104,-0.0084,-0.0005,-0.2151,-0.1541,0.1177,2.0,2.0,2.0,0.0,2.3488,0.0005,0.2896,0,6
0.5,0.44,0.4508,1.2856,0.0137,-0.0158,0.0008,0.2272,0.1521,0.18,2.0,2.0,2.0,0.0,2.3117,-0.0008,0.3274,0,3
0.52,0.463,0.4737,1.2974,0.0152,-0.0119,-0.0009,0.2068,0.3345,0.2509,2.0,2.0,2.0,0.0,2.2773,0.0009,0.4665,0,0
0.54,0.4843,0.4947,1.3096,0.0125,-0.0099,0.0001,0.3375,0.2653,0.2343,2.0,2.0,2.0,0.0,2.245,-0.0001,0.4891,0,0
0.56,0.5041,0.5142,1.3228,0.0075,-0.0068,-0.001,-0.0455,0.0581,0.1412,2.0,2.0,2.0,0.0,2.2145,0.001,0.1593,0,4
0.58,0.5227,0.5325,1.3352,0.0055,-0.0124,0.0013,0.3627,0.2254,0.1803,2.0,2.0,2.0,0.0,2.1859,-0.0013,0.4636,0,2
0.6,0.5399,0.5496,1.3465,0.0088,-0.0052,-0.0001,-0.0196,0.0936,0.1453,2.0,2.0,2.0,0.0,2.1593,0.0001,0.1739,0,5
0.62,0.5561,0.5655,1.357,0.0053,-0.0099,0.0016,0.1656,0.0201,0.1708,2.0,2.0,2.0,0.0,2.1345,-0.0016,0.2387,0,4
0.64,0.5711,0.5807,1.3667,0.0045,-0.0099,0.0003,0.3641,0.4506,0.2414,2.0,2.0,2.0,0.0,2.1112,-0.0003,0.6276,0,0
0.66,0.5849,0.595,1.3777,-0.0013,-0.0073,0.0,0.3881,0.3892,0.1974,2.0,2.0,2.0,0.0,2.089,-0.0,0.584,0,1
0.68,0.5977,0.6088,1.3905,-0.0044,-0.0029,0.0,0.4123,0.385,0.1613,2.0,2.0,2.0,0.0,2.0672,-0.0,0.5867,0,1
0.7,0.61,0.6223,1.4032,-0.0046,0.003,0.0005,0.125,0.0604,0.0775,2.0,2.0,2.0,0.0,2.046,-0.0005,0.159,0,6
0.72,0.6221,0.6356,1.4138,-0.0013,0.0063,0.0015,0.1917,0.0703,0.124,2.0,2.0,2.0,0.0,2.0258,-0.0015,0.2389,0,5
0.74,0.6341,0.6486,1.4224,-0.0013,0.0057,0.0005,0.4162,0.4538,0.2241,2.0,2.0,2.0,0.0,2.0064,-0.0005,0.6552,0,0
0.76,0.6461,0.6613,1.4321,-0.0073,0.0075,-0.0004,0.4148,0.4492,0.1993,2.0,2.0,2.0,0.0,1.9869,0.0004,0.6431,0,0
0.78,0.6582,0.674,1.4432,-0.0106,0.0102,0.0003,0.4576,0.3885,0.1676,2.0,2.0,2.0,0.0,1.9669,-0.0003,0.6232,0,0
0.8,0.6707,0.6869,1.455,-0.0134,0.0155,-0.0003,0.0996,0.127,0.0845,2.0,2.0,2.0,0.0,1.9464,0.0003,0.1822,0,5
0.82,0.6837,0.7002,1.4655,-0.0123,0.014,0.0011,0.1941,0.0631,0.111,2.0,2.0,2.0,0.0,1.9256,-0.0011,0.2323,0,4
0.84,0.6971,0.7138,1.4746,-0.0107,0.0135,0.0003,0.0574,0.1039,0.1165,2.0,2.0,2.0,0.0,1.9047,-0.0003,0.1663,0,5
0.86,0.711,0.7277,1.4832,-0.0069,0.0109,0.0004,0.0107,0.0062,0.0859,2.0,2.0,2.0,0.0,1.8834,-0.0004,0.0868,0,7
0.88,0.7252,0.7414,1.491,-0.0037,0.0107,0.0006,0.066,0.0526,0.1307,2.0,2.0,2.0,0.0,1.8623,-0.0006,0.1556,0,5
0.9,0.7396,0.755,1.4987,-0.0019,0.0094,-0.0006,0.2476,0.3212,0.1589,2.0,2.0,2.0,0.0,1.8412,0.0006,0.4356,0,2
0.92,0.754,0.7683,1.5075,-0.0068,0.0077,-0.0004,0.072,0.0845,0.1178,2.0,2.0,2.0,0.0,1.8199,0.0004,0.1618,0,4
0.94,0.7686,0.7816,1.5163,-0.0051,0.0077,0.0001,0.0227,0.0183,0.0857,2.0,2.0,2.0,0.0,1.7986,-0.0001,0.0905,0,6
0.96,0.7831,0.7945,1.524,-0.0009,0.0084,0.0003,0.0069,0.0309,0.0979,2.0,2.0,2.0,0.0,1.7778,-0.0003,0.1028,0,6
0.98,0.7977,0.8072,1.5313,0.0007,0.0055,0.0004,0.2532,0.2817,0.1495,2.0,2.0,2.0,0.0,1.7573,-0.0004,0.4073,0,2
1.0,0.812,0.8194,1.5392,-0.0032,0.0047,-0.0006,0.2633,0.3748,0.161,2.0,2.0,2.0,0.0,1.7371,0.0006,0.4855,0,0
1.02,0.8262,0.8315,1.548,-0.008,0.0046,-0.0001,-0.0106,0.0051,0.0573,2.0,2.0,2.0,0.0,1.7168,0.0001,0.0585,0,7
1.04,0.8401,0.8437,1.5561,-0.0065,0.0029,0.0007,0.2599,0.2595,0.1229,2.0,2.0,2.0,0.0,1.6969,-0.0007,0.3873,0,2
1.06,0.8539,0.8558,1.5637,-0.0071,0.0049,-0.001,-0.013,0.152,0.106,2.0,2.0,2.0,0.0,1.6772,0.001,0.1858,0,4
1.08,0.8674,0.8681,1.5714,-0.0102,-0.0002,0.0003,0.0949,0.0393,0.1019,2.0,2.0,2.0,0.0,1.6576,-0.0003,0.1447,0,4
1.1,0.8804,0.8806,1.5784,-0.0078,-0.0008,-0.0008,-0.002,0.0844,0.0986,2.0,2.0,2.0,0.0,1.6384,0.0008,0.1298,0,5
1.12,0.893,0.8931,1.5849,-0.0046,-0.0008,-0.0005,0.0256,0.0105,0.0898,2.0,2.0,2.0,0.0,1.6196,0.0005,0.094,0,6
1.14,0.9051,0.9055,1.5911,-0.0034,-0.0027,-0.0008,0.2898,0.3002,0.1575,2.0,2.0,2.0,0.0,1.6012,0.0008,0.446,0,0
1.16,0.9167,0.9178,1.5983,-0.0061,-0.0,-0.0017,0.2817,0.3124,0.1343,2.0,2.0,2.0,0.0,1.583,0.0017,0.4416,0,0
1.18,0.9279,0.9301,1.6065,-0.0079,0.0036,-0.0015,0.049,0.0068,0.0537,2.0,2.0,2.0,0.0,1.5649,0.0015,0.073,0,6
1.2,0.9389,0.9424,1.6136,-0.0048,0.0041,-0.0001,0.2581,0.1811,0.0941,2.0,2.0,2.0,0.0,1.5472,0.0001,0.329,0,3
1.22,0.9498,0.9546,1.6197,-0.0031,0.0073,-0.0012,0.0131,0.0373,0.0805,2.0,2.0,2.0,0.0,1.5298,0.0012,0.0897,0,6
1.24,0.9607,0.9667,1.6252,-0.0049,0.003,-0.0,0.3297,0.2361,0.1461,2.0,2.0,2.0,0.0,1.5127,0.0,0.431,0,0
1.26,0.9715,0.9787,1.6314,-0.0047,0.0067,-0.0014,-0.0046,0.0293,-0.019,2.0,2.0,2.0,0.0,1.4956,0.0014,0.0352,0,14
1.28,0.9823,0.9905,1.6368,-0.0026,0.0058,0.0007,0.1157,-0.0052,0.0388,2.0,2.0,2.0,0.0,1.4787,-0.0007,0.1221,0,11
1.3,0.9932,1.0021,1.64,-0.0019,0.0052,-0.0009,0.0214,0.0871,0.0663,2.0,2.0,2.0,0.0,1.4626,0.0009,0.1116,0,12
1.32,1.004,1.0134,1.6425,-0.0006,0.0042,-0.0002,0.0331,-0.0126,0.0512,2.0,2.0,2.0,0.0,1.4467,0.0002,0.0623,0,14
1.34,1.0147,1.0244,1.6451,0.0024,0.0009,-0.0008,0.0031,0.0242,0.0489,2.0,2.0,2.0,0.0,1.4313,0.0008,0.0547,0,14
1.36,1.0252,1.0348,1.6476,0.0042,-0.0001,-0.0006,0.0582,0.0472,0.1357,2.0,2.0,2.0,0.0,1.4164,0.0006,0.155,0,5
1.38,1.0353,1.0447,1.6506,0.0031,-0.0005,-0.0008,0.0558,0.0663,0.127,2.0,2.0,2.0,0.0,1.4019,0.0008,0.1537,0,5
1.4,1.0451,1.054,1.6552,0.004,-0.0002,-0.0006,0.057,0.0597,0.0191,2.0,2.0,2.0,0.0,1.3877,0.0006,0.0848,0,13
1.42,1.0545,1.0627,1.6595,0.003,-0.0007,0.0006,0.06,0.0232,0.0106,2.0,2.0,2.0,0.0,1.3742,-0.0006,0.0652,0,14
1.44,1.0634,1.0709,1.6625,0.0033,-0.0015,-0.0003,0.2707,0.3268,0.1675,2.0,2.0,2.0,0.0,1.3617,0.0003,0.4562,0,0
1.46,1.072,1.0786,1.6664,-0.0002,-0.0001,-0.0014,0.0686,0.12,0.0508,2.0,2.0,2.0,0.0,1.3496,0.0014,0.1473,0,11
1.48,1.0802,1.086,1.6711,-0.0026,-0.0012,0.0007,0.2308,0.1364,0.0719,2.0,2.0,2.0,0.0,1.3377,-0.0007,0.2776,0,8
1.5,1.0882,1.0933,1.6752,-0.0009,0.003,-0.0004,0.024,0.0878,0.0733,2.0,2.0,2.0,0.0,1.3263,0.0004,0.1169,0,7
1.52,1.0961,1.1003,1.6792,-0.003,0.0009,0.0001,0.2867,0.279,0.1281,2.0,2.0,2.0,0.0,1.3151,-0.0001,0.4201,0,1
1.54,1.1037,1.1074,1.6843,-0.0054,0.0029,-0.0011,0.016,0.04,-0.0223,2.0,2.0,2.0,0.0,1.3037,0.0011,0.0485,0,15
1.56,1.1113,1.1145,1.6889,-0.0044,0.0025,0.0009,0.06,0.0328,-0.0019,2.0,2.0,2.0,0.0,1.2925,-0.0009,0.0684,0,14
1.58,1.1188,1.1217,1.6914,-0.0035,0.0019,-0.0004,0.2007,0.2465,0.12,2.0,2.0,2.0,0.0,1.2819,0.0004,0.3397,0,3
1.6,1.1262,1.1289,1.6944,-0.0062,0.0031,-0.0012,0.254,0.2894,0.1354,2.0,2.0,2.0,0.0,1.2711,0.0012,0.4082,0,1
1.62,1.1336,1.1363,1.6995,-0.0084,0.0053,-0.0011,0.0386,0.0351,-0.0259,2.0,2.0,2.0,0.0,1.2597,0.0011,0.0583,0,15
1.64,1.1411,1.144,1.7043,-0.0071,0.0057,0.0002,0.1746,0.1059,0.0479,2.0,2.0,2.0,0.0,1.2481,-0.0002,0.2098,0,9
1.66,1.1488,1.1518,1.7079,-0.005,0.0078,-0.0015,0.2191,0.2817,0.1184,2.0,2.0,2.0,0.0,1.2366,0.0015,0.376,0,1
1.68,1.1567,1.1598,1.7123,-0.009,0.0073,-0.0014,0.2689,0.2592,0.109,2.0,2.0,2.0,0.0,1.2247,0.0014,0.3891,0,0
1.7,1.1649,1.1682,1.718,-0.0122,0.0094,-0.0012,0.0991,0.0844,0.0201,2.0,2.0,2.0,0.0,1.212,0.0012,0.1317,0,10
1.72,1.1733,1.1769,1.7227,-0.0092,0.0107,0.0002,0.0775,0.0115,-0.0041,2.0,2.0,2.0,0.0,1.1991,-0.0002,0.0785,0,13
1.74,1.1822,1.1858,1.7255,-0.0059,0.0115,-0.0001,0.0105,0.0206,0.0253,2.0,2.0,2.0,0.0,1.1862,0.0001,0.0343,0,14
1.76,1.1914,1.1949,1.7269,-0.0048,0.0093,0.0,0.1991,0.1967,0.1404,2.0,2.0,2.0,0.0,1.1733,-0.0,0.3131,0,1
1.78,1.2009,1.204,1.7298,-0.0061,0.0087,-0.0016,-0.0429,0.023,0.0679,2.0,2.0,2.0,0.0,1.1598,0.0016,0.0835,0,7
1.8,1.2107,1.2132,1.7335,-0.0068,0.0051,0.0009,0.2203,0.1416,0.1012,2.0,2.0,2.0,0.0,1.1459,-0.0009,0.2807,0,1
1.82,1.2205,1.2225,1.7375,-0.0044,0.0086,-0.001,-0.04,0.0114,-0.0117,2.0,2.0,2.0,0.0,1.1319,0.001,0.0432,0,15
1.84,1.2305,1.2317,1.7406,-0.0039,0.0058,0.0015,0.2021,0.1334,0.1063,2.0,2.0,2.0,0.0,1.1179,-0.0015,0.2645,0,1
1.86,1.2406,1.2409,1.7435,-0.0036,0.0069,-0.0014,0.1091,0.2441,0.116,2.0,2.0,2.0,0.0,1.104,0.0014,0.2915,0,0
1.88,1.2508,1.25,1.7474,-0.0054,0.008,-0.0001,-0.0188,-0.0411,0.0463,2.0,2.0,2.0,0.0,1.0898,0.0001,0.0647,0,7
1.9,1.2612,1.2591,1.7515,-0.0019,0.0073,-0.0002,-0.0179,0.0255,0.0056,2.0,2.0,2.0,0.0,1.0754,0.0002,0.0317,0,12
1.92,1.2716,1.268,1.7549,-0.0001,0.0048,-0.0002,0.0105,0.0533,0.0499,2.0,2.0,2.0,0.0,1.0613,0.0002,0.0738,0,9
1.94,1.282,1.2767,1.7579,-0.0012,0.0021,-0.0009,0.0022,0.085,0.0617,2.0,2.0,2.0,0.0,1.0475,0.0009,0.1051,0,8
1.96,1.2922,1.2852,1.7611,-0.001,0.0013,-0.0004,0.0194,0.0459,0.0508,2.0,2.0,2.0,0.0,1.0339,0.0004,0.0712,0,9
1.98,1.3022,1.2936,1.764,-0.0006,-0.0004,-0.0011,0.1207,0.1941,0.1033,2.0,2.0,2.0,0.0,1.0206,0.0011,0.2509,0,0
2.0,1.3118,1.3017,1.7675,-0.0036,-0.0014,-0.0011,-0.0124,0.0334,0.0149,2.0,2.0,2.0,0.0,1.0076,0.0011,0.0387,0,12
2.02,1.321,1.3098,1.7706,-0.0045,-0.0033,0.0005,0.0697,0.0414,0.0552,2.0,2.0,2.0,0.0,0.995,-0.0005,0.098,0,8
2.04,1.3297,1.3178,1.7727,-0.0028,-0.0036,-0.0005,-0.0425,0.004,0.0606,2.0,2.0,2.0,0.0,0.983,0.0005,0.0741,0,7
2.06,1.3379,1.3257,1.7753,-0.0027,-0.0048,-0.0002,0.1516,0.1547,0.0943,2.0,2.0,2.0,0.0,0.9714,0.0002,0.2362,0,1
2.08,1.3454,1.3336,1.7789,-0.0028,-0.0035,-0.001,0.0582,0.0858,0.041,2.0,2.0,2.0,0.0,0.9599,0.001,0.1114,0,8
2.1,1.3525,1.3413,1.7823,-0.003,-0.003,0.0009,0.1755,0.117,0.0687,2.0,2.0,2.0,0.0,0.949,-0.0009,0.2218,0,2
2.12,1.3591,1.3489,1.7855,-0.0014,-0.0002,-0.0006,0.1225,0.1439,0.0624,2.0,2.0,2.0,0.0,0.9384,0.0006,0.199,0,3
2.14,1.3655,1.3564,1.7886,-0.0024,0.0015,-0.0002,0.0369,-0.0002,0.0486,2.0,2.0,2.0,0.0,0.9281,0.0002,0.061,0,6
2.16,1.3717,1.3638,1.7916,-0.0013,0.0011,-0.0003,0.1425,0.1261,0.0625,2.0,2.0,2.0,0.0,0.9181,0.0003,0.2002,0,3
2.18,1.3777,1.371,1.7949,-0.0014,0.0014,-0.0006,0.1557,0.1422,0.0633,2.0,2.0,2.0,0.0,0.9082,0.0006,0.2202,0,2
2.2,1.3837,1.3781,1.7985,-0.0025,0.0026,-0.0002,0.0205,-0.0104,-0.0149,2.0,2.0,2.0,0.0,0.8984,0.0002,0.0274,0,15
2.22,1.3896,1.3852,1.8007,-0.0013,0.0034,0.001,0.053,-0.0095,0.0567,2.0,2.0,2.0,0.0,0.889,-0.001,0.0782,0,6
2.24,1.3956,1.392,1.8017,0.0002,0.002,0.0002,0.0343,0.0377,0.0832,2.0,2.0,2.0,0.0,0.8799,-0.0002,0.0976,0,5
2.26,1.4015,1.3987,1.8032,0.0009,0.0021,0.0005,0.0518,0.0224,0.0739,2.0,2.0,2.0,0.0,0.8709,-0.0005,0.093,0,5
2.28,1.4074,1.4051,1.8056,-0.0003,0.0021,0.0,0.0242,0.0239,0.0508,2.0,2.0,2.0,0.0,0.8619,-0.0,0.0612,0,6
2.3,1.4132,1.4113,1.8087,0.0004,0.0025,0.0002,0.0534,0.0412,0.021,2.0,2.0,2.0,0.0,0.8529,-0.0002,0.0707,0,11
2.32,1.4189,1.4172,1.8113,0.0017,0.0012,0.0004,0.1342,0.1272,0.0571,2.0,2.0,2.0,0.0,0.8443,-0.0004,0.1936,0,3
2.34,1.4246,1.4229,1.8141,0.0001,0.0022,-0.0005,0.0441,0.0764,0.054,2.0,2.0,2.0,0.0,0.8359,0.0005,0.1034,0,4
2.36,1.4302,1.4284,1.8173,-0.002,0.0018,-0.0001,0.0711,0.0627,0.0217,2.0,2.0,2.0,0.0,0.8275,0.0001,0.0973,0,10
2.38,1.4357,1.4338,1.8201,-0.0021,0.0015,-0.0007,0.0497,0.075,0.0496,2.0,2.0,2.0,0.0,0.8193,0.0007,0.1027,0,4
2.4,1.4412,1.4391,1.8223,-0.001,0.0022,-0.0004,0.0848,0.0807,0.0425,2.0,2.0,2.0,0.0,0.8115,0.0004,0.1246,0,9
2.42,1.4465,1.4443,1.8244,-0.0016,0.001,-0.0004,0.0456,0.0525,0.0533,2.0,2.0,2.0,0.0,0.8037,0.0004,0.0876,0,5
2.44,1.4518,1.4494,1.827,-0.0026,0.0016,-0.0006,0.1521,0.1634,0.0625,2.0,2.0,2.0,0.0,0.796,0.0006,0.2318,0,1
2.46,1.457,1.4545,1.8302,-0.0031,0.0024,-0.0007,0.0645,0.0708,0.0169,2.0,2.0,2.0,0.0,0.7882,0.0007,0.0972,0,10
2.48,1.4622,1.4595,1.8329,-0.0029,0.0035,0.0005,0.0751,0.0435,0.0117,2.0,2.0,2.0,0.0,0.7805,-0.0005,0.0876,0,12
2.5,1.4675,1.4646,1.8343,-0.0031,0.0034,-0.0006,0.06,0.096,0.0496,2.0,2.0,2.0,0.0,0.7731,0.0006,0.1236,0,9
2.52,1.4727,1.4697,1.8352,-0.0023,0.0031,0.0001,0.0675,0.0558,0.0491,2.0,2.0,2.0,0.0,0.7657,-0.0001,0.1004,0,10
2.54,1.478,1.4748,1.8366,-0.0037,0.0033,-0.0002,0.0523,0.0665,0.0424,2.0,2.0,2.0,0.0,0.7583,0.0002,0.0946,0,10
2.56,1.4834,1.4799,1.8381,-0.0031,0.0038,-0.0004,0.0067,0.0162,0.0164,2.0,2.0,2.0,0.0,0.7508,0.0004,0.024,0,15
2.58,1.4887,1.485,1.8393,-0.0022,0.0026,0.0001,0.0134,0.0077,0.0209,2.0,2.0,2.0,0.0,0.7433,-0.0001,0.026,0,15
2.6,1.494,1.49,1.8405,-0.0016,0.0012,0.0001,0.1097,0.116,0.0638,2.0,2.0,2.0,0.0,0.7359,-0.0001,0.1719,0,3
2.62,1.4992,1.495,1.8424,-0.0019,0.0018,-0.0007,0.0516,0.0816,0.038,2.0,2.0,2.0,0.0,0.7285,0.0007,0.1037,0,9
2.64,1.5044,1.4999,1.8448,-0.0033,0.0021,0.0002,0.0418,0.0279,0.0079,2.0,2.0,2.0,0.0,0.7209,-0.0002,0.0509,0,13
2.66,1.5095,1.5048,1.8466,-0.0015,0.0028,0.0003,0.0201,0.0249,0.0423,2.0,2.0,2.0,0.0,0.7136,-0.0003,0.0531,0,6
2.68,1.5146,1.5096,1.8478,-0.0004,0.0024,0.0002,0.1052,0.1124,0.0588,2.0,2.0,2.0,0.0,0.7066,-0.0002,0.1648,0,3
2.7,1.5196,1.5144,1.8497,-0.0018,0.0013,-0.0002,0.0368,0.0574,0.0228,2.0,2.0,2.0,0.0,0.6994,0.0002,0.0719,0,12
2.72,1.5245,1.5191,1.8516,-0.0031,0.0013,0.0006,0.0418,0.0282,0.0436,2.0,2.0,2.0,0.0,0.6924,-0.0006,0.0667,0,5
2.74,1.5294,1.5237,1.8533,-0.0026,0.0012,0.0001,0.054,0.0754,0.0384,2.0,2.0,2.0,0.0,0.6855,-0.0001,0.1004,0,9
2.76,1.5341,1.5284,1.8546,-0.0013,0.0008,0.0009,0.1474,0.1337,0.0709,2.0,2.0,2.0,0.0,0.6787,-0.0009,0.2112,0,0
2.78,1.5388,1.533,1.8566,-0.0027,0.0026,-0.0003,0.0064,0.0384,0.0345,2.0,2.0,2.0,0.0,0.6718,0.0003,0.0521,0,6
2.8,1.5435,1.5377,1.8589,-0.0044,0.0013,0.0009,0.0512,0.0259,0.0166,2.0,2.0,2.0,0.0,0.6649,-0.0009,0.0597,0,11
2.82,1.5481,1.5425,1.8604,-0.0051,0.0021,-0.0003,0.1087,0.1332,0.0586,2.0,2.0,2.0,0.0,0.658,0.0003,0.1816,0,1
2.84,1.5528,1.5475,1.8623,-0.0053,0.0026,-0.0004,0.0287,0.0244,0.014,2.0,2.0,2.0,0.0,0.6509,0.0004,0.0402,0,13
2.86,1.5574,1.5526,1.8639,-0.0037,0.0035,0.0006,0.0509,0.0119,0.0463,2.0,2.0,2.0,0.0,0.6438,-0.0006,0.0698,0,4
2.88,1.5622,1.5578,1.8651,-0.0029,0.0027,-0.0001,0.0857,0.0923,0.052,2.0,2.0,2.0,0.0,0.6367,0.0001,0.1363,0,3
2.9,1.567,1.563,1.8667,-0.004,0.0023,-0.0,0.1192,0.1077,0.0579,2.0,2.0,2.0,0.0,0.6294,0.0,0.1707,0,0
2.92,1.5719,1.5684,1.869,-0.0045,0.0031,-0.0002,-0.0008,-0.0077,-0.0059,2.0,2.0,2.0,0.0,0.6219,0.0002,0.0097,0,15
2.94,1.5768,1.5738,1.8705,-0.003,0.0036,0.0012,0.1145,0.0774,0.0547,2.0,2.0,2.0,0.0,0.6144,-0.0012,0.1486,0,1
2.96,1.5818,1.5793,1.8718,-0.0017,0.0042,-0.0006,-0.006,0.0286,0.0476,2.0,2.0,2.0,0.0,0.6069,0.0006,0.0558,0,4
2.98,1.5868,1.5847,1.8738,-0.0033,0.002,0.0004,0.0118,-0.0157,0.0033,2.0,2.0,2.0,0.0,0.5993,-0.0004,0.0199,0,14
3.0,1.5918,1.5901,1.8752,-0.0012,-0.0005,-0.001,0.0164,0.0374,0.0336,2.0,2.0,2.0,0.0,0.5918,0.001,0.0529,0,9
3.02,1.5966,1.5954,1.8758,0.0007,0.0005,-0.0,0.0215,-0.0088,0.0353,2.0,2.0,2.0,0.0,0.5847,0.0,0.0423,0,13
3.04,1.6014,1.6005,1.8766,-0.0006,0.0006,-0.0004,0.0304,0.0301,0.0426,2.0,2.0,2.0,0.0,0.5777,0.0004,0.0603,0,9
3.06,1.606,1.6054,1.8778,0.0011,0.0,-0.0001,0.0244,0.0052,0.0472,2.0,2.0,2.0,0.0,0.5709,0.0001,0.0535,0,4
3.08,1.6104,1.6101,1.8793,0.0005,-0.0001,-0.0002,0.0136,0.0082,0.0354,2.0,2.0,2.0,0.0,0.5642,0.0002,0.0388,0,5
3.1,1.6146,1.6146,1.8812,0.0015,0.0004,-0.0001,0.0318,0.0228,0.0111,2.0,2.0,2.0,0.0,0.5578,0.0001,0.0407,0,12
3.12,1.6187,1.6188,1.8829,0.0024,-0.0008,0.0001,0.0084,0.0023,0.0045,2.0,2.0,2.0,0.0,0.5517,-0.0001,0.0099,0,15
3.14,1.6226,1.6227,1.884,0.0015,-0.0005,-0.0001,0.0479,0.0506,0.0336,2.0,2.0,2.0,0.0,0.5461,0.0001,0.0774,0,9
3.16,1.6263,1.6264,1.8854,0.0017,-0.0009,-0.0005,0.0305,0.0388,0.0212,2.0,2.0,2.0,0.0,0.5407,0.0005,0.0537,0,11
3.18,1.6298,1.6299,1.8869,0.0009,-0.0005,0.0,0.1209,0.1118,0.048,2.0,2.0,2.0,0.0,0.5355,-0.0,0.1715,0,0
3.2,1.6332,1.6332,1.8887,0.0005,0.0003,-0.0008,0.0397,0.0583,0.0089,2.0,2.0,2.0,0.0,0.5306,0.0008,0.0711,0,12
3.22,1.6364,1.6363,1.8903,-0.001,0.0003,0.0005,0.0279,0.0101,0.0211,2.0,2.0,2.0,0.0,0.5258,-0.0005,0.0364,0,7
3.24,1.6396,1.6394,1.8914,-0.0009,0.0002,-0.0002,0.067,0.084,0.0371,2.0,2.0,2.0,0.0,0.5213,0.0002,0.1137,0,8
3.26,1.6426,1.6423,1.8926,-0.0005,0.0,-0.0002,0.1094,0.1126,0.0439,2.0,2.0,2.0,0.0,0.5169,0.0002,0.163,0,1
3.28,1.6456,1.6453,1.8946,-0.0016,0.0015,-0.0004,0.021,0.0255,-0.0033,2.0,2.0,2.0,0.0,0.5124,0.0004,0.0332,0,15
3.3,1.6487,1.6482,1.8957,-0.0018,0.0026,0.0009,0.0632,0.0387,0.0371,2.0,2.0,2.0,0.0,0.508,-0.0009,0.0829,0,4
3.32,1.6518,1.6512,1.8961,-0.0012,0.0017,0.0,0.0409,0.0614,0.0389,2.0,2.0,2.0,0.0,0.5037,-0.0,0.0834,0,12
3.34,1.6549,1.6541,1.897,-0.0011,0.0027,0.0006,0.044,0.0393,0.0248,2.0,2.0,2.0,0.0,0.4994,-0.0006,0.064,0,11
3.36,1.6581,1.657,1.8983,-0.0023,0.0025,0.0002,0.0429,0.0573,0.0227,2.0,2.0,2.0,0.0,0.4949,-0.0002,0.0751,0,10
3.38,1.6613,1.6599,1.8996,-0.001,0.0023,0.0004,0.0456,0.0506,0.022,2.0,2.0,2.0,0.0,0.4904,-0.0004,0.0715,0,10
3.4,1.6645,1.6628,1.9003,-0.0026,0.0025,-0.0003,0.0289,0.0545,0.0409,2.0,2.0,2.0,0.0,0.486,0.0003,0.074,0,4
3.42,1.6678,1.6658,1.901,-0.0023,0.0032,0.0001,0.0416,0.044,0.031,2.0,2.0,2.0,0.0,0.4815,-0.0001,0.068,0,12
3.44,1.6712,1.6687,1.9019,-0.0023,0.0018,-0.0004,0.0028,0.0195,0.0278,2.0,2.0,2.0,0.0,0.4769,0.0004,0.0341,0,7
3.46,1.6746,1.6718,1.9029,-0.0027,0.0019,-0.0002,0.0527,0.0612,0.0309,2.0,2.0,2.0,0.0,0.4723,0.0002,0.0865,0,8
3.48,1.678,1.6748,1.9044,-0.002,0.0018,-0.0005,0.0238,0.0403,0.0272,2.0,2.0,2.0,0.0,0.4675,0.0005,0.0541,0,4
3.5,1.6814,1.678,1.9061,-0.0026,0.0021,-0.0003,0.0408,0.048,0.0162,2.0,2.0,2.0,0.0,0.4626,0.0003,0.0651,0,9
3.52,1.6849,1.6811,1.9076,-0.0026,0.001,-0.0001,0.0745,0.0787,0.028,2.0,2.0,2.0,0.0,0.4577,0.0001,0.1119,0,2
3.54,1.6883,1.6844,1.9092,-0.0026,0.002,-0.0005,0.0748,0.088,0.0298,2.0,2.0,2.0,0.0,0.4528,0.0005,0.1192,0,1
3.56,1.6918,1.6877,1.9108,-0.003,0.0031,-0.0002,0.0263,0.0257,0.0069,2.0,2.0,2.0,0.0,0.4477,0.0002,0.0374,0,12
3.58,1.6954,1.6912,1.9121,-0.0037,0.0031,-0.0,0.0665,0.0687,0.0289,2.0,2.0,2.0,0.0,0.4426,0.0,0.0999,0,2
3.6,1.699,1.6948,1.9134,-0.0031,0.0025,-0.0006,0.0273,0.0408,0.0215,2.0,2.0,2.0,0.0,0.4373,0.0006,0.0536,0,8
3.62,1.7027,1.6985,1.915,-0.0037,0.0028,-0.0002,0.0147,0.0114,0.0099,2.0,2.0,2.0,0.0,0.4319,0.0002,0.0211,0,11
3.64,1.7065,1.7022,1.9163,-0.0029,0.0028,-0.0003,0.0206,0.0228,0.0175,2.0,2.0,2.0,0.0,0.4264,0.0003,0.0353,0,9
3.66,1.7102,1.706,1.9171,-0.0013,0.0018,0.0003,0.0151,0.0057,0.0242,2.0,2.0,2.0,0.0,0.4211,-0.0003,0.0291,0,12
3.68,1.7139,1.7098,1.9176,-0.0026,0.0015,0.0001,0.0202,0.0249,0.0341,2.0,2.0,2.0,0.0,0.4157,-0.0001,0.0468,0,8
3.7,1.7177,1.7136,1.9183,-0.0008,0.0015,0.0002,0.0179,0.0142,0.0277,2.0,2.0,2.0,0.0,0.4104,-0.0002,0.0359,0,9
3.72,1.7214,1.7174,1.9193,-0.0017,0.0011,0.0002,0.0074,0.0086,0.0181,2.0,2.0,2.0,0.0,0.405,-0.0002,0.0213,0,12
3.74,1.725,1.721,1.9201,-0.0006,0.0014,0.0005,0.025,0.0179,0.0271,2.0,2.0,2.0,0.0,0.3998,-0.0005,0.041,0,8
3.76,1.7285,1.7246,1.9207,0.0001,-0.0002,0.0004,-0.0083,-0.0059,0.0263,2.0,2.0,2.0,0.0,0.3947,-0.0004,0.0282,0,6
3.78,1.732,1.7281,1.9216,-0.0002,0.0003,0.0002,0.0047,0.0087,0.0171,2.0,2.0,2.0,0.0,0.3898,-0.0002,0.0198,0,13
3.8,1.7353,1.7314,1.9226,0.0008,-0.0006,0.0004,0.0266,0.0248,0.024,2.0,2.0,2.0,0.0,0.385,-0.0004,0.0436,0,8
3.82,1.7385,1.7346,1.9231,0.0005,-0.0011,0.0008,0.0004,-0.0032,0.0272,2.0,2.0,2.0,0.0,0.3804,-0.0008,0.0274,0,6
3.84,1.7416,1.7377,1.9237,0.0003,-0.0,0.0002,0.0251,0.0371,0.0294,2.0,2.0,2.0,0.0,0.376,-0.0002,0.0536,0,8
3.86,1.7445,1.7406,1.9248,0.0009,-0.001,0.0002,0.0166,0.0181,0.0129,2.0,2.0,2.0,0.0,0.3718,-0.0002,0.0277,0,11
3.88,1.7473,1.7434,1.9256,-0.0003,-0.0012,0.0008,0.0222,0.0156,0.0264,2.0,2.0,2.0,0.0,0.3677,-0.0008,0.0378,0,4
3.9,1.75,1.746,1.9262,0.0006,-0.0012,0.0007,0.0653,0.0684,0.035,2.0,2.0,2.0,0.0,0.364,-0.0007,0.1008,0,1
3.92,1.7525,1.7485,1.9273,0.0007,-0.0003,0.0002,0.014,0.0228,0.0197,2.0,2.0,2.0,0.0,0.3603,-0.0002,0.0333,0,5
3.94,1.7549,1.7508,1.9286,-0.0004,0.0002,0.0005,0.0632,0.0634,0.0196,2.0,2.0,2.0,0.0,0.3567,-0.0005,0.0917,0,2
3.96,1.7572,1.7532,1.9299,-0.0002,0.0,0.0,0.0301,0.0376,0.0058,2.0,2.0,2.0,0.0,0.3532,-0.0,0.0485,0,12
3.98,1.7595,1.7554,1.9311,-0.001,0.0007,0.0003,0.0237,0.0225,0.0154,2.0,2.0,2.0,0.0,0.3499,-0.0003,0.0361,0,5
4.0,1.7617,1.7576,1.9319,-0.0012,0.0006,0.0002,0.0401,0.0438,0.0205,2.0,2.0,2.0,0.0,0.3467,-0.0002,0.0629,0,9
4.02,1.7639,1.7597,1.9326,0.0001,0.0006,0.0001,0.0685,0.0726,0.0291,2.0,2.0,2.0,0.0,0.3436,-0.0001,0.104,0,1
4.04,1.7661,1.7618,1.9337,-0.001,0.0013,-0.0002,0.066,0.0729,0.0229,2.0,2.0,2.0,0.0,0.3404,0.0002,0.101,0,1
4.06,1.7683,1.764,1.9345,-0.0026,0.0025,0.0005,0.0373,0.0302,0.0172,2.0,2.0,2.0,0.0,0.3372,-0.0005,0.051,0,12
4.08,1.7705,1.7662,1.9352,-0.0025,0.0024,-0.0001,0.0559,0.0632,0.0255,2.0,2.0,2.0,0.0,0.334,0.0001,0.0881,0,2
4.1,1.7728,1.7686,1.9361,-0.0021,0.0018,-0.0001,0.028,0.0294,0.0127,2.0,2.0,2.0,0.0,0.3306,0.0001,0.0426,0,12
4.12,1.7752,1.771,1.9372,-0.0029,0.0027,-0.0001,0.0096,0.0098,0.0042,2.0,2.0,2.0,0.0,0.327,0.0001,0.0143,0,15
4.14,1.7776,1.7734,1.9381,-0.0025,0.0025,-0.0002,0.0054,0.0069,0.0146,2.0,2.0,2.0,0.0,0.3235,0.0002,0.017,0,6
4.16,1.7801,1.7759,1.9387,-0.0014,0.0016,-0.0007,-0.0029,0.0027,0.0152,2.0,2.0,2.0,0.0,0.3199,0.0007,0.0157,0,7
4.18,1.7825,1.7784,1.9389,-0.001,0.0014,0.0002,0.0482,0.0414,0.028,2.0,2.0,2.0,0.0,0.3165,-0.0002,0.0694,0,3
4.2,1.7849,1.7809,1.9393,-0.0008,0.001,-0.0006,0.0483,0.0578,0.0302,2.0,2.0,2.0,0.0,0.313,0.0006,0.0812,0,1
4.22,1.7874,1.7834,1.9401,-0.001,0.0017,-0.0001,0.0321,0.024,0.0188,2.0,2.0,2.0,0.0,0.3094,0.0001,0.0443,0,8
4.24,1.7898,1.7859,1.9411,-0.0019,0.0025,-0.0004,0.0034,0.0055,0.0049,2.0,2.0,2.0,0.0,0.3057,0.0004,0.0081,0,15
4.26,1.7923,1.7885,1.942,-0.0015,0.0016,-0.0001,-0.0029,-0.0047,0.0111,2.0,2.0,2.0,0.0,0.3021,0.0001,0.0124,0,7
4.28,1.7948,1.7909,1.9423,-0.0016,0.0,0.0001,0.0179,0.0154,0.0251,2.0,2.0,2.0,0.0,0.2986,-0.0001,0.0345,0,12
4.3,1.7972,1.7934,1.9428,-0.0006,-0.0004,-0.0004,0.0216,0.0279,0.0236,2.0,2.0,2.0,0.0,0.2951,0.0004,0.0424,0,8
4.32,1.7995,1.7959,1.9436,-0.0003,0.0005,-0.0,0.0151,0.0091,0.012,2.0,2.0,2.0,0.0,0.2916,0.0,0.0213,0,11
4.34,1.8018,1.7984,1.9444,-0.0019,0.0002,-0.0001,0.0056,0.0034,0.0078,2.0,2.0,2.0,0.0,0.2881,0.0001,0.0102,0,15
4.36,1.804,1.8008,1.9446,-0.0005,0.0005,0.0005,0.0235,0.0117,0.0225,2.0,2.0,2.0,0.0,0.2849,-0.0005,0.0346,0,10
4.38,1.8061,1.8032,1.9444,0.0003,-0.0007,0.0001,0.0067,0.0056,0.0256,2.0,2.0,2.0,0.0,0.2818,-0.0001,0.0271,0,15
4.4,1.8082,1.8055,1.9445,0.0001,0.0008,0.0003,0.0183,0.0123,0.0212,2.0,2.0,2.0,0.0,0.2788,-0.0003,0.0306,0,11
4.42,1.8101,1.8077,1.9446,0.0,-0.0007,0.0006,0.0193,0.0129,0.0209,2.0,2.0,2.0,0.0,0.2759,-0.0006,0.0312,0,11
4.44,1.8121,1.8098,1.9451,0.0003,-0.0005,0.0002,0.0266,0.0255,0.0204,2.0,2.0,2.0,0.0,0.273,-0.0002,0.0421,0,9
4.46,1.8139,1.8119,1.9456,0.0008,0.0002,0.0007,0.0534,0.0455,0.0253,2.0,2.0,2.0,0.0,0.2702,-0.0007,0.0746,0,1
4.48,1.8157,1.8139,1.9463,-0.0001,0.0005,0.0,0.0262,0.0285,0.0166,2.0,2.0,2.0,0.0,0.2674,-0.0,0.0422,0,9
4.5,1.8175,1.8158,1.9472,-0.0013,0.0009,0.0003,0.0218,0.0162,0.0086,2.0,2.0,2.0,0.0,0.2646,-0.0003,0.0284,0,11
4.52,1.8193,1.8177,1.9481,-0.0012,0.0005,0.0001,0.0246,0.0234,0.0111,2.0,2.0,2.0,0.0,0.2619,-0.0001,0.0357,0,10
4.54,1.821,1.8196,1.9483,0.0006,0.0007,0.0006,0.0202,0.0126,0.0199,2.0,2.0,2.0,0.0,0.2593,-0.0006,0.031,0,14
4.56,1.8227,1.8214,1.9481,-0.0011,0.0011,0.0005,0.0539,0.0533,0.0376,2.0,2.0,2.0,0.0,0.2569,-0.0005,0.0846,0,0
4.58,1.8245,1.8232,1.9485,-0.0008,0.0009,-0.0,0.0065,0.0104,0.0179,2.0,2.0,2.0,0.0,0.2544,0.0,0.0217,0,6
4.6,1.8262,1.825,1.9493,-0.001,0.0013,0.0004,0.0337,0.0294,0.0141,2.0,2.0,2.0,0.0,0.2518,-0.0004,0.0469,0,8
4.62,1.828,1.8268,1.9502,-0.0005,0.0011,-0.0001,0.0157,0.0195,0.0077,2.0,2.0,2.0,0.0,0.2491,0.0001,0.0262,0,11
4.64,1.8298,1.8286,1.9509,-0.0008,0.002,0.0004,0.0317,0.0274,0.0171,2.0,2.0,2.0,0.0,0.2465,-0.0004,0.0452,0,8
4.66,1.8316,1.8303,1.9511,-0.0009,0.0007,0.0002,0.0,0.0034,0.016,2.0,2.0,2.0,0.0,0.244,-0.0002,0.0164,0,7
4.68,1.8335,1.8321,1.9515,-0.0011,0.0013,0.0,-0.0008,0.0035,0.0139,2.0,2.0,2.0,0.0,0.2414,-0.0,0.0144,0,7
4.7,1.8353,1.8338,1.9522,-0.0005,0.0011,0.0001,0.0245,0.0286,0.0146,2.0,2.0,2.0,0.0,0.2388,-0.0001,0.0405,0,8
4.72,1.8372,1.8355,1.9532,-0.0002,0.0005,-0.0002,0.0116,0.0178,0.0066,2.0,2.0,2.0,0.0,0.2361,0.0002,0.0222,0,11
4.74,1.8391,1.8372,1.9539,-0.0013,0.0011,0.0002,0.0122,0.0129,0.0092,2.0,2.0,2.0,0.0,0.2335,-0.0002,0.02,0,14
4.76,1.8409,1.8389,1.9537,-0.0014,0.0004,-0.0002,0.0374,0.0442,0.0318,2.0,2.0,2.0,0.0,0.2311,0.0002,0.066,0,1
4.78,1.8427,1.8406,1.9536,-0.0004,0.0003,-0.0006,0.0148,0.0212,0.0231,2.0,2.0,2.0,0.0,0.2287,0.0006,0.0347,0,10
4.8,1.8444,1.8423,1.9542,-0.0013,0.0013,-0.0004,0.0134,0.015,0.0114,2.0,2.0,2.0,0.0,0.2262,0.0004,0.0231,0,11
4.82,1.8462,1.8439,1.9548,-0.0018,0.0007,-0.0001,0.0382,0.0399,0.0182,2.0,2.0,2.0,0.0,0.2238,0.0001,0.0582,0,1
4.84,1.848,1.8456,1.9554,-0.0006,0.0002,-0.0005,0.0381,0.045,0.0179,2.0,2.0,2.0,0.0,0.2213,0.0005,0.0615,0,0
4.86,1.8497,1.8473,1.9556,-0.0008,0.0013,-0.0003,0.0111,0.0105,0.0196,2.0,2.0,2.0,0.0,0.2188,0.0003,0.0249,0,14
4.88,1.8515,1.8491,1.9558,-0.002,0.0017,-0.0006,0.0364,0.0404,0.0255,2.0,2.0,2.0,0.0,0.2163,0.0006,0.0601,0,0
4.9,1.8532,1.8509,1.9565,-0.0014,0.0007,-0.0006,0.0086,0.0087,0.0089,2.0,2.0,2.0,0.0,0.2137,0.0006,0.0151,0,14
4.92,1.855,1.8527,1.9573,-0.0017,0.0014,-0.0004,0.0088,0.0068,0.0055,2.0,2.0,2.0,0.0,0.211,0.0004,0.0124,0,14
4.94,1.8568,1.8546,1.9579,-0.0014,0.0013,-0.0003,0.0313,0.0307,0.0157,2.0,2.0,2.0,0.0,0.2084,0.0003,0.0465,0,1
4.96,1.8587,1.8564,1.9586,-0.0007,0.0009,-0.0007,0.013,0.0157,0.0129,2.0,2.0,2.0,0.0,0.2057,0.0007,0.0241,0,8
4.98,1.8605,1.8583,1.9594,-0.0015,0.0016,-0.0004,0.0074,0.005,0.0075,2.0,2.0,2.0,0.0,0.2029,0.0004,0.0117,0,11
5.0,1.8623,1.8602,1.9597,-0.0018,0.0008,-0.0,0.0284,0.0267,0.0179,2.0,2.0,2.0,0.0,0.2003,0.0,0.0429,0,1
5.02,1.8642,1.8621,1.9602,-0.0003,0.0004,-0.0005,0.0049,0.0081,0.015,2.0,2.0,2.0,0.0,0.1976,0.0005,0.0177,0,13
5.04,1.866,1.8639,1.9609,-0.0011,0.0012,-0.0004,-0.0028,-0.0044,0.0082,2.0,2.0,2.0,0.0,0.1949,0.0004,0.0097,0,5
5.06,1.8678,1.8658,1.9613,-0.0013,0.0004,0.0,0.0243,0.0228,0.0152,2.0,2.0,2.0,0.0,0.1923,-0.0,0.0366,0,2
5.08,1.8696,1.8676,1.9617,0.0001,-0.0002,-0.0005,0.0068,0.0106,0.0166,2.0,2.0,2.0,0.0,0.1897,0.0005,0.0208,0,12
5.1,1.8713,1.8693,1.9619,-0.0003,0.001,0.0003,-0.0042,-0.0095,0.0126,2.0,2.0,2.0,0.0,0.1873,-0.0003,0.0163,0,7
5.12,1.873,1.8711,1.9616,-0.0009,-0.0001,0.0003,0.011,0.0104,0.0252,2.0,2.0,2.0,0.0,0.185,-0.0003,0.0294,0,9
5.14,1.8746,1.8727,1.9612,0.0015,0.0001,0.0005,-0.0022,-0.0038,0.0236,2.0,2.0,2.0,0.0,0.1828,-0.0005,0.024,0,6
5.16,1.8762,1.8742,1.9612,0.0007,0.0009,0.0002,-0.0057,-0.0021,0.0153,2.0,2.0,2.0,0.0,0.1807,-0.0002,0.0165,0,7
5.18,1.8777,1.8757,1.9613,0.001,0.0006,0.0004,0.0226,0.0242,0.0189,2.0,2.0,2.0,0.0,0.1786,-0.0004,0.0381,0,3
5.2,1.8792,1.877,1.9615,0.0011,-0.0005,-0.0001,0.0097,0.0169,0.0183,2.0,2.0,2.0,0.0,0.1766,0.0001,0.0267,0,13
5.22,1.8806,1.8783,1.9618,0.0004,0.0007,0.0005,0.0048,0.0065,0.0151,2.0,2.0,2.0,0.0,0.1747,-0.0005,0.0172,0,5
5.24,1.882,1.8794,1.9618,-0.0002,-0.0001,0.0004,0.0061,0.0145,0.0207,2.0,2.0,2.0,0.0,0.173,-0.0004,0.0261,0,4
5.26,1.8833,1.8805,1.9617,0.0013,-0.0006,0.0006,0.0032,0.0084,0.0192,2.0,2.0,2.0,0.0,0.1714,-0.0006,0.0212,0,6
5.28,1.8845,1.8815,1.9613,-0.0002,-0.0001,0.0009,0.0106,0.0165,0.028,2.0,2.0,2.0,0.0,0.17,-0.0009,0.0342,0,4
5.3,1.8857,1.8824,1.9613,0.0006,-0.0005,0.0002,0.0119,0.0221,0.0208,2.0,2.0,2.0,0.0,0.1685,-0.0002,0.0326,0,14
5.32,1.8868,1.8833,1.9615,0.001,-0.0002,0.0009,0.0077,0.0101,0.0142,2.0,2.0,2.0,0.0,0.167,-0.0009,0.0191,0,6
5.34,1.8879,1.8842,1.9618,-0.001,-0.0001,0.0003,0.0221,0.0343,0.0191,2.0,2.0,2.0,0.0,0.1656,-0.0003,0.045,0,8
5.36,1.889,1.885,1.9617,0.0002,-0.0001,0.001,0.031,0.0331,0.0223,2.0,2.0,2.0,0.0,0.1644,-0.001,0.0505,0,2
5.38,1.89,1.8859,1.9615,-0.0007,-0.0004,0.0003,0.0025,0.0112,0.0173,2.0,2.0,2.0,0.0,0.1631,-0.0003,0.0208,0,7
5.4,1.891,1.8868,1.9617,-0.0016,0.0006,0.0004,0.0223,0.0271,0.018,2.0,2.0,2.0,0.0,0.1618,-0.0004,0.0395,0,9
5.42,1.892,1.8877,1.9622,-0.0007,-0.0001,0.0001,0.0151,0.02,0.0102,2.0,2.0,2.0,0.0,0.1604,-0.0001,0.0271,0,11
5.44,1.893,1.8886,1.9629,-0.0013,0.0008,0.0001,0.0249,0.0285,0.0111,2.0,2.0,2.0,0.0,0.1589,-0.0001,0.0394,0,8
5.46,1.8939,1.8896,1.9636,-0.0011,0.0002,-0.0001,0.0158,0.018,0.0065,2.0,2.0,2.0,0.0,0.1574,0.0001,0.0248,0,14
5.48,1.8949,1.8906,1.9643,-0.0018,0.001,-0.0001,0.021,0.0217,0.0093,2.0,2.0,2.0,0.0,0.1558,0.0001,0.0316,0,9
5.5,1.896,1.8917,1.965,-0.0011,0.0004,-0.0003,0.0052,0.0059,0.0059,2.0,2.0,2.0,0.0,0.1542,0.0003,0.0099,0,6
5.52,1.897,1.8928,1.9656,-0.0016,0.0011,-0.0003,0.0284,0.0283,0.01,2.0,2.0,2.0,0.0,0.1526,0.0003,0.0413,0,1
5.54,1.898,1.894,1.9664,-0.0011,0.0007,-0.0006,0.029,0.0291,0.009,2.0,2.0,2.0,0.0,0.1509,0.0006,0.0421,0,0
5.56,1.8991,1.8952,1.9673,-0.0015,0.0009,-0.0005,0.012,0.009,0.0034,2.0,2.0,2.0,0.0,0.1491,0.0005,0.0154,0,11
5.58,1.9002,1.8965,1.9681,-0.0019,0.0015,-0.0005,0.0042,0.0007,0.0024,2.0,2.0,2.0,0.0,0.1472,0.0005,0.0049,0,5
5.6,1.9014,1.8979,1.9688,-0.0015,0.0011,-0.0006,0.0166,0.0124,0.0078,2.0,2.0,2.0,0.0,0.1454,0.0006,0.0221,0,8
5.62,1.9025,1.8992,1.9695,-0.0006,0.0002,-0.0007,0.011,0.0075,0.0066,2.0,2.0,2.0,0.0,0.1435,0.0007,0.0149,0,10
5.64,1.9037,1.9006,1.9702,-0.0014,0.0013,-0.0006,0.0122,0.0071,0.0066,2.0,2.0,2.0,0.0,0.1416,0.0006,0.0156,0,13
5.66,1.9048,1.902,1.9709,-0.0012,0.0009,-0.0005,0.0101,0.0048,0.0047,2.0,2.0,2.0,0.0,0.1396,0.0005,0.0121,0,10
5.68,1.906,1.9034,1.9713,-0.0011,0.001,-0.0011,0.0077,0.0061,0.0097,2.0,2.0,2.0,0.0,0.1378,0.0011,0.0138,0,10
5.7,1.9072,1.9048,1.9714,0.0001,0.0015,0.0002,0.0096,0.0002,0.0142,2.0,2.0,2.0,0.0,0.136,-0.0002,0.0171,0,11
5.72,1.9085,1.9062,1.9708,-0.0006,0.0009,-0.0009,0.0145,0.0172,0.0244,2.0,2.0,2.0,0.0,0.1343,0.0009,0.0332,0,2
5.74,1.9097,1.9075,1.9703,0.0006,0.001,-0.0002,-0.0027,-0.0073,0.0215,2.0,2.0,2.0,0.0,0.1326,0.0002,0.0229,0,6
5.76,1.911,1.9088,1.9703,-0.0002,0.0014,-0.0006,0.0035,0.0053,0.0173,2.0,2.0,2.0,0.0,0.1308,0.0006,0.0184,0,15
5.78,1.9123,1.9101,1.9706,0.0007,0.0007,-0.0001,-0.0047,-0.0059,0.0089,2.0,2.0,2.0,0.0,0.129,0.0001,0.0117,0,6
5.8,1.9136,1.9113,1.9704,-0.0006,0.0002,0.0004,0.0165,0.0179,0.0221,2.0,2.0,2.0,0.0,0.1274,-0.0004,0.0329,0,0
5.82,1.9148,1.9124,1.9704,0.0003,-0.0001,-0.0003,0.0043,0.0105,0.0209,2.0,2.0,2.0,0.0,0.1257,0.0003,0.0238,0,13
5.84,1.9161,1.9135,1.9705,0.0001,0.0009,0.0006,0.0094,0.0091,0.0181,2.0,2.0,2.0,0.0,0.1241,-0.0006,0.0224,0,8
5.86,1.9173,1.9146,1.9701,-0.0002,-0.0007,-0.0004,0.0133,0.0218,0.0265,2.0,2.0,2.0,0.0,0.1226,0.0004,0.0368,0,0
5.88,1.9184,1.9157,1.9697,0.0004,-0.0001,0.0002,0.0169,0.018,0.0265,2.0,2.0,2.0,0.0,0.1211,-0.0002,0.0362,0,0
5.9,1.9196,1.9168,1.9699,-0.0011,0.0002,0.0002,0.0072,0.0103,0.0176,2.0,2.0,2.0,0.0,0.1196,-0.0002,0.0216,0,13
5.92,1.9207,1.9179,1.9702,-0.0012,0.0004,0.0005,0.0062,0.0067,0.0112,2.0,2.0,2.0,0.0,0.118,-0.0005,0.0144,0,15
5.94,1.9217,1.9189,1.9699,-0.0009,-0.0001,0.0004,0.0079,0.0087,0.0261,2.0,2.0,2.0,0.0,0.1166,-0.0004,0.0286,0,14
5.96,1.9228,1.9199,1.9699,0.0006,-0.0007,0.0001,0.0058,0.0075,0.0154,2.0,2.0,2.0,0.0,0.1153,-0.0001,0.0181,0,11
5.98,1.9237,1.9209,1.9699,-0.0003,0.0002,-0.0003,0.0164,0.018,0.0173,2.0,2.0,2.0,0.0,0.1139,0.0003,0.0298,0,1
6.0,1.9246,1.9219,1.9702,-0.0003,-0.0005,-0.0003,0.0105,0.0093,0.0148,2.0,2.0,2.0,0.0,0.1126,0.0003,0.0204,0,14
6.02,1.9255,1.9229,1.9704,-0.001,0.0,0.0001,0.012,0.0092,0.0144,2.0,2.0,2.0,0.0,0.1113,-0.0001,0.0209,0,14
6.04,1.9263,1.9238,1.9708,-0.0003,0.0,-0.0001,0.0129,0.0116,0.0118,2.0,2.0,2.0,0.0,0.11,0.0001,0.021,0,13
6.06,1.9271,1.9247,1.971,0.0002,0.0,-0.0007,0.0106,0.0105,0.0163,2.0,2.0,2.0,0.0,0.1087,0.0007,0.0222,0,14
6.08,1.9279,1.9257,1.9711,-0.001,0.0009,-0.0007,0.0119,0.0093,0.0177,2.0,2.0,2.0,0.0,0.1075,0.0007,0.0233,0,14
6.1,1.9287,1.9266,1.9715,-0.0013,0.0004,-0.0003,0.0136,0.0093,0.0116,2.0,2.0,2.0,0.0,0.1062,0.0003,0.0202,0,13
6.12,1.9296,1.9276,1.972,-0.0006,0.0003,-0.0004,0.0148,0.0132,0.0081,2.0,2.0,2.0,0.0,0.1048,0.0004,0.0214,0,2
6.14,1.9304,1.9286,1.9719,-0.0001,0.0008,-0.0003,0.0077,0.0043,0.016,2.0,2.0,2.0,0.0,0.1035,0.0003,0.0183,0,11
6.16,1.9313,1.9297,1.9717,-0.0014,0.001,-0.0005,0.0067,0.0045,0.016,2.0,2.0,2.0,0.0,0.1023,0.0005,0.0179,0,11
6.18,1.9322,1.9307,1.9722,-0.0009,0.0005,-0.0002,0.0112,0.0062,0.0112,2.0,2.0,2.0,0.0,0.1009,0.0002,0.0171,0,13
6.2,1.9331,1.9318,1.9723,0.0001,0.0002,0.0001,0.0078,0.0043,0.0149,2.0,2.0,2.0,0.0,0.0995,-0.0001,0.0174,0,15
6.22,1.934,1.9328,1.9721,-0.0003,0.0016,-0.0006,0.0039,0.0045,0.0171,2.0,2.0,2.0,0.0,0.0983,0.0006,0.0181,0,11
6.24,1.9349,1.9338,1.9712,-0.0004,0.0015,-0.0001,0.0056,0.0026,0.0271,2.0,2.0,2.0,0.0,0.0972,0.0001,0.0278,0,11
6.26,1.9358,1.9347,1.9707,-0.0008,-0.0004,0.0001,0.0065,0.0052,0.0279,2.0,2.0,2.0,0.0,0.0961,-0.0001,0.0291,0,15
6.28,1.9368,1.9357,1.9706,-0.0,-0.0006,-0.0006,0.0036,0.0038,0.0163,2.0,2.0,2.0,0.0,0.0948,0.0006,0.0171,0,11
6.3,1.9376,1.9367,1.9704,-0.0008,0.0005,-0.0003,0.0091,0.0042,0.023,2.0,2.0,2.0,0.0,0.0937,0.0003,0.0251,0,8
6.32,1.9384,1.9377,1.9697,-0.0006,-0.0005,-0.0002,0.0087,0.004,0.0313,2.0,2.0,2.0,0.0,0.0927,0.0002,0.0328,0,8
6.34,1.9393,1.9387,1.9698,-0.0002,0.0001,-0.0001,0.0079,0.0045,0.0163,2.0,2.0,2.0,0.0,0.0914,0.0001,0.0186,0,15
6.36,1.94,1.9397,1.9704,-0.0003,0.0003,0.0001,0.0085,0.0042,0.0065,2.0,2.0,2.0,0.0,0.09,-0.0001,0.0115,0,15
6.38,1.9408,1.9407,1.971,-0.0005,-0.0001,0.0001,0.0086,0.0044,0.0061,2.0,2.0,2.0,0.0,0.0887,-0.0001,0.0114,0,15
6.4,1.9416,1.9416,1.9718,-0.0003,0.0,0.0001,0.0101,0.0033,0.005,2.0,2.0,2.0,0.0,0.0873,-0.0001,0.0117,0,8
6.42,1.9423,1.9426,1.9725,-0.0002,0.0002,0.0005,0.0104,0.003,0.0061,2.0,2.0,2.0,0.0,0.0859,-0.0005,0.0125,0,8
6.44,1.943,1.9435,1.9733,-0.0,0.0005,0.0003,0.009,0.0046,0.004,2.0,2.0,2.0,0.0,0.0846,-0.0003,0.0108,0,8
6.46,1.9438,1.9444,1.9737,0.0002,0.0007,0.0012,0.0109,0.0026,0.0112,2.0,2.0,2.0,0.0,0.0834,-0.0012,0.0158,0,8
6.48,1.9445,1.9453,1.9738,-0.0011,-0.0006,0.0011,0.0094,0.0042,0.0165,2.0,2.0,2.0,0.0,0.0823,-0.0011,0.0194,0,8
6.5,1.9452,1.9462,1.9741,-0.0006,-0.0001,0.0012,0.0096,0.0046,0.0111,2.0,2.0,2.0,0.0,0.0811,-0.0012,0.0154,0,15
6.52,1.9458,1.9471,1.9748,-0.0003,0.0002,0.0009,0.0056,0.0006,0.0,2.0,2.0,2.0,0.0,0.0798,-0.0009,0.0057,0,15
6.54,1.9464,1.948,1.9755,-0.0006,0.0005,0.0009,0.0099,0.0016,0.0011,2.0,2.0,2.0,0.0,0.0786,-0.0009,0.0101,0,12
6.56,1.947,1.9489,1.9753,-0.0002,-0.0006,0.0007,0.0094,0.0017,0.02,2.0,2.0,2.0,0.0,0.0777,-0.0007,0.0221,0,12
6.58,1.9476,1.9497,1.9756,-0.0,0.0002,0.0007,0.0086,0.0013,0.0097,2.0,2.0,2.0,0.0,0.0766,-0.0007,0.013,0,13
6.6,1.9482,1.9506,1.9763,-0.0,0.0007,0.0005,0.0094,0.0024,0.0003,2.0,2.0,2.0,0.0,0.0754,-0.0005,0.0097,0,12
6.62,1.9488,1.9514,1.9767,0.0,0.0004,0.0002,0.0087,0.0027,0.0062,2.0,2.0,2.0,0.0,0.0743,-0.0002,0.011,0,12
6.64,1.9495,1.9522,1.9773,-0.0001,0.0008,0.0003,0.0085,0.0023,0.0028,2.0,2.0,2.0,0.0,0.0732,-0.0003,0.0093,0,12
6.66,1.9501,1.953,1.9781,-0.0001,0.0008,0.0002,0.0047,0.0019,-0.0028,2.0,2.0,2.0,0.0,0.0719,-0.0002,0.0058,0,15
6.68,1.9508,1.9537,1.9779,0.0001,0.0014,0.0003,0.0048,0.002,0.0158,2.0,2.0,2.0,0.0,0.0711,-0.0003,0.0166,0,15
6.7,1.9515,1.9545,1.978,0.0003,0.0006,0.0002,0.0039,0.0029,0.0113,2.0,2.0,2.0,0.0,0.0701,-0.0002,0.0123,0,15
6.72,1.9522,1.9552,1.9786,0.0003,0.0003,0.0004,0.0047,0.0035,0.0017,2.0,2.0,2.0,0.0,0.069,-0.0004,0.0061,0,14
6.74,1.9529,1.9558,1.9791,0.0,0.0004,0.0001,0.0036,0.0045,0.0026,2.0,2.0,2.0,0.0,0.0679,-0.0001,0.0063,0,14
6.76,1.9536,1.9565,1.9796,0.0,0.0008,0.0004,0.0049,0.005,0.0035,2.0,2.0,2.0,0.0,0.0668,-0.0004,0.0078,0,12
6.78,1.9543,1.9571,1.9803,0.0,0.0004,0.0,0.0025,0.0049,0.0005,2.0,2.0,2.0,0.0,0.0657,-0.0,0.0055,0,14
6.8,1.955,1.9577,1.9805,-0.0,0.0006,0.0,0.0024,0.0043,0.0073,2.0,2.0,2.0,0.0,0.0647,-0.0,0.0088,0,15
6.82,1.9558,1.9583,1.9809,-0.0,0.0001,0.0,0.0029,0.0054,0.0045,2.0,2.0,2.0,0.0,0.0637,-0.0,0.0076,0,14
6.84,1.9565,1.9589,1.9816,0.0002,0.0,-0.0001,0.0029,0.0057,-0.0007,2.0,2.0,2.0,0.0,0.0627,0.0001,0.0064,0,14
6.86,1.9572,1.9594,1.9823,0.0,0.0002,-0.0,0.0027,0.0051,-0.0015,2.0,2.0,2.0,0.0,0.0616,0.0,0.0059,0,15
6.88,1.9578,1.9599,1.983,-0.0002,0.0003,-0.0001,0.003,0.0061,-0.0018,2.0,2.0,2.0,0.0,0.0606,0.0001,0.0071,0,14
6.9,1.9585,1.9605,1.9837,0.0001,0.0001,-0.0001,-0.0049,-0.0018,-0.0098,2.0,2.0,2.0,0.0,0.0596,0.0001,0.0111,0,14
6.92,1.9592,1.9609,1.9841,-0.0003,0.0004,-0.0002,-0.0044,-0.0012,-0.0049,2.0,2.0,2.0,0.0,0.0587,0.0002,0.0068,0,14
6.94,1.9598,1.9614,1.9845,0.0002,-0.0002,-0.0002,-0.0041,-0.0009,-0.0044,2.0,2.0,2.0,0.0,0.0578,0.0002,0.0061,0,14
6.96,1.9604,1.9619,1.985,0.0004,-0.0004,-0.0002,-0.0036,-0.0003,-0.0067,2.0,2.0,2.0,0.0,0.057,0.0002,0.0076,0,14
6.98,1.961,1.9623,1.9855,0.0003,-0.0003,-0.0002,-0.003,0.0002,-0.0062,2.0,2.0,2.0,0.0,0.0562,0.0002,0.0069,0,14
7.0,1.9615,1.9627,1.986,0.0002,-0.0002,-0.0002,-0.0025,0.0007,-0.0057,2.0,2.0,2.0,0.0,0.0554,0.0002,0.0062,0,14
7.02,1.962,1.963,1.9865,0.0003,-0.0003,-0.0002,-0.0019,0.0012,-0.0061,2.0,2.0,2.0,0.0,0.0547,0.0002,0.0065,0,14
7.04,1.9625,1.9634,1.9869,0.0003,-0.0003,-0.0002,-0.0013,0.0017,-0.0062,2.0,2.0,2.0,0.0,0.054,0.0002,0.0065,0,14
7.06,1.963,1.9637,1.9874,0.0002,-0.0003,-0.0002,-0.0008,0.0022,-0.006,2.0,2.0,2.0,0.0,0.0534,0.0002,0.0065,0,14
7.08,1.9634,1.964,1.9879,0.0002,-0.0003,-0.0002,-0.0002,0.0026,-0.0062,2.0,2.0,2.0,0.0,0.0528,0.0002,0.0067,0,14
7.1,1.9638,1.9642,1.9883,0.0002,-0.0003,-0.0002,0.0003,0.0029,-0.0064,2.0,2.0,2.0,0.0,0.0522,0.0002,0.007,0,14
7.12,1.9642,1.9645,1.9888,0.0001,-0.0002,-0.0002,0.0008,0.0032,-0.0065,2.0,2.0,2.0,0.0,0.0517,0.0002,0.0073,0,14
7.14,1.9645,1.9647,1.9893,0.0001,-0.0002,-0.0002,0.0012,0.0034,-0.0067,2.0,2.0,2.0,0.0,0.0512,0.0002,0.0076,0,14
7.16,1.9648,1.965,1.9898,0.0,-0.0001,-0.0002,0.0015,0.0036,-0.0069,2.0,2.0,2.0,0.0,0.0507,0.0002,0.0079,0,14
7.18,1.9652,1.9652,1.9902,-0.0,-0.0001,-0.0002,0.0018,0.0037,-0.0071,2.0,2.0,2.0,0.0,0.0502,0.0002,0.0082,0,14
7.2,1.9655,1.9654,1.9907,-0.0001,-0.0001,-0.0002,0.0021,0.0038,-0.0072,2.0,2.0,2.0,0.0,0.0497,0.0002,0.0084,0,14
7.22,1.9657,1.9657,1.9912,-0.0001,-0.0,-0.0001,0.0023,0.0038,-0.0074,2.0,2.0,2.0,0.0,0.0493,0.0001,0.0086,0,14
7.24,1.966,1.9659,1.9917,-0.0001,0.0,-0.0001,0.0024,0.0038,-0.0075,2.0,2.0,2.0,0.0,0.0489,0.0001,0.0087,0,14
7.26,1.9663,1.9661,1.9922,-0.0002,0.0001,-0.0001,0.0025,0.0037,-0.0076,2.0,2.0,2.0,0.0,0.0484,0.0001,0.0088,0,14
7.28,1.9666,1.9663,1.9926,-0.0002,0.0001,-0.0001,0.0026,0.0036,-0.0077,2.0,2.0,2.0,0.0,0.048,0.0001,0.0088,0,14
7.3,1.9668,1.9666,1.9931,-0.0002,0.0001,-0.0001,0.0023,0.0032,-0.0078,2.0,2.0,2.0,0.0,0.0476,0.0001,0.0087,0,14
7.32,1.9671,1.9668,1.9936,-0.0003,0.0002,-0.0001,0.0023,0.0031,-0.0075,2.0,2.0,2.0,0.0,0.0472,0.0001,0.0084,0,14
7.34,1.9674,1.967,1.994,-0.0002,0.0001,-0.0001,0.0023,0.0029,-0.0076,2.0,2.0,2.0,0.0,0.0468,0.0001,0.0085,0,14
7.36,1.9676,1.9673,1.9945,-0.0002,0.0001,-0.0001,0.0022,0.0027,-0.0078,2.0,2.0,2.0,0.0,0.0464,0.0001,0.0086,0,14
7.38,1.9679,1.9675,1.9949,-0.0003,0.0002,-0.0001,0.0021,0.0025,-0.0078,2.0,2.0,2.0,0.0,0.0459,0.0001,0.0085,0,14
7.4,1.9682,1.9678,1.9954,-0.0003,0.0002,-0.0001,0.002,0.0023,-0.0078,2.0,2.0,2.0,0.0,0.0455,0.0001,0.0084,0,14
7.42,1.9684,1.968,1.9958,-0.0003,0.0002,-0.0,0.0019,0.0022,-0.0079,2.0,2.0,2.0,0.0,0.0451,0.0,0.0084,0,14
7.44,1.9687,1.9683,1.9963,-0.0003,0.0002,-0.0,0.0018,0.002,-0.0079,2.0,2.0,2.0,0.0,0.0447,0.0,0.0083,0,14
7.46,1.969,1.9686,1.9967,-0.0003,0.0002,-0.0,0.0017,0.0018,-0.0079,2.0,2.0,2.0,0.0,0.0443,0.0,0.0083,0,14
7.48,1.9693,1.9689,1.9972,-0.0003,0.0002,-0.0,0.0016,0.0016,-0.0079,2.0,2.0,2.0,0.0,0.0438,0.0,0.0082,0,14
7.5,1.9695,1.9692,1.9976,-0.0003,0.0002,-0.0,0.0014,0.0014,-0.008,2.0,2.0,2.0,0.0,0.0434,0.0,0.0082,0,14
7.52,1.9698,1.9695,1.998,-0.0002,0.0002,-0.0,0.0013,0.0013,-0.008,2.0,2.0,2.0,0.0,0.043,0.0,0.0082,0,14
7.54,1.9701,1.9697,1.9984,-0.0002,0.0002,-0.0,0.0012,0.0011,-0.008,2.0,2.0,2.0,0.0,0.0426,0.0,0.0082,0,14
7.56,1.9704,1.97,1.9989,-0.0002,0.0002,-0.0,0.0011,0.001,-0.0081,2.0,2.0,2.0,0.0,0.0421,0.0,0.0082,0,14
7.58,1.9707,1.9703,1.9993,-0.0002,0.0002,-0.0,0.0009,0.0008,-0.0081,2.0,2.0,2.0,0.0,0.0417,0.0,0.0082,0,14
7.6,1.971,1.9706,1.9997,-0.0002,0.0002,-0.0,0.0008,0.0007,-0.0081,2.0,2.0,2.0,0.0,0.0413,0.0,0.0082,0,14
7.62,1.9713,1.971,2.0001,-0.0002,0.0002,-0.0,0.0007,0.0006,-0.0082,2.0,2.0,2.0,0.0,0.0408,0.0,0.0082,0,14
7.64,1.9716,1.9713,2.0005,-0.0002,0.0002,-0.0,0.0007,0.0005,-0.0082,2.0,2.0,2.0,0.0,0.0404,0.0,0.0083,0,14
7.66,1.9719,1.9716,2.0009,-0.0002,0.0002,-0.0,0.0006,0.0005,-0.0082,2.0,2.0,2.0,0.0,0.04,0.0,0.0083,0,14
7.68,1.9722,1.9719,2.0013,-0.0002,0.0002,0.0,0.0005,0.0004,-0.0083,2.0,2.0,2.0,0.0,0.0396,-0.0,0.0083,0,14
7.7,1.9725,1.9722,2.0017,-0.0002,0.0002,0.0,0.0002,0.0001,-0.0083,2.0,2.0,2.0,0.0,0.0392,-0.0,0.0083,0,14
7.72,1.9728,1.9725,2.0021,-0.0002,0.0002,-0.0,0.0002,0.0001,-0.0082,2.0,2.0,2.0,0.0,0.0388,0.0,0.0082,0,14
7.74,1.9731,1.9728,2.0025,-0.0001,0.0001,0.0,0.0002,0.0001,-0.0082,2.0,2.0,2.0,0.0,0.0384,-0.0,0.0082,0,14
7.76,1.9733,1.9731,2.0028,-0.0001,0.0001,0.0,0.0001,0.0001,-0.0084,2.0,2.0,2.0,0.0,0.038,-0.0,0.0084,0,14
7.78,1.9736,1.9734,2.0032,-0.0001,0.0001,0.0,0.0001,0.0001,-0.0084,2.0,2.0,2.0,0.0,0.0376,-0.0,0.0084,0,14
7.8,1.9739,1.9737,2.0036,-0.0001,0.0001,0.0,0.0001,0.0001,-0.0084,2.0,2.0,2.0,0.0,0.0372,-0.0,0.0084,0,14
7.82,1.9742,1.974,2.004,-0.0001,0.0001,0.0,0.0001,0.0001,-0.0085,2.0,2.0,2.0,0.0,0.0369,-0.0,0.0085,0,14
7.84,1.9745,1.9742,2.0043,-0.0001,0.0001,0.0,0.0001,0.0001,-0.0085,2.0,2.0,2.0,0.0,0.0365,-0.0,0.0085,0,14
7.86,1.9748,1.9745,2.0047,-0.0001,0.0001,0.0,0.0001,0.0001,-0.0085,2.0,2.0,2.0,0.0,0.0362,-0.0,0.0085,0,14
7.88,1.975,1.9748,2.0051,-0.0001,0.0001,0.0,0.0001,0.0001,-0.0085,2.0,2.0,2.0,0.0,0.0358,-0.0,0.0085,0,14
7.9,1.9753,1.9751,2.0054,-0.0001,0.0001,0.0,0.0001,0.0001,-0.0086,2.0,2.0,2.0,0.0,0.0355,-0.0,0.0086,0,14
7.92,1.9756,1.9754,2.0058,-0.0001,0.0001,0.0,0.0002,0.0001,-0.0086,2.0,2.0,2.0,0.0,0.0352,-0.0,0.0086,0,14
7.94,1.9759,1.9756,2.0061,-0.0001,0.0001,0.0,0.0002,0.0001,-0.0086,2.0,2.0,2.0,0.0,0.0348,-0.0,0.0086,0,14
7.96,1.9761,1.9759,2.0065,-0.0001,0.0001,0.0,0.0002,0.0001,-0.0086,2.0,2.0,2.0,0.0,0.0345,-0.0,0.0086,0,14
7.98,1.9764,1.9762,2.0068,-0.0001,0.0001,0.0,0.0002,0.0001,-0.0087,2.0,2.0,2.0,0.0,0.0342,-0.0,0.0087,0,14
8.0,1.9766,1.9764,2.0072,-0.0001,0.0001,0.0,0.0002,0.0001,-0.0087,2.0,2.0,2.0,0.0,0.0339,-0.0,0.0087,0,14
8.02,1.9769,1.9767,2.0075,-0.0001,0.0001,0.0,0.0002,0.0001,-0.0087,2.0,2.0,2.0,0.0,0.0337,-0.0,0.0087,0,14
8.04,1.9772,1.977,2.0078,-0.0001,0.0001,0.0,0.0002,0.0001,-0.0087,2.0,2.0,2.0,0.0,0.0334,-0.0,0.0087,0,14
8.06,1.9774,1.9772,2.0082,-0.0001,0.0001,0.0,0.0002,0.0001,-0.0087,2.0,2.0,2.0,0.0,0.0331,-0.0,0.0087,0,14
8.08,1.9777,1.9775,2.0085,-0.0001,0.0001,0.0,0.0002,0.0001,-0.0088,2.0,2.0,2.0,0.0,0.0329,-0.0,0.0088,0,14
8.1,1.9779,1.9777,2.0088,-0.0001,0.0001,0.0,-0.0001,-0.0002,-0.0087,2.0,2.0,2.0,0.0,0.0326,-0.0,0.0087,0,14
8.12,1.9781,1.978,2.0092,-0.0001,0.0001,0.0,-0.0,-0.0001,-0.0087,2.0,2.0,2.0,0.0,0.0323,-0.0,0.0087,0,14
8.14,1.9784,1.9782,2.0095,-0.0001,0.0001,0.0,-0.0,-0.0002,-0.0087,2.0,2.0,2.0,0.0,0.0321,-0.0,0.0087,0,14
8.16,1.9786,1.9785,2.0098,-0.0001,0.0001,0.0,-0.0,-0.0001,-0.0088,2.0,2.0,2.0,0.0,0.0319,-0.0,0.0088,0,14
8.18,1.9789,1.9787,2.0101,-0.0001,0.0001,0.0,-0.0,-0.0002,-0.0088,2.0,2.0,2.0,0.0,0.0316,-0.0,0.0088,0,14
8.2,1.9791,1.979,2.0104,-0.0001,0.0001,0.0,-0.0,-0.0002,-0.0088,2.0,2.0,2.0,0.0,0.0314,-0.0,0.0088,0,14
8.22,1.9793,1.9792,2.0107,-0.0001,0.0001,0.0,-0.0,-0.0002,-0.0089,2.0,2.0,2.0,0.0,0.0312,-0.0,0.0089,0,14
8.24,1.9796,1.9794,2.011,-0.0001,0.0001,0.0,-0.0,-0.0002,-0.0089,2.0,2.0,2.0,0.0,0.031,-0.0,0.0089,0,14
8.26,1.9798,1.9797,2.0113,-0.0001,0.0001,0.0,-0.0,-0.0002,-0.0089,2.0,2.0,2.0,0.0,0.0308,-0.0,0.0089,0,14
8.28,1.98,1.9799,2.0116,-0.0001,0.0001,0.0,-0.0001,-0.0002,-0.0089,2.0,2.0,2.0,0.0,0.0306,-0.0,0.0089,0,14
8.3,1.9803,1.9802,2.0119,-0.0001,0.0001,0.0,-0.0001,-0.0002,-0.0089,2.0,2.0,2.0,0.0,0.0304,-0.0,0.0089,0,14
8.32,1.9805,1.9804,2.0122,-0.0001,0.0001,0.0,-0.0001,-0.0002,-0.009,2.0,2.0,2.0,0.0,0.0302,-0.0,0.009,0,14
8.34,1.9807,1.9806,2.0125,-0.0001,0.0001,0.0,-0.0001,-0.0002,-0.009,2.0,2.0,2.0,0.0,0.0301,-0.0,0.009,0,14
8.36,1.9809,1.9808,2.0128,-0.0001,0.0001,0.0,-0.0001,-0.0003,-0.009,2.0,2.0,2.0,0.0,0.0299,-0.0,0.009,0,14
8.38,1.9811,1.9811,2.0131,-0.0001,0.0001,0.0,-0.0001,-0.0003,-0.009,2.0,2.0,2.0,0.0,0.0297,-0.0,0.009,0,14
8.4,1.9814,1.9813,2.0134,-0.0001,0.0001,0.0,-0.0001,-0.0003,-0.009,2.0,2.0,2.0,0.0,0.0296,-0.0,0.009,0,14
8.42,1.9816,1.9815,2.0136,-0.0001,0.0001,0.0,-0.0002,-0.0003,-0.009,2.0,2.0,2.0,0.0,0.0294,-0.0,0.009,0,14
8.44,1.9818,1.9818,2.0139,-0.0001,0.0001,0.0,-0.0002,-0.0003,-0.0091,2.0,2.0,2.0,0.0,0.0293,-0.0,0.0091,0,14
8.46,1.982,1.982,2.0142,-0.0001,0.0001,0.0,-0.0002,-0.0004,-0.0091,2.0,2.0,2.0,0.0,0.0291,-0.0,0.0091,0,14
8.48,1.9822,1.9822,2.0145,-0.0001,0.0001,0.0,-0.0002,-0.0004,-0.0091,2.0,2.0,2.0,0.0,0.029,-0.0,0.0091,0,14
8.5,1.9824,1.9824,2.0147,-0.0001,0.0001,0.0,-0.0004,-0.0005,-0.009,2.0,2.0,2.0,0.0,0.0289,-0.0,0.009,0,14
8.52,1.9826,1.9826,2.015,-0.0001,0.0001,0.0,-0.0004,-0.0005,-0.009,2.0,2.0,2.0,0.0,0.0288,-0.0,0.009,0,14
8.54,1.9829,1.9828,2.0152,-0.0001,0.0001,0.0,-0.0004,-0.0006,-0.0091,2.0,2.0,2.0,0.0,0.0286,-0.0,0.0091,0,14
8.56,1.9831,1.9831,2.0155,-0.0001,0.0001,0.0,-0.0004,-0.0006,-0.0091,2.0,2.0,2.0,0.0,0.0285,-0.0,0.0091,0,14
8.58,1.9833,1.9833,2.0158,-0.0001,0.0001,0.0,-0.0004,-0.0006,-0.0091,2.0,2.0,2.0,0.0,0.0284,-0.0,0.0091,0,14
8.6,1.9835,1.9835,2.016,-0.0001,0.0001,0.0,-0.0004,-0.0006,-0.0091,2.0,2.0,2.0,0.0,0.0283,-0.0,0.0092,0,14
8.62,1.9837,1.9837,2.0163,-0.0001,0.0001,0.0,-0.0004,-0.0006,-0.0091,2.0,2.0,2.0,0.0,0.0282,-0.0,0.0092,0,14
8.64,1.9839,1.9839,2.0165,-0.0001,0.0001,0.0,-0.0004,-0.0006,-0.0092,2.0,2.0,2.0,0.0,0.0281,-0.0,0.0092,0,14
8.66,1.9841,1.9841,2.0168,-0.0001,0.0001,0.0,-0.0004,-0.0006,-0.0092,2.0,2.0,2.0,0.0,0.0281,-0.0,0.0092,0,14
8.68,1.9843,1.9843,2.017,-0.0001,0.0001,0.0,-0.0004,-0.0006,-0.0092,2.0,2.0,2.0,0.0,0.028,-0.0,0.0092,0,14
8.7,1.9845,1.9845,2.0172,-0.0001,0.0001,0.0,-0.0004,-0.0006,-0.0092,2.0,2.0,2.0,0.0,0.0279,-0.0,0.0092,0,14
8.72,1.9847,1.9847,2.0175,-0.0001,0.0001,0.0,-0.0004,-0.0006,-0.0092,2.0,2.0,2.0,0.0,0.0278,-0.0,0.0092,0,14
8.74,1.9849,1.9849,2.0177,-0.0001,0.0001,0.0,-0.0004,-0.0006,-0.0092,2.0,2.0,2.0,0.0,0.0278,-0.0,0.0093,0,14
8.76,1.985,1.9851,2.018,-0.0001,0.0001,0.0,-0.0005,-0.0006,-0.0092,2.0,2.0,2.0,0.0,0.0277,-0.0,0.0093,0,14
8.78,1.9852,1.9853,2.0182,-0.0001,0.0001,0.0,-0.0005,-0.0006,-0.0093,2.0,2.0,2.0,0.0,0.0277,-0.0,0.0093,0,14
8.8,1.9854,1.9855,2.0184,-0.0001,0.0001,0.0,-0.0005,-0.0006,-0.0093,2.0,2.0,2.0,0.0,0.0276,-0.0,0.0093,0,14
8.82,1.9856,1.9857,2.0186,-0.0001,0.0001,0.0,-0.0005,-0.0007,-0.0093,2.0,2.0,2.0,0.0,0.0276,-0.0,0.0093,0,14
8.84,1.9858,1.9859,2.0189,-0.0001,0.0001,0.0,-0.0005,-0.0007,-0.0093,2.0,2.0,2.0,0.0,0.0275,-0.0,0.0093,0,14
8.86,1.986,1.9861,2.0191,-0.0001,0.0001,0.0,-0.0005,-0.0007,-0.0093,2.0,2.0,2.0,0.0,0.0275,-0.0,0.0093,0,14
8.88,1.9862,1.9863,2.0193,-0.0001,0.0001,0.0,-0.0005,-0.0007,-0.0093,2.0,2.0,2.0,0.0,0.0274,-0.0,0.0094,0,14
8.9,1.9863,1.9865,2.0195,-0.0001,0.0001,0.0,-0.0007,-0.0008,-0.0092,2.0,2.0,2.0,0.0,0.0274,-0.0,0.0092,0,14
8.92,1.9865,1.9866,2.0197,-0.0001,0.0001,0.0,-0.0007,-0.0008,-0.0092,2.0,2.0,2.0,0.0,0.0274,-0.0,0.0093,0,14
8.94,1.9867,1.9868,2.0199,-0.0001,0.0001,0.0,-0.0007,-0.0008,-0.0093,2.0,2.0,2.0,0.0,0.0274,-0.0,0.0093,0,14
8.96,1.9869,1.987,2.0201,-0.0001,0.0001,0.0,-0.0007,-0.0008,-0.0093,2.0,2.0,2.0,0.0,0.0273,-0.0,0.0094,0,14
8.98,1.987,1.9872,2.0204,-0.0001,0.0001,0.0,-0.0007,-0.0008,-0.0093,2.0,2.0,2.0,0.0,0.0273,-0.0,0.0094,0,14
9.0,1.9872,1.9874,2.0206,-0.0001,0.0001,0.0,-0.0007,-0.0008,-0.0093,2.0,2.0,2.0,0.0,0.0273,-0.0,0.0094,0,14
9.02,1.9874,1.9875,2.0208,-0.0001,0.0001,0.0,-0.0007,-0.0008,-0.0093,2.0,2.0,2.0,0.0,0.0273,-0.0,0.0094,0,14
9.04,1.9876,1.9877,2.021,-0.0001,0.0001,0.0,-0.0007,-0.0008,-0.0093,2.0,2.0,2.0,0.0,0.0273,-0.0,0.0094,0,14
9.06,1.9877,1.9879,2.0212,-0.0001,0.0001,0.0,-0.0007,-0.0009,-0.0094,2.0,2.0,2.0,0.0,0.0273,-0.0,0.0094,0,14
9.08,1.9879,1.9881,2.0214,-0.0001,0.0001,0.0,-0.0007,-0.0009,-0.0094,2.0,2.0,2.0,0.0,0.0273,-0.0,0.0094,0,14
9.1,1.9881,1.9882,2.0216,-0.0001,0.0001,0.0,-0.0007,-0.0009,-0.0094,2.0,2.0,2.0,0.0,0.0273,-0.0,0.0094,0,14
9.12,1.9882,1.9884,2.0218,-0.0001,0.0001,0.0,-0.0007,-0.0009,-0.0094,2.0,2.0,2.0,0.0,0.0273,-0.0,0.0094,0,14
9.14,1.9884,1.9886,2.0219,-0.0001,0.0001,0.0,-0.0007,-0.0009,-0.0094,2.0,2.0,2.0,0.0,0.0273,-0.0,0.0095,0,14
9.16,1.9886,1.9887,2.0221,-0.0001,0.0001,0.0,-0.0007,-0.0009,-0.0094,2.0,2.0,2.0,0.0,0.0273,-0.0,0.0095,0,14
9.18,1.9887,1.9889,2.0223,-0.0001,0.0001,0.0,-0.0007,-0.0009,-0.0094,2.0,2.0,2.0,0.0,0.0274,-0.0,0.0095,0,14
9.2,1.9889,1.9891,2.0225,-0.0001,0.0001,0.0,-0.0007,-0.0009,-0.0094,2.0,2.0,2.0,0.0,0.0274,-0.0,0.0095,0,14
9.22,1.989,1.9892,2.0227,-0.0001,0.0001,0.0,-0.0007,-0.0009,-0.0094,2.0,2.0,2.0,0.0,0.0274,-0.0,0.0095,0,14
9.24,1.9892,1.9894,2.0229,-0.0001,0.0001,0.0,-0.0007,-0.0009,-0.0094,2.0,2.0,2.0,0.0,0.0274,-0.0,0.0095,0,14
9.26,1.9893,1.9896,2.023,-0.0001,0.0001,0.0,-0.0008,-0.0009,-0.0094,2.0,2.0,2.0,0.0,0.0274,-0.0,0.0095,0,14
9.28,1.9895,1.9897,2.0232,-0.0001,0.0001,0.0,-0.0008,-0.0009,-0.0095,2.0,2.0,2.0,0.0,0.0275,-0.0,0.0095,0,14
9.3,1.9897,1.9899,2.0234,-0.0001,0.0001,0.0,-0.0009,-0.001,-0.0093,2.0,2.0,2.0,0.0,0.0275,-0.0,0.0094,0,14
9.32,1.9898,1.99,2.0236,-0.0001,0.0001,0.0,-0.0009,-0.001,-0.0094,2.0,2.0,2.0,0.0,0.0275,-0.0,0.0095,0,14
9.34,1.99,1.9902,2.0237,-0.0001,0.0001,0.0,-0.0009,-0.0011,-0.0094,2.0,2.0,2.0,0.0,0.0276,-0.0,0.0095,0,14
9.36,1.9901,1.9903,2.0239,-0.0001,0.0001,0.0,-0.0009,-0.0011,-0.0094,2.0,2.0,2.0,0.0,0.0276,-0.0,0.0095,0,14
9.38,1.9903,1.9905,2.0241,-0.0001,0.0001,0.0,-0.0009,-0.0011,-0.0094,2.0,2.0,2.0,0.0,0.0276,-0.0,0.0095,0,14
9.4,1.9904,1.9907,2.0242,-0.0001,0.0001,0.0,-0.0009,-0.0011,-0.0094,2.0,2.0,2.0,0.0,0.0277,-0.0,0.0095,0,14
9.42,1.9905,1.9908,2.0244,-0.0001,0.0001,0.0,-0.0009,-0.0011,-0.0094,2.0,2.0,2.0,0.0,0.0277,-0.0,0.0095,0,14
9.44,1.9907,1.991,2.0246,-0.0001,0.0001,0.0,-0.0009,-0.0011,-0.0094,2.0,2.0,2.0,0.0,0.0278,-0.0,0.0096,0,14
9.46,1.9908,1.9911,2.0247,-0.0001,0.0001,0.0,-0.0009,-0.0011,-0.0095,2.0,2.0,2.0,0.0,0.0278,-0.0,0.0096,0,14
9.48,1.991,1.9913,2.0249,-0.0001,0.0001,0.0,-0.0009,-0.0011,-0.0095,2.0,2.0,2.0,0.0,0.0279,-0.0,0.0096,0,14
9.5,1.9911,1.9914,2.025,-0.0001,0.0001,0.0,-0.0009,-0.0011,-0.0095,2.0,2.0,2.0,0.0,0.0279,-0.0,0.0096,0,14
9.52,1.9913,1.9915,2.0252,-0.0001,0.0001,0.0,-0.0009,-0.0011,-0.0095,2.0,2.0,2.0,0.0,0.028,-0.0,0.0096,0,14
9.54,1.9913,1.9915,2.0253,-0.0013,0.0004,-0.0,0.0002,0.0025,-0.0094,2.0,2.0,2.0,0.0,0.0281,0.0,0.0097,1,14
9.56,1.9912,1.9908,2.0248,-0.0009,0.0004,-0.0004,0.0064,0.0223,0.0031,2.0,2.0,2.0,0.0,0.0279,0.0004,0.0234,1,12
9.58,1.9909,1.9895,2.0238,-0.002,0.0009,-0.0001,0.0112,0.0365,0.0129,2.0,2.0,2.0,0.0,0.0276,0.0001,0.0403,1,13
9.6,1.9904,1.9876,2.0229,-0.0036,0.0011,-0.0002,0.0141,0.0456,0.0122,2.0,2.0,2.0,0.0,0.0278,0.0002,0.0493,1,14
9.62,1.9897,1.9853,2.0221,-0.0049,0.0013,0.0001,0.0223,0.0698,0.0105,2.0,2.0,2.0,0.0,0.0285,-0.0001,0.074,1,12
9.64,1.9889,1.9825,2.0212,-0.0064,0.0019,0.0003,0.0232,0.0736,0.0124,2.0,2.0,2.0,0.0,0.0296,-0.0003,0.0781,1,13
9.66,1.988,1.9795,2.0201,-0.0083,0.0023,-0.0003,0.0195,0.04,0.0177,2.0,2.0,2.0,0.0,0.0311,0.0003,0.0479,1,15
9.68,1.9871,1.9762,2.0191,-0.0103,0.0029,0.0001,0.0241,0.06,0.0143,2.0,2.0,2.0,0.0,0.0331,-0.0001,0.0662,1,14
9.7,1.9862,1.9727,2.0185,-0.0098,0.0034,-0.0001,0.025,0.06,0.0065,2.0,2.0,2.0,0.0,0.0358,0.0001,0.0653,1,14
9.72,1.9852,1.969,2.0182,-0.0116,0.0037,-0.0002,0.026,0.06,0.0027,2.0,2.0,2.0,0.0,0.0389,0.0002,0.0655,1,14
9.74,1.9841,1.9652,2.018,-0.0136,0.0045,-0.0002,0.027,0.06,-0.0005,2.0,2.0,2.0,0.0,0.0423,0.0002,0.0658,1,14
9.76,1.9831,1.9612,2.0179,-0.0148,0.0052,-0.0003,0.0282,0.06,-0.0033,2.0,2.0,2.0,0.0,0.046,0.0003,0.0664,1,14
9.78,1.9819,1.957,2.0179,-0.0158,0.0058,-0.0003,0.03,0.06,-0.0033,2.0,2.0,2.0,0.0,0.05,0.0003,0.0672,1,14
9.8,1.9807,1.9526,2.0177,-0.017,0.0063,-0.0002,0.0319,0.06,-0.0019,2.0,2.0,2.0,0.0,0.0541,0.0002,0.068,1,14
9.82,1.9795,1.9481,2.0176,-0.0183,0.0068,-0.0002,0.0331,0.06,-0.0015,2.0,2.0,2.0,0.0,0.0585,0.0002,0.0685,1,14
9.84,1.9783,1.9434,2.0176,-0.0198,0.0074,-0.0002,0.0324,0.06,-0.0039,2.0,2.0,2.0,0.0,0.0631,0.0002,0.0683,1,14
9.86,1.9773,1.9382,2.0176,-0.0215,0.0078,-0.0001,0.029,0.06,-0.0061,2.0,2.0,2.0,0.0,0.0682,0.0001,0.0669,1,14
9.88,1.9765,1.9324,2.0167,-0.0227,0.008,-0.0001,0.023,0.06,0.015,2.0,2.0,2.0,0.0,0.0735,0.0001,0.066,1,14
9.9,1.9761,1.9262,2.0153,-0.0232,0.0077,-0.0005,0.0142,0.06,0.0234,2.0,2.0,2.0,0.0,0.0791,0.0005,0.066,1,14
9.92,1.9761,1.9202,2.0143,-0.0239,0.0075,-0.0001,0.0052,0.04,0.0163,2.0,2.0,2.0,0.0,0.0845,0.0001,0.0435,1,15
9.94,1.9766,1.9146,2.0138,-0.0254,0.0063,-0.0003,-0.0031,0.15,0.003,2.0,2.0,2.0,0.0,0.0896,0.0003,0.1501,1,10
9.96,1.9775,1.9095,2.0133,-0.0283,0.0084,-0.0004,-0.0146,0.15,0.0017,2.0,2.0,2.0,0.0,0.0942,0.0004,0.1507,1,10
9.98,1.9788,1.9051,2.0128,-0.0303,0.008,-0.0003,-0.0256,0.1447,0.0036,2.0,2.0,2.0,0.0,0.0981,0.0003,0.147,1,10
10.0,1.9804,1.9012,2.0119,-0.0316,0.0057,0.0002,-0.0336,0.08,0.0156,2.0,2.0,2.0,0.0,0.1015,-0.0002,0.0882,1,13
10.02,1.9823,1.8977,2.011,-0.0328,0.0041,0.0001,-0.0493,0.1437,0.0103,2.0,2.0,2.0,0.0,0.1044,-0.0001,0.1522,1,4
10.04,1.9843,1.8947,2.01,-0.0349,0.0054,-0.0002,-0.0507,0.1,0.0167,2.0,2.0,2.0,0.0,0.1069,0.0002,0.1134,1,12
10.06,1.9864,1.8921,2.0093,-0.0364,0.0035,-0.0,-0.0563,0.1284,0.0093,2.0,2.0,2.0,0.0,0.1092,0.0,0.1405,1,8
10.08,1.9885,1.8897,2.0085,-0.0358,0.0015,-0.0005,-0.032,0.0864,0.0072,2.0,2.0,2.0,0.0,0.1112,0.0005,0.0924,1,3
10.1,1.9903,1.8873,2.0074,-0.0371,0.0,-0.0004,-0.0368,0.1103,0.012,2.0,2.0,2.0,0.0,0.1134,0.0004,0.1169,1,1
10.12,1.9919,1.8847,2.0065,-0.0375,-0.0002,-0.0003,-0.0432,0.1291,0.0129,2.0,2.0,2.0,0.0,0.1158,0.0003,0.1367,1,8
10.14,1.9931,1.8818,2.0056,-0.0396,-0.0004,-0.0005,-0.0297,0.08,0.0169,2.0,2.0,2.0,0.0,0.1185,0.0005,0.087,1,13
10.16,1.994,1.8785,2.0049,-0.0422,-0.0009,-0.0002,-0.0224,0.1483,0.0099,2.0,2.0,2.0,0.0,0.1217,0.0002,0.1503,1,4
10.18,1.9944,1.8749,2.0043,-0.0438,-0.0027,0.0001,-0.0069,0.1133,0.0075,2.0,2.0,2.0,0.0,0.1253,-0.0001,0.1138,1,7
10.2,1.9943,1.8711,2.0036,-0.0457,-0.0021,0.0,0.0056,0.1645,0.0088,2.0,2.0,2.0,0.0,0.1291,-0.0,0.1648,1,4
10.22,1.9937,1.8675,2.0032,-0.0465,-0.0019,-0.0,0.0153,0.131,0.0043,2.0,2.0,2.0,0.0,0.1327,0.0,0.1319,1,2
10.24,1.9925,1.8644,2.003,-0.0481,-0.0006,-0.0,0.0282,0.1115,0.0029,2.0,2.0,2.0,0.0,0.1358,0.0,0.1151,1,11
10.26,1.9909,1.8618,2.0025,-0.0482,0.0006,-0.0003,0.0466,0.1188,0.0063,2.0,2.0,2.0,0.0,0.1385,0.0003,0.1277,1,5
10.28,1.9889,1.8599,2.0019,-0.0475,0.0011,-0.0001,0.0488,0.0852,0.0076,2.0,2.0,2.0,0.0,0.1405,0.0001,0.0985,1,11
10.3,1.9866,1.8587,2.0014,-0.0482,0.0034,-0.0002,0.0751,0.1,0.0087,2.0,2.0,2.0,0.0,0.1419,0.0002,0.1254,1,8
10.32,1.984,1.8583,2.0011,-0.0467,0.005,-0.0004,0.083,0.0767,0.0042,2.0,2.0,2.0,0.0,0.1426,0.0004,0.1131,1,8
10.34,1.9813,1.8587,2.0009,-0.0471,0.0068,-0.0003,0.0818,0.041,0.0029,2.0,2.0,2.0,0.0,0.1425,0.0003,0.0915,1,12
10.36,1.9785,1.8598,2.0007,-0.046,0.0082,-0.0003,0.0919,0.0223,0.0035,2.0,2.0,2.0,0.0,0.1418,0.0003,0.0946,1,4
10.38,1.9758,1.8617,2.0004,-0.044,0.0097,-0.0003,0.04,-0.0088,0.0064,2.0,2.0,2.0,0.0,0.1404,0.0003,0.0414,1,15
10.4,1.973,1.8644,1.9996,-0.0414,0.011,0.0002,0.0781,-0.0262,0.0118,2.0,2.0,2.0,0.0,0.1383,-0.0002,0.0832,1,6
10.42,1.9705,1.8677,1.999,-0.0406,0.0115,0.0001,0.0889,-0.0476,0.0114,2.0,2.0,2.0,0.0,0.1355,-0.0001,0.1015,1,4
10.44,1.9682,1.8713,1.9983,-0.039,0.013,-0.0005,0.0811,-0.0487,0.0134,2.0,2.0,2.0,0.0,0.1326,0.0005,0.0955,1,8
10.46,1.9662,1.8746,1.9974,-0.0365,0.0147,0.0,0.0602,-0.0434,0.0181,2.0,2.0,2.0,0.0,0.1299,-0.0,0.0764,1,13
10.48,1.9647,1.8773,1.9968,-0.0352,0.0148,-0.0002,0.0504,0.0003,0.0114,2.0,2.0,2.0,0.0,0.1277,0.0002,0.0517,1,1
10.5,1.9637,1.8797,1.9965,-0.0336,0.0142,-0.0001,0.0415,-0.0221,0.0096,2.0,2.0,2.0,0.0,0.1257,0.0001,0.048,1,12
10.52,1.9631,1.8823,1.9961,-0.033,0.0148,0.0,0.0237,-0.0263,0.0084,2.0,2.0,2.0,0.0,0.1234,-0.0,0.0364,1,14
10.54,1.9628,1.8854,1.9957,-0.03,0.0156,-0.0001,0.023,-0.0401,0.0071,2.0,2.0,2.0,0.0,0.1205,0.0001,0.0468,1,9
10.56,1.9628,1.8892,1.9955,-0.0286,0.0143,0.0,0.0123,-0.0599,0.0072,2.0,2.0,2.0,0.0,0.117,-0.0,0.0615,1,13
10.58,1.963,1.8935,1.9949,-0.0266,0.0139,0.0004,0.0066,-0.0751,0.0099,2.0,2.0,2.0,0.0,0.1129,-0.0004,0.0761,1,6
10.6,1.9634,1.898,1.9944,-0.0243,0.0138,0.0002,0.0025,-0.0828,0.0112,2.0,2.0,2.0,0.0,0.1085,-0.0002,0.0836,1,9
10.62,1.964,1.9026,1.9937,-0.0217,0.0138,0.0006,0.0061,-0.0611,0.0155,2.0,2.0,2.0,0.0,0.104,-0.0006,0.0633,1,0
10.64,1.9647,1.907,1.9932,-0.019,0.0132,0.0003,-0.008,-0.0895,0.012,2.0,2.0,2.0,0.0,0.0997,-0.0003,0.0907,1,5
10.66,1.9655,1.9112,1.993,-0.0186,0.0133,0.0003,-0.0095,-0.0877,0.0078,2.0,2.0,2.0,0.0,0.0956,-0.0003,0.0886,1,4
10.68,1.9663,1.9147,1.9926,-0.0173,0.0123,0.0009,-0.0084,-0.0674,0.01,2.0,2.0,2.0,0.0,0.092,-0.0009,0.0687,1,12
10.7,1.9671,1.9177,1.9923,-0.0157,0.0115,0.0004,-0.009,-0.0463,0.009,2.0,2.0,2.0,0.0,0.089,-0.0004,0.048,1,9
10.72,1.9678,1.9198,1.992,-0.0155,0.0113,0.0005,-0.0076,-0.0262,0.0071,2.0,2.0,2.0,0.0,0.0868,-0.0005,0.0282,1,14
10.74,1.9684,1.9211,1.9918,-0.0158,0.0111,0.0004,-0.0056,-0.0021,0.0062,2.0,2.0,2.0,0.0,0.0854,-0.0004,0.0086,1,9
10.76,1.969,1.9214,1.9917,-0.0163,0.0107,0.0004,-0.0026,0.0263,0.0064,2.0,2.0,2.0,0.0,0.0849,-0.0004,0.0272,1,8
10.78,1.9695,1.9208,1.9915,-0.0173,0.0105,0.0002,-0.0026,0.0357,0.0051,2.0,2.0,2.0,0.0,0.0853,-0.0002,0.0362,1,14
10.8,1.9698,1.9193,1.9913,-0.0187,0.0104,0.0002,0.0005,0.0707,0.0069,2.0,2.0,2.0,0.0,0.0866,-0.0002,0.0711,1,5
10.82,1.9701,1.9168,1.9912,-0.0207,0.0103,0.0002,0.0033,0.0978,0.0073,2.0,2.0,2.0,0.0,0.0889,-0.0002,0.0981,1,5
10.84,1.9702,1.9133,1.991,-0.0231,0.0102,0.0001,0.0061,0.08,0.0061,2.0,2.0,2.0,0.0,0.0921,-0.0001,0.0805,1,13
10.86,1.9702,1.9089,1.9908,-0.0267,0.0103,0.0001,0.0119,0.1707,0.0078,2.0,2.0,2.0,0.0,0.0963,-0.0001,0.1713,1,4
10.88,1.97,1.9034,1.9905,-0.0298,0.0094,0.0004,0.0189,0.1901,0.0096,2.0,2.0,2.0,0.0,0.1016,-0.0004,0.1912,1,9
10.9,1.9695,1.8969,1.9902,-0.0341,0.0096,-0.0001,0.0249,0.2144,0.0088,2.0,2.0,2.0,0.0,0.108,0.0001,0.2161,1,5
10.92,1.9684,1.8894,1.9903,-0.0389,0.0105,-0.0001,0.0346,0.1998,0.0049,2.0,2.0,2.0,0.0,0.1154,0.0001,0.2028,1,2
10.94,1.9669,1.8808,1.99,-0.0436,0.012,-0.0007,0.0559,0.2805,0.0119,2.0,2.0,2.0,0.0,0.1241,0.0007,0.2863,1,0
